{"run_id": "20260427_172806", "kraken_seq": null, "telemetry_seq": 0, "t_rx_ms": 1777336086279, "dt_ms": null, "doa_deg": null, "confidence_0_1": null, "lat_deg": null, "lon_deg": null, "altitude_rel_ft": null, "yaw_deg": null, "pitch_deg": null, "roll_deg": null, "ground_speed_ft_s": null, "vel_north_m_s": null, "vel_east_m_s": null, "vel_down_m_s": null, "usable_for_triangulation": false}
{"run_id": "20260427_172806", "kraken_seq": null, "telemetry_seq": 1, "t_rx_ms": 1777336086480, "dt_ms": null, "doa_deg": null, "confidence_0_1": null, "lat_deg": 34.0105295, "lon_deg": -118.00742, "altitude_rel_ft": 305.21, "yaw_deg": 92.6944, "pitch_deg": -4.6851, "roll_deg": 0.2156, "ground_speed_ft_s": 73.3549, "vel_north_m_s": -1.13, "vel_east_m_s": 22.33, "vel_down_m_s": 0.48, "usable_for_triangulation": false}
{"run_id": "20260427_172806", "kraken_seq": null, "telemetry_seq": 2, "t_rx_ms": 1777336086681, "dt_ms": null, "doa_deg": null, "confidence_0_1": null, "lat_deg": 34.0105295, "lon_deg": -118.00742, "altitude_rel_ft": 305.21, "yaw_deg": 92.7249, "pitch_deg": -4.8278, "roll_deg": 0.1316, "ground_speed_ft_s": 73.3549, "vel_north_m_s": -1.13, "vel_east_m_s": 22.33, "vel_down_m_s": 0.48, "usable_for_triangulation": false}
{"run_id": "20260427_172806", "kraken_seq": null, "telemetry_seq": 3, "t_rx_ms": 1777336086881, "dt_ms": null, "doa_deg": null, "confidence_0_1": null, "lat_deg": 34.0105261, "lon_deg": -118.00733799999999, "altitude_rel_ft": 304.6719, "yaw_deg": 92.7883, "pitch_deg": -5.0669, "roll_deg": -0.0127, "ground_speed_ft_s": 73.3221, "vel_north_m_s": -1.13, "vel_east_m_s": 22.32, "vel_down_m_s": 0.57, "usable_for_triangulation": false}
{"run_id": "20260427_172806", "kraken_seq": null, "telemetry_seq": 4, "t_rx_ms": 1777336087081, "dt_ms": null, "doa_deg": null, "confidence_0_1": null, "lat_deg": 34.0105226, "lon_deg": -118.00725639999999, "altitude_rel_ft": 303.9731, "yaw_deg": 92.779, "pitch_deg": -5.1145, "roll_deg": -0.0138, "ground_speed_ft_s": 73.291, "vel_north_m_s": -1.14, "vel_east_m_s": 22.31, "vel_down_m_s": 0.66, "usable_for_triangulation": false}
{"run_id": "20260427_172806", "kraken_seq": null, "telemetry_seq": 5, "t_rx_ms": 1777336087282, "dt_ms": null, "doa_deg": null, "confidence_0_1": null, "lat_deg": 34.0105226, "lon_deg": -118.00725639999999, "altitude_rel_ft": 303.9731, "yaw_deg": 92.7726, "pitch_deg": -4.8022, "roll_deg": 0.0539, "ground_speed_ft_s": 73.291, "vel_north_m_s": -1.14, "vel_east_m_s": 22.31, "vel_down_m_s": 0.66, "usable_for_triangulation": false}
{"run_id": "20260427_172806", "kraken_seq": null, "telemetry_seq": 6, "t_rx_ms": 1777336087483, "dt_ms": null, "doa_deg": null, "confidence_0_1": null, "lat_deg": 34.0105193, "lon_deg": -118.00717949999999, "altitude_rel_ft": 303.3629, "yaw_deg": 92.7284, "pitch_deg": -4.6666, "roll_deg": 0.123, "ground_speed_ft_s": 73.2272, "vel_north_m_s": -1.15, "vel_east_m_s": 22.29, "vel_down_m_s": 0.51, "usable_for_triangulation": false}
{"run_id": "20260427_172806", "kraken_seq": null, "telemetry_seq": 7, "t_rx_ms": 1777336087684, "dt_ms": null, "doa_deg": null, "confidence_0_1": null, "lat_deg": 34.0105193, "lon_deg": -118.00717949999999, "altitude_rel_ft": 303.3629, "yaw_deg": 92.8338, "pitch_deg": -4.9893, "roll_deg": -0.0203, "ground_speed_ft_s": 73.2272, "vel_north_m_s": -1.15, "vel_east_m_s": 22.29, "vel_down_m_s": 0.51, "usable_for_triangulation": false}
{"run_id": "20260427_172806", "kraken_seq": null, "telemetry_seq": 8, "t_rx_ms": 1777336087885, "dt_ms": null, "doa_deg": null, "confidence_0_1": null, "lat_deg": 34.0105158, "lon_deg": -118.0070971, "altitude_rel_ft": 302.7362, "yaw_deg": 92.8137, "pitch_deg": -5.1189, "roll_deg": -0.0653, "ground_speed_ft_s": 73.2289, "vel_north_m_s": -1.16, "vel_east_m_s": 22.29, "vel_down_m_s": 0.62, "usable_for_triangulation": false}
{"run_id": "20260427_172806", "kraken_seq": null, "telemetry_seq": 9, "t_rx_ms": 1777336088086, "dt_ms": null, "doa_deg": null, "confidence_0_1": null, "lat_deg": 34.0105122, "lon_deg": -118.00701409999999, "altitude_rel_ft": 302.0013, "yaw_deg": 92.8103, "pitch_deg": -5.1578, "roll_deg": -0.1426, "ground_speed_ft_s": 73.3927, "vel_north_m_s": -1.16, "vel_east_m_s": 22.34, "vel_down_m_s": 0.67, "usable_for_triangulation": false}
{"run_id": "20260427_172806", "kraken_seq": null, "telemetry_seq": 10, "t_rx_ms": 1777336088287, "dt_ms": null, "doa_deg": null, "confidence_0_1": null, "lat_deg": 34.0105122, "lon_deg": -118.00701409999999, "altitude_rel_ft": 302.0013, "yaw_deg": 92.7801, "pitch_deg": -4.8787, "roll_deg": -0.1066, "ground_speed_ft_s": 73.3927, "vel_north_m_s": -1.16, "vel_east_m_s": 22.34, "vel_down_m_s": 0.67, "usable_for_triangulation": false}
{"run_id": "20260427_172806", "kraken_seq": null, "telemetry_seq": 11, "t_rx_ms": 1777336088487, "dt_ms": null, "doa_deg": null, "confidence_0_1": null, "lat_deg": 34.0105089, "lon_deg": -118.00693609999999, "altitude_rel_ft": 301.4009, "yaw_deg": 92.7364, "pitch_deg": -4.6779, "roll_deg": -0.0158, "ground_speed_ft_s": 73.4565, "vel_north_m_s": -1.15, "vel_east_m_s": 22.36, "vel_down_m_s": 0.5, "usable_for_triangulation": false}
{"run_id": "20260427_172806", "kraken_seq": null, "telemetry_seq": 12, "t_rx_ms": 1777336088688, "dt_ms": null, "doa_deg": null, "confidence_0_1": null, "lat_deg": 34.0105089, "lon_deg": -118.00693609999999, "altitude_rel_ft": 301.4009, "yaw_deg": 92.7634, "pitch_deg": -4.6851, "roll_deg": 0.0701, "ground_speed_ft_s": 73.4565, "vel_north_m_s": -1.15, "vel_east_m_s": 22.36, "vel_down_m_s": 0.5, "usable_for_triangulation": false}
{"run_id": "20260427_172806", "kraken_seq": null, "telemetry_seq": 13, "t_rx_ms": 1777336088888, "dt_ms": null, "doa_deg": null, "confidence_0_1": null, "lat_deg": 34.0105054, "lon_deg": -118.0068541, "altitude_rel_ft": 300.8858, "yaw_deg": 92.7625, "pitch_deg": -4.9624, "roll_deg": 0.1061, "ground_speed_ft_s": 73.4238, "vel_north_m_s": -1.15, "vel_east_m_s": 22.35, "vel_down_m_s": 0.52, "usable_for_triangulation": false}
{"run_id": "20260427_172806", "kraken_seq": null, "telemetry_seq": 14, "t_rx_ms": 1777336089089, "dt_ms": null, "doa_deg": null, "confidence_0_1": null, "lat_deg": 34.010501999999995, "lon_deg": -118.00677239999999, "altitude_rel_ft": 300.2461, "yaw_deg": 92.7467, "pitch_deg": -5.03, "roll_deg": 0.0185, "ground_speed_ft_s": 73.3582, "vel_north_m_s": -1.15, "vel_east_m_s": 22.33, "vel_down_m_s": 0.64, "usable_for_triangulation": false}
{"run_id": "20260427_172806", "kraken_seq": null, "telemetry_seq": 15, "t_rx_ms": 1777336089290, "dt_ms": null, "doa_deg": null, "confidence_0_1": null, "lat_deg": 34.010501999999995, "lon_deg": -118.00677239999999, "altitude_rel_ft": 300.2461, "yaw_deg": 92.7969, "pitch_deg": -4.9368, "roll_deg": -0.0111, "ground_speed_ft_s": 73.3582, "vel_north_m_s": -1.15, "vel_east_m_s": 22.33, "vel_down_m_s": 0.64, "usable_for_triangulation": false}
{"run_id": "20260427_172806", "kraken_seq": null, "telemetry_seq": 16, "t_rx_ms": 1777336089491, "dt_ms": null, "doa_deg": null, "confidence_0_1": null, "lat_deg": 34.0104987, "lon_deg": -118.00669549999999, "altitude_rel_ft": 299.6096, "yaw_deg": 92.7727, "pitch_deg": -4.8756, "roll_deg": 0.025, "ground_speed_ft_s": 73.2944, "vel_north_m_s": -1.16, "vel_east_m_s": 22.31, "vel_down_m_s": 0.61, "usable_for_triangulation": false}
{"run_id": "20260427_172806", "kraken_seq": null, "telemetry_seq": 17, "t_rx_ms": 1777336089691, "dt_ms": null, "doa_deg": null, "confidence_0_1": null, "lat_deg": 34.0104987, "lon_deg": -118.00669549999999, "altitude_rel_ft": 299.6096, "yaw_deg": 92.8193, "pitch_deg": -4.8477, "roll_deg": 0.0695, "ground_speed_ft_s": 73.2944, "vel_north_m_s": -1.16, "vel_east_m_s": 22.31, "vel_down_m_s": 0.61, "usable_for_triangulation": false}
{"run_id": "20260427_172806", "kraken_seq": null, "telemetry_seq": 18, "t_rx_ms": 1777336089893, "dt_ms": null, "doa_deg": null, "confidence_0_1": null, "lat_deg": 34.0104952, "lon_deg": -118.00661339999999, "altitude_rel_ft": 298.9731, "yaw_deg": 92.8183, "pitch_deg": -4.951, "roll_deg": 0.0738, "ground_speed_ft_s": 73.2289, "vel_north_m_s": -1.16, "vel_east_m_s": 22.29, "vel_down_m_s": 0.58, "usable_for_triangulation": false}
{"run_id": "20260427_172806", "kraken_seq": null, "telemetry_seq": 19, "t_rx_ms": 1777336090093, "dt_ms": null, "doa_deg": null, "confidence_0_1": null, "lat_deg": 34.0104916, "lon_deg": -118.0065307, "altitude_rel_ft": 298.2841, "yaw_deg": 92.7866, "pitch_deg": -5.1174, "roll_deg": -0.0083, "ground_speed_ft_s": 73.3272, "vel_north_m_s": -1.16, "vel_east_m_s": 22.32, "vel_down_m_s": 0.67, "usable_for_triangulation": false}
{"run_id": "20260427_172806", "kraken_seq": null, "telemetry_seq": 20, "t_rx_ms": 1777336090294, "dt_ms": null, "doa_deg": null, "confidence_0_1": null, "lat_deg": 34.0104916, "lon_deg": -118.0065307, "altitude_rel_ft": 298.2841, "yaw_deg": 92.808, "pitch_deg": -4.9734, "roll_deg": -0.0034, "ground_speed_ft_s": 73.3272, "vel_north_m_s": -1.16, "vel_east_m_s": 22.32, "vel_down_m_s": 0.67, "usable_for_triangulation": false}
{"run_id": "20260427_172806", "kraken_seq": null, "telemetry_seq": 21, "t_rx_ms": 1777336090496, "dt_ms": null, "doa_deg": null, "confidence_0_1": null, "lat_deg": 34.0104883, "lon_deg": -118.0064524, "altitude_rel_ft": 297.6608, "yaw_deg": 92.767, "pitch_deg": -4.8771, "roll_deg": -0.0418, "ground_speed_ft_s": 73.4255, "vel_north_m_s": -1.16, "vel_east_m_s": 22.35, "vel_down_m_s": 0.57, "usable_for_triangulation": false}
{"run_id": "20260427_172806", "kraken_seq": null, "telemetry_seq": 22, "t_rx_ms": 1777336090696, "dt_ms": null, "doa_deg": null, "confidence_0_1": null, "lat_deg": 34.0104883, "lon_deg": -118.0064524, "altitude_rel_ft": 297.6608, "yaw_deg": 92.7637, "pitch_deg": -4.903, "roll_deg": -0.0112, "ground_speed_ft_s": 73.4255, "vel_north_m_s": -1.16, "vel_east_m_s": 22.35, "vel_down_m_s": 0.57, "usable_for_triangulation": false}
{"run_id": "20260427_172806", "kraken_seq": null, "telemetry_seq": 23, "t_rx_ms": 1777336090897, "dt_ms": null, "doa_deg": null, "confidence_0_1": null, "lat_deg": 34.0104848, "lon_deg": -118.0063698, "altitude_rel_ft": 297.0735, "yaw_deg": 92.7774, "pitch_deg": -4.8683, "roll_deg": 0.0417, "ground_speed_ft_s": 73.4549, "vel_north_m_s": -1.14, "vel_east_m_s": 22.36, "vel_down_m_s": 0.56, "usable_for_triangulation": false}
{"run_id": "20260427_172806", "kraken_seq": null, "telemetry_seq": 24, "t_rx_ms": 1777336091098, "dt_ms": null, "doa_deg": null, "confidence_0_1": null, "lat_deg": 34.010481299999995, "lon_deg": -118.00628789999999, "altitude_rel_ft": 296.4797, "yaw_deg": 92.7401, "pitch_deg": -4.8634, "roll_deg": 0.0744, "ground_speed_ft_s": 73.3893, "vel_north_m_s": -1.14, "vel_east_m_s": 22.34, "vel_down_m_s": 0.58, "usable_for_triangulation": false}
{"run_id": "20260427_172806", "kraken_seq": null, "telemetry_seq": 25, "t_rx_ms": 1777336091298, "dt_ms": null, "doa_deg": null, "confidence_0_1": null, "lat_deg": 34.010481299999995, "lon_deg": -118.00628789999999, "altitude_rel_ft": 296.4797, "yaw_deg": 92.7409, "pitch_deg": -4.9764, "roll_deg": -0.0101, "ground_speed_ft_s": 73.3893, "vel_north_m_s": -1.14, "vel_east_m_s": 22.34, "vel_down_m_s": 0.58, "usable_for_triangulation": false}
{"run_id": "20260427_172806", "kraken_seq": null, "telemetry_seq": 26, "t_rx_ms": 1777336091499, "dt_ms": null, "doa_deg": null, "confidence_0_1": null, "lat_deg": 34.0104781, "lon_deg": -118.006211, "altitude_rel_ft": 295.8957, "yaw_deg": 92.7629, "pitch_deg": -5.037, "roll_deg": -0.0755, "ground_speed_ft_s": 73.2583, "vel_north_m_s": -1.14, "vel_east_m_s": 22.3, "vel_down_m_s": 0.62, "usable_for_triangulation": false}
{"run_id": "20260427_172806", "kraken_seq": null, "telemetry_seq": 27, "t_rx_ms": 1777336091700, "dt_ms": null, "doa_deg": null, "confidence_0_1": null, "lat_deg": 34.0104746, "lon_deg": -118.0061291, "altitude_rel_ft": 295.1936, "yaw_deg": 92.7543, "pitch_deg": -5.0196, "roll_deg": -0.0076, "ground_speed_ft_s": 73.1927, "vel_north_m_s": -1.14, "vel_east_m_s": 22.28, "vel_down_m_s": 0.64, "usable_for_triangulation": false}
{"run_id": "20260427_172806", "kraken_seq": null, "telemetry_seq": 28, "t_rx_ms": 1777336091900, "dt_ms": null, "doa_deg": null, "confidence_0_1": null, "lat_deg": 34.0104746, "lon_deg": -118.0061291, "altitude_rel_ft": 295.1936, "yaw_deg": 92.7247, "pitch_deg": -4.973, "roll_deg": 0.044, "ground_speed_ft_s": 73.1927, "vel_north_m_s": -1.14, "vel_east_m_s": 22.28, "vel_down_m_s": 0.64, "usable_for_triangulation": false}
{"run_id": "20260427_172806", "kraken_seq": null, "telemetry_seq": 29, "t_rx_ms": 1777336092101, "dt_ms": null, "doa_deg": null, "confidence_0_1": null, "lat_deg": 34.0104713, "lon_deg": -118.0060513, "altitude_rel_ft": 294.5538, "yaw_deg": 92.7724, "pitch_deg": -5.0363, "roll_deg": 0.1072, "ground_speed_ft_s": 73.2894, "vel_north_m_s": -1.13, "vel_east_m_s": 22.31, "vel_down_m_s": 0.63, "usable_for_triangulation": false}
{"run_id": "20260427_172806", "kraken_seq": null, "telemetry_seq": 30, "t_rx_ms": 1777336092302, "dt_ms": null, "doa_deg": null, "confidence_0_1": null, "lat_deg": 34.0104713, "lon_deg": -118.0060513, "altitude_rel_ft": 294.5538, "yaw_deg": 92.7724, "pitch_deg": -5.0363, "roll_deg": 0.1072, "ground_speed_ft_s": 73.2894, "vel_north_m_s": -1.13, "vel_east_m_s": 22.31, "vel_down_m_s": 0.63, "usable_for_triangulation": false}
{"run_id": "20260427_172806", "kraken_seq": null, "telemetry_seq": 31, "t_rx_ms": 1777336092503, "dt_ms": null, "doa_deg": null, "confidence_0_1": null, "lat_deg": 34.0104713, "lon_deg": -118.0060513, "altitude_rel_ft": 294.5538, "yaw_deg": 92.8059, "pitch_deg": -5.0083, "roll_deg": 0.0993, "ground_speed_ft_s": 73.2894, "vel_north_m_s": -1.13, "vel_east_m_s": 22.31, "vel_down_m_s": 0.63, "usable_for_triangulation": false}
{"run_id": "20260427_172806", "kraken_seq": null, "telemetry_seq": 32, "t_rx_ms": 1777336092704, "dt_ms": null, "doa_deg": null, "confidence_0_1": null, "lat_deg": 34.010464299999995, "lon_deg": -118.0058857, "altitude_rel_ft": 293.2185, "yaw_deg": 92.8986, "pitch_deg": -4.9246, "roll_deg": 0.009, "ground_speed_ft_s": 73.4582, "vel_north_m_s": -1.16, "vel_east_m_s": 22.36, "vel_down_m_s": 0.58, "usable_for_triangulation": false}
{"run_id": "20260427_172806", "kraken_seq": null, "telemetry_seq": 33, "t_rx_ms": 1777336092905, "dt_ms": null, "doa_deg": null, "confidence_0_1": null, "lat_deg": 34.010464299999995, "lon_deg": -118.0058857, "altitude_rel_ft": 293.2185, "yaw_deg": 92.8726, "pitch_deg": -4.9295, "roll_deg": 0.0162, "ground_speed_ft_s": 73.4582, "vel_north_m_s": -1.16, "vel_east_m_s": 22.36, "vel_down_m_s": 0.58, "usable_for_triangulation": false}
{"run_id": "20260427_172806", "kraken_seq": null, "telemetry_seq": 34, "t_rx_ms": 1777336093105, "dt_ms": null, "doa_deg": null, "confidence_0_1": null, "lat_deg": 34.010461, "lon_deg": -118.0058086, "altitude_rel_ft": 292.6378, "yaw_deg": 92.8223, "pitch_deg": -5.0217, "roll_deg": -0.0623, "ground_speed_ft_s": 73.3944, "vel_north_m_s": -1.17, "vel_east_m_s": 22.34, "vel_down_m_s": 0.61, "usable_for_triangulation": false}
{"run_id": "20260427_172806", "kraken_seq": null, "telemetry_seq": 35, "t_rx_ms": 1777336093305, "dt_ms": null, "doa_deg": null, "confidence_0_1": null, "lat_deg": 34.010461, "lon_deg": -118.0058086, "altitude_rel_ft": 292.6378, "yaw_deg": 92.7866, "pitch_deg": -5.0156, "roll_deg": -0.0775, "ground_speed_ft_s": 73.3944, "vel_north_m_s": -1.17, "vel_east_m_s": 22.34, "vel_down_m_s": 0.61, "usable_for_triangulation": false}
{"run_id": "20260427_172806", "kraken_seq": null, "telemetry_seq": 36, "t_rx_ms": 1777336093508, "dt_ms": null, "doa_deg": null, "confidence_0_1": null, "lat_deg": 34.0104575, "lon_deg": -118.0057269, "altitude_rel_ft": 291.9488, "yaw_deg": 92.8432, "pitch_deg": -4.9623, "roll_deg": -0.1621, "ground_speed_ft_s": 73.3255, "vel_north_m_s": -1.15, "vel_east_m_s": 22.32, "vel_down_m_s": 0.64, "usable_for_triangulation": false}
{"run_id": "20260427_172806", "kraken_seq": null, "telemetry_seq": 37, "t_rx_ms": 1777336093708, "dt_ms": null, "doa_deg": null, "confidence_0_1": null, "lat_deg": 34.0104541, "lon_deg": -118.0056451, "altitude_rel_ft": 291.2533, "yaw_deg": 92.8221, "pitch_deg": -4.9181, "roll_deg": -0.059, "ground_speed_ft_s": 73.2599, "vel_north_m_s": -1.15, "vel_east_m_s": 22.3, "vel_down_m_s": 0.61, "usable_for_triangulation": false}
{"run_id": "20260427_172806", "kraken_seq": null, "telemetry_seq": 38, "t_rx_ms": 1777336093909, "dt_ms": null, "doa_deg": null, "confidence_0_1": null, "lat_deg": 34.0104541, "lon_deg": -118.0056451, "altitude_rel_ft": 291.2533, "yaw_deg": 92.8163, "pitch_deg": -4.9298, "roll_deg": 0.0352, "ground_speed_ft_s": 73.2599, "vel_north_m_s": -1.15, "vel_east_m_s": 22.3, "vel_down_m_s": 0.61, "usable_for_triangulation": false}
{"run_id": "20260427_172806", "kraken_seq": null, "telemetry_seq": 39, "t_rx_ms": 1777336094110, "dt_ms": null, "doa_deg": null, "confidence_0_1": null, "lat_deg": 34.0104508, "lon_deg": -118.0055675, "altitude_rel_ft": 290.5873, "yaw_deg": 92.7677, "pitch_deg": -5.1242, "roll_deg": 0.0514, "ground_speed_ft_s": 73.2599, "vel_north_m_s": -1.15, "vel_east_m_s": 22.3, "vel_down_m_s": 0.63, "usable_for_triangulation": false}
{"run_id": "20260427_172806", "kraken_seq": null, "telemetry_seq": 40, "t_rx_ms": 1777336094310, "dt_ms": null, "doa_deg": null, "confidence_0_1": null, "lat_deg": 34.0104508, "lon_deg": -118.0055675, "altitude_rel_ft": 290.5873, "yaw_deg": 92.8347, "pitch_deg": -5.2403, "roll_deg": 0.0411, "ground_speed_ft_s": 73.2599, "vel_north_m_s": -1.15, "vel_east_m_s": 22.3, "vel_down_m_s": 0.63, "usable_for_triangulation": false}
{"run_id": "20260427_172806", "kraken_seq": null, "telemetry_seq": 41, "t_rx_ms": 1777336094512, "dt_ms": null, "doa_deg": null, "confidence_0_1": null, "lat_deg": 34.010447299999996, "lon_deg": -118.0054845, "altitude_rel_ft": 289.7999, "yaw_deg": 92.8328, "pitch_deg": -4.9371, "roll_deg": 0.0541, "ground_speed_ft_s": 73.4238, "vel_north_m_s": -1.15, "vel_east_m_s": 22.35, "vel_down_m_s": 0.71, "usable_for_triangulation": false}
{"run_id": "20260427_172806", "kraken_seq": null, "telemetry_seq": 42, "t_rx_ms": 1777336094713, "dt_ms": null, "doa_deg": null, "confidence_0_1": null, "lat_deg": 34.010443699999996, "lon_deg": -118.0054018, "altitude_rel_ft": 289.1306, "yaw_deg": 92.8222, "pitch_deg": -4.673, "roll_deg": -0.0077, "ground_speed_ft_s": 73.4893, "vel_north_m_s": -1.15, "vel_east_m_s": 22.37, "vel_down_m_s": 0.51, "usable_for_triangulation": false}
{"run_id": "20260427_172806", "kraken_seq": null, "telemetry_seq": 43, "t_rx_ms": 1777336094914, "dt_ms": null, "doa_deg": null, "confidence_0_1": null, "lat_deg": 34.010443699999996, "lon_deg": -118.0054018, "altitude_rel_ft": 289.1306, "yaw_deg": 92.802, "pitch_deg": -4.5921, "roll_deg": -0.0145, "ground_speed_ft_s": 73.4893, "vel_north_m_s": -1.15, "vel_east_m_s": 22.37, "vel_down_m_s": 0.51, "usable_for_triangulation": false}
{"run_id": "20260427_172806", "kraken_seq": null, "telemetry_seq": 44, "t_rx_ms": 1777336095116, "dt_ms": null, "doa_deg": null, "confidence_0_1": null, "lat_deg": 34.0104405, "lon_deg": -118.0053245, "altitude_rel_ft": 288.6385, "yaw_deg": 92.7541, "pitch_deg": -4.886, "roll_deg": -0.0303, "ground_speed_ft_s": 73.4204, "vel_north_m_s": -1.13, "vel_east_m_s": 22.35, "vel_down_m_s": 0.49, "usable_for_triangulation": false}
{"run_id": "20260427_172806", "kraken_seq": null, "telemetry_seq": 45, "t_rx_ms": 1777336095317, "dt_ms": null, "doa_deg": null, "confidence_0_1": null, "lat_deg": 34.0104405, "lon_deg": -118.0053245, "altitude_rel_ft": 288.6385, "yaw_deg": 92.6831, "pitch_deg": -5.1855, "roll_deg": -0.015, "ground_speed_ft_s": 73.4204, "vel_north_m_s": -1.13, "vel_east_m_s": 22.35, "vel_down_m_s": 0.49, "usable_for_triangulation": false}
{"run_id": "20260427_172806", "kraken_seq": null, "telemetry_seq": 46, "t_rx_ms": 1777336095518, "dt_ms": null, "doa_deg": null, "confidence_0_1": null, "lat_deg": 34.0104371, "lon_deg": -118.00524259999999, "altitude_rel_ft": 287.9561, "yaw_deg": 92.6322, "pitch_deg": -5.0959, "roll_deg": 0.1157, "ground_speed_ft_s": 73.35, "vel_north_m_s": -1.1, "vel_east_m_s": 22.33, "vel_down_m_s": 0.7, "usable_for_triangulation": false}
{"run_id": "20260427_172806", "kraken_seq": null, "telemetry_seq": 47, "t_rx_ms": 1777336095720, "dt_ms": null, "doa_deg": null, "confidence_0_1": null, "lat_deg": 34.0104338, "lon_deg": -118.0051606, "altitude_rel_ft": 287.2343, "yaw_deg": 92.6853, "pitch_deg": -4.8111, "roll_deg": 0.1663, "ground_speed_ft_s": 73.3484, "vel_north_m_s": -1.09, "vel_east_m_s": 22.33, "vel_down_m_s": 0.59, "usable_for_triangulation": false}
{"run_id": "20260427_172806", "kraken_seq": null, "telemetry_seq": 48, "t_rx_ms": 1777336095921, "dt_ms": null, "doa_deg": null, "confidence_0_1": null, "lat_deg": 34.0104338, "lon_deg": -118.0051606, "altitude_rel_ft": 287.2343, "yaw_deg": 92.6894, "pitch_deg": -4.6697, "roll_deg": 0.2409, "ground_speed_ft_s": 73.3484, "vel_north_m_s": -1.09, "vel_east_m_s": 22.33, "vel_down_m_s": 0.59, "usable_for_triangulation": false}
{"run_id": "20260427_172806", "kraken_seq": null, "telemetry_seq": 49, "t_rx_ms": 1777336096122, "dt_ms": null, "doa_deg": null, "confidence_0_1": null, "lat_deg": 34.0104306, "lon_deg": -118.00508289999999, "altitude_rel_ft": 286.7257, "yaw_deg": 92.672, "pitch_deg": -4.8252, "roll_deg": 0.2316, "ground_speed_ft_s": 73.3172, "vel_north_m_s": -1.1, "vel_east_m_s": 22.32, "vel_down_m_s": 0.52, "usable_for_triangulation": false}
{"run_id": "20260427_172806", "kraken_seq": null, "telemetry_seq": 50, "t_rx_ms": 1777336096323, "dt_ms": null, "doa_deg": null, "confidence_0_1": null, "lat_deg": 34.0104306, "lon_deg": -118.00508289999999, "altitude_rel_ft": 286.7257, "yaw_deg": 92.7689, "pitch_deg": -5.1151, "roll_deg": 0.2077, "ground_speed_ft_s": 73.3172, "vel_north_m_s": -1.1, "vel_east_m_s": 22.32, "vel_down_m_s": 0.52, "usable_for_triangulation": false}
{"run_id": "20260427_172806", "kraken_seq": null, "telemetry_seq": 51, "t_rx_ms": 1777336096524, "dt_ms": null, "doa_deg": null, "confidence_0_1": null, "lat_deg": 34.010427199999995, "lon_deg": -118.0049998, "altitude_rel_ft": 286.0729, "yaw_deg": 92.8066, "pitch_deg": -5.0785, "roll_deg": 0.1548, "ground_speed_ft_s": 73.4171, "vel_north_m_s": -1.11, "vel_east_m_s": 22.35, "vel_down_m_s": 0.66, "usable_for_triangulation": false}
{"run_id": "20260427_172806", "kraken_seq": null, "telemetry_seq": 52, "t_rx_ms": 1777336096726, "dt_ms": null, "doa_deg": null, "confidence_0_1": null, "lat_deg": 34.0104238, "lon_deg": -118.0049166, "altitude_rel_ft": 285.3872, "yaw_deg": 92.7816, "pitch_deg": -4.8234, "roll_deg": 0.182, "ground_speed_ft_s": 73.5171, "vel_north_m_s": -1.12, "vel_east_m_s": 22.38, "vel_down_m_s": 0.55, "usable_for_triangulation": false}
{"run_id": "20260427_172806", "kraken_seq": null, "telemetry_seq": 53, "t_rx_ms": 1777336096927, "dt_ms": null, "doa_deg": null, "confidence_0_1": null, "lat_deg": 34.0104238, "lon_deg": -118.0049166, "altitude_rel_ft": 285.3872, "yaw_deg": 92.7125, "pitch_deg": -4.8295, "roll_deg": 0.1065, "ground_speed_ft_s": 73.5171, "vel_north_m_s": -1.12, "vel_east_m_s": 22.38, "vel_down_m_s": 0.55, "usable_for_triangulation": false}
{"run_id": "20260427_172806", "kraken_seq": null, "telemetry_seq": 54, "t_rx_ms": 1777336097127, "dt_ms": null, "doa_deg": null, "confidence_0_1": null, "lat_deg": 34.010420499999995, "lon_deg": -118.00483919999999, "altitude_rel_ft": 284.836, "yaw_deg": 92.7437, "pitch_deg": -4.9654, "roll_deg": 0.0754, "ground_speed_ft_s": 73.4499, "vel_north_m_s": -1.11, "vel_east_m_s": 22.36, "vel_down_m_s": 0.56, "usable_for_triangulation": false}
{"run_id": "20260427_172806", "kraken_seq": null, "telemetry_seq": 55, "t_rx_ms": 1777336097328, "dt_ms": null, "doa_deg": null, "confidence_0_1": null, "lat_deg": 34.010420499999995, "lon_deg": -118.00483919999999, "altitude_rel_ft": 284.836, "yaw_deg": 92.7624, "pitch_deg": -5.0584, "roll_deg": 0.0728, "ground_speed_ft_s": 73.4499, "vel_north_m_s": -1.11, "vel_east_m_s": 22.36, "vel_down_m_s": 0.56, "usable_for_triangulation": false}
{"run_id": "20260427_172806", "kraken_seq": null, "telemetry_seq": 56, "t_rx_ms": 1777336097529, "dt_ms": null, "doa_deg": null, "confidence_0_1": null, "lat_deg": 34.0104172, "lon_deg": -118.0047573, "altitude_rel_ft": 284.1798, "yaw_deg": 92.7489, "pitch_deg": -4.9089, "roll_deg": 0.152, "ground_speed_ft_s": 73.3844, "vel_north_m_s": -1.11, "vel_east_m_s": 22.34, "vel_down_m_s": 0.63, "usable_for_triangulation": false}
{"run_id": "20260427_172806", "kraken_seq": null, "telemetry_seq": 57, "t_rx_ms": 1777336097729, "dt_ms": null, "doa_deg": null, "confidence_0_1": null, "lat_deg": 34.010413799999995, "lon_deg": -118.00467549999999, "altitude_rel_ft": 283.5368, "yaw_deg": 92.7224, "pitch_deg": -4.7781, "roll_deg": 0.2104, "ground_speed_ft_s": 73.2861, "vel_north_m_s": -1.11, "vel_east_m_s": 22.31, "vel_down_m_s": 0.55, "usable_for_triangulation": false}
{"run_id": "20260427_172806", "kraken_seq": null, "telemetry_seq": 58, "t_rx_ms": 1777336097930, "dt_ms": null, "doa_deg": null, "confidence_0_1": null, "lat_deg": 34.010413799999995, "lon_deg": -118.00467549999999, "altitude_rel_ft": 283.5368, "yaw_deg": 92.7081, "pitch_deg": -4.808, "roll_deg": 0.1945, "ground_speed_ft_s": 73.2861, "vel_north_m_s": -1.11, "vel_east_m_s": 22.31, "vel_down_m_s": 0.55, "usable_for_triangulation": false}
{"run_id": "20260427_172806", "kraken_seq": null, "telemetry_seq": 59, "t_rx_ms": 1777336098131, "dt_ms": null, "doa_deg": null, "confidence_0_1": null, "lat_deg": 34.0104106, "lon_deg": -118.0045981, "altitude_rel_ft": 282.9823, "yaw_deg": 92.7216, "pitch_deg": -5.1274, "roll_deg": 0.1996, "ground_speed_ft_s": 73.2517, "vel_north_m_s": -1.1, "vel_east_m_s": 22.3, "vel_down_m_s": 0.61, "usable_for_triangulation": false}
{"run_id": "20260427_172806", "kraken_seq": null, "telemetry_seq": 60, "t_rx_ms": 1777336098333, "dt_ms": null, "doa_deg": null, "confidence_0_1": null, "lat_deg": 34.0104106, "lon_deg": -118.0045981, "altitude_rel_ft": 282.9823, "yaw_deg": 92.6789, "pitch_deg": -5.2764, "roll_deg": 0.1452, "ground_speed_ft_s": 73.2517, "vel_north_m_s": -1.1, "vel_east_m_s": 22.3, "vel_down_m_s": 0.61, "usable_for_triangulation": false}
{"run_id": "20260427_172806", "kraken_seq": null, "telemetry_seq": 61, "t_rx_ms": 1777336098534, "dt_ms": null, "doa_deg": null, "confidence_0_1": null, "lat_deg": 34.010407199999996, "lon_deg": -118.0045152, "altitude_rel_ft": 282.2244, "yaw_deg": 92.7426, "pitch_deg": -5.0509, "roll_deg": 0.0379, "ground_speed_ft_s": 73.35, "vel_north_m_s": -1.1, "vel_east_m_s": 22.33, "vel_down_m_s": 0.71, "usable_for_triangulation": false}
{"run_id": "20260427_172806", "kraken_seq": null, "telemetry_seq": 62, "t_rx_ms": 1777336098734, "dt_ms": null, "doa_deg": null, "confidence_0_1": null, "lat_deg": 34.010404099999995, "lon_deg": -118.00443709999999, "altitude_rel_ft": 281.5683, "yaw_deg": 92.7695, "pitch_deg": -4.7334, "roll_deg": 0.1555, "ground_speed_ft_s": 73.4483, "vel_north_m_s": -1.1, "vel_east_m_s": 22.36, "vel_down_m_s": 0.53, "usable_for_triangulation": false}
{"run_id": "20260427_172806", "kraken_seq": null, "telemetry_seq": 63, "t_rx_ms": 1777336098935, "dt_ms": null, "doa_deg": null, "confidence_0_1": null, "lat_deg": 34.010404099999995, "lon_deg": -118.00443709999999, "altitude_rel_ft": 281.5683, "yaw_deg": 92.7664, "pitch_deg": -4.7272, "roll_deg": 0.1966, "ground_speed_ft_s": 73.4483, "vel_north_m_s": -1.1, "vel_east_m_s": 22.36, "vel_down_m_s": 0.53, "usable_for_triangulation": false}
{"run_id": "20260427_172806", "kraken_seq": null, "telemetry_seq": 64, "t_rx_ms": 1777336099137, "dt_ms": null, "doa_deg": null, "confidence_0_1": null, "lat_deg": 34.0104008, "lon_deg": -118.0043549, "altitude_rel_ft": 281.0433, "yaw_deg": 92.729, "pitch_deg": -5.1017, "roll_deg": 0.2856, "ground_speed_ft_s": 73.4155, "vel_north_m_s": -1.1, "vel_east_m_s": 22.35, "vel_down_m_s": 0.54, "usable_for_triangulation": false}
{"run_id": "20260427_172806", "kraken_seq": null, "telemetry_seq": 65, "t_rx_ms": 1777336099338, "dt_ms": null, "doa_deg": null, "confidence_0_1": null, "lat_deg": 34.0104008, "lon_deg": -118.0043549, "altitude_rel_ft": 281.0433, "yaw_deg": 92.7613, "pitch_deg": -5.3376, "roll_deg": 0.329, "ground_speed_ft_s": 73.4155, "vel_north_m_s": -1.1, "vel_east_m_s": 22.35, "vel_down_m_s": 0.54, "usable_for_triangulation": false}
{"run_id": "20260427_172806", "kraken_seq": null, "telemetry_seq": 66, "t_rx_ms": 1777336099542, "dt_ms": null, "doa_deg": null, "confidence_0_1": null, "lat_deg": 34.010397399999995, "lon_deg": -118.0042732, "altitude_rel_ft": 280.3084, "yaw_deg": 92.7571, "pitch_deg": -5.2027, "roll_deg": 0.2204, "ground_speed_ft_s": 73.3828, "vel_north_m_s": -1.1, "vel_east_m_s": 22.34, "vel_down_m_s": 0.75, "usable_for_triangulation": false}
{"run_id": "20260427_172806", "kraken_seq": null, "telemetry_seq": 67, "t_rx_ms": 1777336099742, "dt_ms": null, "doa_deg": null, "confidence_0_1": null, "lat_deg": 34.0103943, "lon_deg": -118.0041962, "altitude_rel_ft": 279.5899, "yaw_deg": 92.7371, "pitch_deg": -4.7815, "roll_deg": 0.1038, "ground_speed_ft_s": 73.35, "vel_north_m_s": -1.1, "vel_east_m_s": 22.33, "vel_down_m_s": 0.59, "usable_for_triangulation": false}
{"run_id": "20260427_172806", "kraken_seq": null, "telemetry_seq": 68, "t_rx_ms": 1777336099944, "dt_ms": null, "doa_deg": null, "confidence_0_1": null, "lat_deg": 34.0103943, "lon_deg": -118.0041962, "altitude_rel_ft": 279.5899, "yaw_deg": 92.7355, "pitch_deg": -4.7631, "roll_deg": 0.1583, "ground_speed_ft_s": 73.35, "vel_north_m_s": -1.1, "vel_east_m_s": 22.33, "vel_down_m_s": 0.59, "usable_for_triangulation": false}
{"run_id": "20260427_172806", "kraken_seq": null, "telemetry_seq": 69, "t_rx_ms": 1777336100145, "dt_ms": null, "doa_deg": null, "confidence_0_1": null, "lat_deg": 34.010391, "lon_deg": -118.00411419999999, "altitude_rel_ft": 278.9862, "yaw_deg": 92.7795, "pitch_deg": -4.9891, "roll_deg": 0.2075, "ground_speed_ft_s": 73.2845, "vel_north_m_s": -1.1, "vel_east_m_s": 22.31, "vel_down_m_s": 0.57, "usable_for_triangulation": false}
{"run_id": "20260427_172806", "kraken_seq": null, "telemetry_seq": 70, "t_rx_ms": 1777336100345, "dt_ms": null, "doa_deg": null, "confidence_0_1": null, "lat_deg": 34.010391, "lon_deg": -118.00411419999999, "altitude_rel_ft": 278.9862, "yaw_deg": 92.8549, "pitch_deg": -5.1914, "roll_deg": 0.2257, "ground_speed_ft_s": 73.2845, "vel_north_m_s": -1.1, "vel_east_m_s": 22.31, "vel_down_m_s": 0.57, "usable_for_triangulation": false}
{"run_id": "20260427_172806", "kraken_seq": null, "telemetry_seq": 71, "t_rx_ms": 1777336100545, "dt_ms": null, "doa_deg": null, "confidence_0_1": null, "lat_deg": 34.0103876, "lon_deg": -118.0040315, "altitude_rel_ft": 278.2841, "yaw_deg": 92.8624, "pitch_deg": -5.0541, "roll_deg": 0.1939, "ground_speed_ft_s": 73.386, "vel_north_m_s": -1.12, "vel_east_m_s": 22.34, "vel_down_m_s": 0.71, "usable_for_triangulation": false}
{"run_id": "20260427_172806", "kraken_seq": null, "telemetry_seq": 72, "t_rx_ms": 1777336100747, "dt_ms": null, "doa_deg": null, "confidence_0_1": null, "lat_deg": 34.0103843, "lon_deg": -118.00395329999999, "altitude_rel_ft": 277.6345, "yaw_deg": 92.8156, "pitch_deg": -4.7101, "roll_deg": 0.1209, "ground_speed_ft_s": 73.5204, "vel_north_m_s": -1.14, "vel_east_m_s": 22.38, "vel_down_m_s": 0.53, "usable_for_triangulation": false}
{"run_id": "20260427_172806", "kraken_seq": null, "telemetry_seq": 73, "t_rx_ms": 1777336100947, "dt_ms": null, "doa_deg": null, "confidence_0_1": null, "lat_deg": 34.0103843, "lon_deg": -118.00395329999999, "altitude_rel_ft": 277.6345, "yaw_deg": 92.8114, "pitch_deg": -4.7927, "roll_deg": 0.0213, "ground_speed_ft_s": 73.5204, "vel_north_m_s": -1.14, "vel_east_m_s": 22.38, "vel_down_m_s": 0.53, "usable_for_triangulation": false}
{"run_id": "20260427_172806", "kraken_seq": null, "telemetry_seq": 74, "t_rx_ms": 1777336101148, "dt_ms": null, "doa_deg": null, "confidence_0_1": null, "lat_deg": 34.0103808, "lon_deg": -118.00387029999999, "altitude_rel_ft": 277.1162, "yaw_deg": 92.9014, "pitch_deg": -4.995, "roll_deg": 0.0067, "ground_speed_ft_s": 73.5499, "vel_north_m_s": -1.12, "vel_east_m_s": 22.39, "vel_down_m_s": 0.55, "usable_for_triangulation": false}
{"run_id": "20260427_172806", "kraken_seq": null, "telemetry_seq": 75, "t_rx_ms": 1777336101348, "dt_ms": null, "doa_deg": null, "confidence_0_1": null, "lat_deg": 34.0103808, "lon_deg": -118.00387029999999, "altitude_rel_ft": 277.1162, "yaw_deg": 92.8801, "pitch_deg": -5.0771, "roll_deg": 0.144, "ground_speed_ft_s": 73.5499, "vel_north_m_s": -1.12, "vel_east_m_s": 22.39, "vel_down_m_s": 0.55, "usable_for_triangulation": false}
{"run_id": "20260427_172806", "kraken_seq": null, "telemetry_seq": 76, "t_rx_ms": 1777336101549, "dt_ms": null, "doa_deg": null, "confidence_0_1": null, "lat_deg": 34.010377399999996, "lon_deg": -118.00378819999999, "altitude_rel_ft": 276.4764, "yaw_deg": 92.8538, "pitch_deg": -5.0568, "roll_deg": 0.2179, "ground_speed_ft_s": 73.486, "vel_north_m_s": -1.13, "vel_east_m_s": 22.37, "vel_down_m_s": 0.64, "usable_for_triangulation": false}
{"run_id": "20260427_172806", "kraken_seq": null, "telemetry_seq": 77, "t_rx_ms": 1777336101749, "dt_ms": null, "doa_deg": null, "confidence_0_1": null, "lat_deg": 34.0103742, "lon_deg": -118.00371109999999, "altitude_rel_ft": 275.8301, "yaw_deg": 92.8914, "pitch_deg": -5.0378, "roll_deg": 0.1751, "ground_speed_ft_s": 73.3893, "vel_north_m_s": -1.14, "vel_east_m_s": 22.34, "vel_down_m_s": 0.65, "usable_for_triangulation": false}
{"run_id": "20260427_172806", "kraken_seq": null, "telemetry_seq": 78, "t_rx_ms": 1777336101950, "dt_ms": null, "doa_deg": null, "confidence_0_1": null, "lat_deg": 34.0103742, "lon_deg": -118.00371109999999, "altitude_rel_ft": 275.8301, "yaw_deg": 92.9046, "pitch_deg": -4.9438, "roll_deg": 0.0924, "ground_speed_ft_s": 73.3893, "vel_north_m_s": -1.14, "vel_east_m_s": 22.34, "vel_down_m_s": 0.65, "usable_for_triangulation": false}
{"run_id": "20260427_172806", "kraken_seq": null, "telemetry_seq": 79, "t_rx_ms": 1777336102151, "dt_ms": null, "doa_deg": null, "confidence_0_1": null, "lat_deg": 34.0103708, "lon_deg": -118.0036293, "altitude_rel_ft": 275.1542, "yaw_deg": 92.8912, "pitch_deg": -4.9223, "roll_deg": 0.1452, "ground_speed_ft_s": 73.3238, "vel_north_m_s": -1.14, "vel_east_m_s": 22.32, "vel_down_m_s": 0.6, "usable_for_triangulation": false}
{"run_id": "20260427_172806", "kraken_seq": null, "telemetry_seq": 80, "t_rx_ms": 1777336102352, "dt_ms": null, "doa_deg": null, "confidence_0_1": null, "lat_deg": 34.0103708, "lon_deg": -118.0036293, "altitude_rel_ft": 275.1542, "yaw_deg": 92.891, "pitch_deg": -4.9714, "roll_deg": 0.0657, "ground_speed_ft_s": 73.3238, "vel_north_m_s": -1.14, "vel_east_m_s": 22.32, "vel_down_m_s": 0.6, "usable_for_triangulation": false}
{"run_id": "20260427_172806", "kraken_seq": null, "telemetry_seq": 81, "t_rx_ms": 1777336102553, "dt_ms": null, "doa_deg": null, "confidence_0_1": null, "lat_deg": 34.0103673, "lon_deg": -118.0035465, "altitude_rel_ft": 274.4751, "yaw_deg": 92.9269, "pitch_deg": -5.0516, "roll_deg": 0.0395, "ground_speed_ft_s": 73.3238, "vel_north_m_s": -1.14, "vel_east_m_s": 22.32, "vel_down_m_s": 0.61, "usable_for_triangulation": false}
{"run_id": "20260427_172806", "kraken_seq": null, "telemetry_seq": 82, "t_rx_ms": 1777336102754, "dt_ms": null, "doa_deg": null, "confidence_0_1": null, "lat_deg": 34.010363999999996, "lon_deg": -118.00346839999999, "altitude_rel_ft": 273.7992, "yaw_deg": 92.9309, "pitch_deg": -5.0666, "roll_deg": 0.0981, "ground_speed_ft_s": 73.4221, "vel_north_m_s": -1.14, "vel_east_m_s": 22.35, "vel_down_m_s": 0.63, "usable_for_triangulation": false}
{"run_id": "20260427_172806", "kraken_seq": null, "telemetry_seq": 83, "t_rx_ms": 1777336102955, "dt_ms": null, "doa_deg": null, "confidence_0_1": null, "lat_deg": 34.010363999999996, "lon_deg": -118.00346839999999, "altitude_rel_ft": 273.7992, "yaw_deg": 92.9442, "pitch_deg": -4.9788, "roll_deg": 0.126, "ground_speed_ft_s": 73.4221, "vel_north_m_s": -1.14, "vel_east_m_s": 22.35, "vel_down_m_s": 0.63, "usable_for_triangulation": false}
{"run_id": "20260427_172806", "kraken_seq": null, "telemetry_seq": 84, "t_rx_ms": 1777336103156, "dt_ms": null, "doa_deg": null, "confidence_0_1": null, "lat_deg": 34.0103605, "lon_deg": -118.0033856, "altitude_rel_ft": 273.1266, "yaw_deg": 92.9549, "pitch_deg": -4.8728, "roll_deg": 0.0798, "ground_speed_ft_s": 73.4893, "vel_north_m_s": -1.15, "vel_east_m_s": 22.37, "vel_down_m_s": 0.55, "usable_for_triangulation": false}
{"run_id": "20260427_172806", "kraken_seq": null, "telemetry_seq": 85, "t_rx_ms": 1777336103357, "dt_ms": null, "doa_deg": null, "confidence_0_1": null, "lat_deg": 34.0103605, "lon_deg": -118.0033856, "altitude_rel_ft": 273.1266, "yaw_deg": 92.9384, "pitch_deg": -4.8407, "roll_deg": 0.1061, "ground_speed_ft_s": 73.4893, "vel_north_m_s": -1.15, "vel_east_m_s": 22.37, "vel_down_m_s": 0.55, "usable_for_triangulation": false}
{"run_id": "20260427_172806", "kraken_seq": null, "telemetry_seq": 86, "t_rx_ms": 1777336103558, "dt_ms": null, "doa_deg": null, "confidence_0_1": null, "lat_deg": 34.010357, "lon_deg": -118.0033036, "altitude_rel_ft": 272.5131, "yaw_deg": 92.8719, "pitch_deg": -4.9403, "roll_deg": 0.1505, "ground_speed_ft_s": 73.4238, "vel_north_m_s": -1.15, "vel_east_m_s": 22.35, "vel_down_m_s": 0.55, "usable_for_triangulation": false}
{"run_id": "20260427_172806", "kraken_seq": null, "telemetry_seq": 87, "t_rx_ms": 1777336103760, "dt_ms": null, "doa_deg": null, "confidence_0_1": null, "lat_deg": 34.0103538, "lon_deg": -118.00322659999999, "altitude_rel_ft": 271.8996, "yaw_deg": 92.9158, "pitch_deg": -4.8888, "roll_deg": 0.1409, "ground_speed_ft_s": 73.3238, "vel_north_m_s": -1.14, "vel_east_m_s": 22.32, "vel_down_m_s": 0.58, "usable_for_triangulation": false}
{"run_id": "20260427_172806", "kraken_seq": null, "telemetry_seq": 88, "t_rx_ms": 1777336103960, "dt_ms": null, "doa_deg": null, "confidence_0_1": null, "lat_deg": 34.0103538, "lon_deg": -118.00322659999999, "altitude_rel_ft": 271.8996, "yaw_deg": 92.8912, "pitch_deg": -5.0176, "roll_deg": 0.0791, "ground_speed_ft_s": 73.3238, "vel_north_m_s": -1.14, "vel_east_m_s": 22.32, "vel_down_m_s": 0.58, "usable_for_triangulation": false}
{"run_id": "20260427_172806", "kraken_seq": null, "telemetry_seq": 89, "t_rx_ms": 1777336104161, "dt_ms": null, "doa_deg": null, "confidence_0_1": null, "lat_deg": 34.0103504, "lon_deg": -118.0031449, "altitude_rel_ft": 271.2271, "yaw_deg": 92.9295, "pitch_deg": -5.1311, "roll_deg": 0.0719, "ground_speed_ft_s": 73.2583, "vel_north_m_s": -1.14, "vel_east_m_s": 22.3, "vel_down_m_s": 0.65, "usable_for_triangulation": false}
{"run_id": "20260427_172806", "kraken_seq": null, "telemetry_seq": 90, "t_rx_ms": 1777336104361, "dt_ms": null, "doa_deg": null, "confidence_0_1": null, "lat_deg": 34.0103471, "lon_deg": -118.0030675, "altitude_rel_ft": 270.5348, "yaw_deg": 92.8909, "pitch_deg": -5.0463, "roll_deg": 0.1257, "ground_speed_ft_s": 73.2583, "vel_north_m_s": -1.14, "vel_east_m_s": 22.3, "vel_down_m_s": 0.64, "usable_for_triangulation": false}
{"run_id": "20260427_172806", "kraken_seq": null, "telemetry_seq": 91, "t_rx_ms": 1777336104563, "dt_ms": null, "doa_deg": null, "confidence_0_1": null, "lat_deg": 34.0103471, "lon_deg": -118.0030675, "altitude_rel_ft": 270.5348, "yaw_deg": 92.8953, "pitch_deg": -4.8246, "roll_deg": 0.0901, "ground_speed_ft_s": 73.2583, "vel_north_m_s": -1.14, "vel_east_m_s": 22.3, "vel_down_m_s": 0.64, "usable_for_triangulation": false}
{"run_id": "20260427_172806", "kraken_seq": null, "telemetry_seq": 92, "t_rx_ms": 1777336104766, "dt_ms": null, "doa_deg": null, "confidence_0_1": null, "lat_deg": 34.0103437, "lon_deg": -118.0029847, "altitude_rel_ft": 269.9245, "yaw_deg": 92.9087, "pitch_deg": -4.8393, "roll_deg": 0.0613, "ground_speed_ft_s": 73.3221, "vel_north_m_s": -1.13, "vel_east_m_s": 22.32, "vel_down_m_s": 0.54, "usable_for_triangulation": false}
{"run_id": "20260427_172806", "kraken_seq": null, "telemetry_seq": 93, "t_rx_ms": 1777336104967, "dt_ms": null, "doa_deg": null, "confidence_0_1": null, "lat_deg": 34.0103437, "lon_deg": -118.0029847, "altitude_rel_ft": 269.9245, "yaw_deg": 92.924, "pitch_deg": -5.0236, "roll_deg": 0.1169, "ground_speed_ft_s": 73.3221, "vel_north_m_s": -1.13, "vel_east_m_s": 22.32, "vel_down_m_s": 0.54, "usable_for_triangulation": false}
{"run_id": "20260427_172806", "kraken_seq": null, "telemetry_seq": 94, "t_rx_ms": 1777336105167, "dt_ms": null, "doa_deg": null, "confidence_0_1": null, "lat_deg": 34.0103402, "lon_deg": -118.0029019, "altitude_rel_ft": 269.2881, "yaw_deg": 92.9032, "pitch_deg": -5.1119, "roll_deg": 0.1599, "ground_speed_ft_s": 73.3877, "vel_north_m_s": -1.13, "vel_east_m_s": 22.34, "vel_down_m_s": 0.63, "usable_for_triangulation": false}
{"run_id": "20260427_172806", "kraken_seq": null, "telemetry_seq": 95, "t_rx_ms": 1777336105368, "dt_ms": null, "doa_deg": null, "confidence_0_1": null, "lat_deg": 34.010337, "lon_deg": -118.0028246, "altitude_rel_ft": 268.6385, "yaw_deg": 92.9236, "pitch_deg": -5.0323, "roll_deg": 0.1916, "ground_speed_ft_s": 73.3549, "vel_north_m_s": -1.13, "vel_east_m_s": 22.33, "vel_down_m_s": 0.62, "usable_for_triangulation": false}
{"run_id": "20260427_172806", "kraken_seq": null, "telemetry_seq": 96, "t_rx_ms": 1777336105570, "dt_ms": null, "doa_deg": null, "confidence_0_1": null, "lat_deg": 34.010337, "lon_deg": -118.0028246, "altitude_rel_ft": 268.6385, "yaw_deg": 92.9482, "pitch_deg": -4.8889, "roll_deg": 0.1861, "ground_speed_ft_s": 73.3549, "vel_north_m_s": -1.13, "vel_east_m_s": 22.33, "vel_down_m_s": 0.62, "usable_for_triangulation": false}
{"run_id": "20260427_172806", "kraken_seq": null, "telemetry_seq": 97, "t_rx_ms": 1777336105770, "dt_ms": null, "doa_deg": null, "confidence_0_1": null, "lat_deg": 34.010333599999996, "lon_deg": -118.0027427, "altitude_rel_ft": 268.0118, "yaw_deg": 93.0049, "pitch_deg": -4.8563, "roll_deg": 0.1527, "ground_speed_ft_s": 73.291, "vel_north_m_s": -1.14, "vel_east_m_s": 22.31, "vel_down_m_s": 0.56, "usable_for_triangulation": false}
{"run_id": "20260427_172806", "kraken_seq": null, "telemetry_seq": 98, "t_rx_ms": 1777336105971, "dt_ms": null, "doa_deg": null, "confidence_0_1": null, "lat_deg": 34.010333599999996, "lon_deg": -118.0027427, "altitude_rel_ft": 268.0118, "yaw_deg": 92.944, "pitch_deg": -4.9086, "roll_deg": 0.1718, "ground_speed_ft_s": 73.291, "vel_north_m_s": -1.14, "vel_east_m_s": 22.31, "vel_down_m_s": 0.56, "usable_for_triangulation": false}
{"run_id": "20260427_172806", "kraken_seq": null, "telemetry_seq": 99, "t_rx_ms": 1777336106173, "dt_ms": null, "doa_deg": null, "confidence_0_1": null, "lat_deg": 34.0103301, "lon_deg": -118.0026608, "altitude_rel_ft": 267.3688, "yaw_deg": 92.9462, "pitch_deg": -5.1541, "roll_deg": 0.1118, "ground_speed_ft_s": 73.2599, "vel_north_m_s": -1.15, "vel_east_m_s": 22.3, "vel_down_m_s": 0.63, "usable_for_triangulation": false}
{"run_id": "20260427_172806", "kraken_seq": null, "telemetry_seq": 100, "t_rx_ms": 1777336106374, "dt_ms": null, "doa_deg": null, "confidence_0_1": null, "lat_deg": 34.0103268, "lon_deg": -118.00258339999999, "altitude_rel_ft": 266.647, "yaw_deg": 92.922, "pitch_deg": -5.1351, "roll_deg": 0.0039, "ground_speed_ft_s": 73.2566, "vel_north_m_s": -1.13, "vel_east_m_s": 22.3, "vel_down_m_s": 0.67, "usable_for_triangulation": false}
{"run_id": "20260427_172806", "kraken_seq": null, "telemetry_seq": 101, "t_rx_ms": 1777336106574, "dt_ms": null, "doa_deg": null, "confidence_0_1": null, "lat_deg": 34.0103268, "lon_deg": -118.00258339999999, "altitude_rel_ft": 266.647, "yaw_deg": 93.0609, "pitch_deg": -5.005, "roll_deg": -0.0125, "ground_speed_ft_s": 73.2566, "vel_north_m_s": -1.13, "vel_east_m_s": 22.3, "vel_down_m_s": 0.67, "usable_for_triangulation": false}
{"run_id": "20260427_172806", "kraken_seq": null, "telemetry_seq": 102, "t_rx_ms": 1777336106776, "dt_ms": null, "doa_deg": null, "confidence_0_1": null, "lat_deg": 34.010323299999996, "lon_deg": -118.00250039999999, "altitude_rel_ft": 265.958, "yaw_deg": 93.0553, "pitch_deg": -4.7806, "roll_deg": 0.0376, "ground_speed_ft_s": 73.3272, "vel_north_m_s": -1.16, "vel_east_m_s": 22.32, "vel_down_m_s": 0.53, "usable_for_triangulation": false}
{"run_id": "20260427_172806", "kraken_seq": null, "telemetry_seq": 103, "t_rx_ms": 1777336106976, "dt_ms": null, "doa_deg": null, "confidence_0_1": null, "lat_deg": 34.010323299999996, "lon_deg": -118.00250039999999, "altitude_rel_ft": 265.958, "yaw_deg": 93.0568, "pitch_deg": -4.9686, "roll_deg": 0.1482, "ground_speed_ft_s": 73.3272, "vel_north_m_s": -1.16, "vel_east_m_s": 22.32, "vel_down_m_s": 0.53, "usable_for_triangulation": false}
{"run_id": "20260427_172806", "kraken_seq": null, "telemetry_seq": 104, "t_rx_ms": 1777336107177, "dt_ms": null, "doa_deg": null, "confidence_0_1": null, "lat_deg": 34.0103198, "lon_deg": -118.0024172, "altitude_rel_ft": 265.3346, "yaw_deg": 93.0364, "pitch_deg": -5.1353, "roll_deg": 0.1724, "ground_speed_ft_s": 73.4599, "vel_north_m_s": -1.17, "vel_east_m_s": 22.36, "vel_down_m_s": 0.61, "usable_for_triangulation": false}
{"run_id": "20260427_172806", "kraken_seq": null, "telemetry_seq": 105, "t_rx_ms": 1777336107379, "dt_ms": null, "doa_deg": null, "confidence_0_1": null, "lat_deg": 34.0103164, "lon_deg": -118.00233949999999, "altitude_rel_ft": 264.6785, "yaw_deg": 93.0121, "pitch_deg": -4.9998, "roll_deg": 0.074, "ground_speed_ft_s": 73.491, "vel_north_m_s": -1.16, "vel_east_m_s": 22.37, "vel_down_m_s": 0.58, "usable_for_triangulation": false}
{"run_id": "20260427_172806", "kraken_seq": null, "telemetry_seq": 106, "t_rx_ms": 1777336107580, "dt_ms": null, "doa_deg": null, "confidence_0_1": null, "lat_deg": 34.0103164, "lon_deg": -118.00233949999999, "altitude_rel_ft": 264.6785, "yaw_deg": 93.0094, "pitch_deg": -4.7232, "roll_deg": 0.0062, "ground_speed_ft_s": 73.491, "vel_north_m_s": -1.16, "vel_east_m_s": 22.37, "vel_down_m_s": 0.58, "usable_for_triangulation": false}
{"run_id": "20260427_172806", "kraken_seq": null, "telemetry_seq": 107, "t_rx_ms": 1777336107781, "dt_ms": null, "doa_deg": null, "confidence_0_1": null, "lat_deg": 34.010313, "lon_deg": -118.0022576, "altitude_rel_ft": 264.1306, "yaw_deg": 92.9764, "pitch_deg": -4.7853, "roll_deg": 0.0479, "ground_speed_ft_s": 73.3893, "vel_north_m_s": -1.14, "vel_east_m_s": 22.34, "vel_down_m_s": 0.5, "usable_for_triangulation": false}
{"run_id": "20260427_172806", "kraken_seq": null, "telemetry_seq": 108, "t_rx_ms": 1777336107982, "dt_ms": null, "doa_deg": null, "confidence_0_1": null, "lat_deg": 34.010313, "lon_deg": -118.0022576, "altitude_rel_ft": 264.1306, "yaw_deg": 93.004, "pitch_deg": -5.1144, "roll_deg": 0.0602, "ground_speed_ft_s": 73.3893, "vel_north_m_s": -1.14, "vel_east_m_s": 22.34, "vel_down_m_s": 0.5, "usable_for_triangulation": false}
{"run_id": "20260427_172806", "kraken_seq": null, "telemetry_seq": 109, "t_rx_ms": 1777336108182, "dt_ms": null, "doa_deg": null, "confidence_0_1": null, "lat_deg": 34.0103095, "lon_deg": -118.00217579999999, "altitude_rel_ft": 263.5039, "yaw_deg": 92.9925, "pitch_deg": -5.3101, "roll_deg": 0.082, "ground_speed_ft_s": 73.3238, "vel_north_m_s": -1.14, "vel_east_m_s": 22.32, "vel_down_m_s": 0.7, "usable_for_triangulation": false}
{"run_id": "20260427_172806", "kraken_seq": null, "telemetry_seq": 110, "t_rx_ms": 1777336108384, "dt_ms": null, "doa_deg": null, "confidence_0_1": null, "lat_deg": 34.010306299999996, "lon_deg": -118.0020984, "altitude_rel_ft": 262.792, "yaw_deg": 93.0146, "pitch_deg": -4.9889, "roll_deg": 0.069, "ground_speed_ft_s": 73.2927, "vel_north_m_s": -1.15, "vel_east_m_s": 22.31, "vel_down_m_s": 0.6, "usable_for_triangulation": false}
{"run_id": "20260427_172806", "kraken_seq": null, "telemetry_seq": 111, "t_rx_ms": 1777336108586, "dt_ms": null, "doa_deg": null, "confidence_0_1": null, "lat_deg": 34.010306299999996, "lon_deg": -118.0020984, "altitude_rel_ft": 262.792, "yaw_deg": 93.0446, "pitch_deg": -4.6588, "roll_deg": 0.0458, "ground_speed_ft_s": 73.2927, "vel_north_m_s": -1.15, "vel_east_m_s": 22.31, "vel_down_m_s": 0.6, "usable_for_triangulation": false}
{"run_id": "20260427_172806", "kraken_seq": null, "telemetry_seq": 112, "t_rx_ms": 1777336108786, "dt_ms": null, "doa_deg": null, "confidence_0_1": null, "lat_deg": 34.0103028, "lon_deg": -118.0020156, "altitude_rel_ft": 262.231, "yaw_deg": 93.0903, "pitch_deg": -4.7901, "roll_deg": 0.0392, "ground_speed_ft_s": 73.3582, "vel_north_m_s": -1.15, "vel_east_m_s": 22.33, "vel_down_m_s": 0.48, "usable_for_triangulation": false}
{"run_id": "20260427_172806", "kraken_seq": null, "telemetry_seq": 113, "t_rx_ms": 1777336108987, "dt_ms": null, "doa_deg": null, "confidence_0_1": null, "lat_deg": 34.0103028, "lon_deg": -118.0020156, "altitude_rel_ft": 262.231, "yaw_deg": 93.1172, "pitch_deg": -5.1469, "roll_deg": 0.1492, "ground_speed_ft_s": 73.3582, "vel_north_m_s": -1.15, "vel_east_m_s": 22.33, "vel_down_m_s": 0.48, "usable_for_triangulation": false}
{"run_id": "20260427_172806", "kraken_seq": null, "telemetry_seq": 114, "t_rx_ms": 1777336109189, "dt_ms": null, "doa_deg": null, "confidence_0_1": null, "lat_deg": 34.0102993, "lon_deg": -118.0019325, "altitude_rel_ft": 261.5683, "yaw_deg": 93.1463, "pitch_deg": -5.3552, "roll_deg": 0.192, "ground_speed_ft_s": 73.4272, "vel_north_m_s": -1.17, "vel_east_m_s": 22.35, "vel_down_m_s": 0.69, "usable_for_triangulation": false}
{"run_id": "20260427_172806", "kraken_seq": null, "telemetry_seq": 115, "t_rx_ms": 1777336109389, "dt_ms": null, "doa_deg": null, "confidence_0_1": null, "lat_deg": 34.010295899999996, "lon_deg": -118.00185499999999, "altitude_rel_ft": 260.8334, "yaw_deg": 93.0797, "pitch_deg": -4.985, "roll_deg": 0.1159, "ground_speed_ft_s": 73.4617, "vel_north_m_s": -1.18, "vel_east_m_s": 22.36, "vel_down_m_s": 0.58, "usable_for_triangulation": false}
{"run_id": "20260427_172806", "kraken_seq": null, "telemetry_seq": 116, "t_rx_ms": 1777336109590, "dt_ms": null, "doa_deg": null, "confidence_0_1": null, "lat_deg": 34.010295899999996, "lon_deg": -118.00185499999999, "altitude_rel_ft": 260.8334, "yaw_deg": 93.0644, "pitch_deg": -4.6594, "roll_deg": 0.0149, "ground_speed_ft_s": 73.4617, "vel_north_m_s": -1.18, "vel_east_m_s": 22.36, "vel_down_m_s": 0.58, "usable_for_triangulation": false}
{"run_id": "20260427_172806", "kraken_seq": null, "telemetry_seq": 117, "t_rx_ms": 1777336109792, "dt_ms": null, "doa_deg": null, "confidence_0_1": null, "lat_deg": 34.0102924, "lon_deg": -118.0017731, "altitude_rel_ft": 260.2526, "yaw_deg": 93.0667, "pitch_deg": -4.7969, "roll_deg": -0.046, "ground_speed_ft_s": 73.3599, "vel_north_m_s": -1.16, "vel_east_m_s": 22.33, "vel_down_m_s": 0.48, "usable_for_triangulation": false}
{"run_id": "20260427_172806", "kraken_seq": null, "telemetry_seq": 118, "t_rx_ms": 1777336109992, "dt_ms": null, "doa_deg": null, "confidence_0_1": null, "lat_deg": 34.0102924, "lon_deg": -118.0017731, "altitude_rel_ft": 260.2526, "yaw_deg": 93.0304, "pitch_deg": -5.2145, "roll_deg": -0.0324, "ground_speed_ft_s": 73.3599, "vel_north_m_s": -1.16, "vel_east_m_s": 22.33, "vel_down_m_s": 0.48, "usable_for_triangulation": false}
{"run_id": "20260427_172806", "kraken_seq": null, "telemetry_seq": 119, "t_rx_ms": 1777336110193, "dt_ms": null, "doa_deg": null, "confidence_0_1": null, "lat_deg": 34.0102889, "lon_deg": -118.0016914, "altitude_rel_ft": 259.5341, "yaw_deg": 93.0544, "pitch_deg": -5.1863, "roll_deg": 0.018, "ground_speed_ft_s": 73.3255, "vel_north_m_s": -1.15, "vel_east_m_s": 22.32, "vel_down_m_s": 0.7, "usable_for_triangulation": false}
{"run_id": "20260427_172806", "kraken_seq": null, "telemetry_seq": 120, "t_rx_ms": 1777336110394, "dt_ms": null, "doa_deg": null, "confidence_0_1": null, "lat_deg": 34.0102857, "lon_deg": -118.0016144, "altitude_rel_ft": 258.832, "yaw_deg": 93.0031, "pitch_deg": -4.828, "roll_deg": 0.0293, "ground_speed_ft_s": 73.2927, "vel_north_m_s": -1.15, "vel_east_m_s": 22.31, "vel_down_m_s": 0.59, "usable_for_triangulation": false}
{"run_id": "20260427_172806", "kraken_seq": null, "telemetry_seq": 121, "t_rx_ms": 1777336110595, "dt_ms": null, "doa_deg": null, "confidence_0_1": null, "lat_deg": 34.0102857, "lon_deg": -118.0016144, "altitude_rel_ft": 258.832, "yaw_deg": 93.0608, "pitch_deg": -4.8097, "roll_deg": 0.0102, "ground_speed_ft_s": 73.2927, "vel_north_m_s": -1.15, "vel_east_m_s": 22.31, "vel_down_m_s": 0.59, "usable_for_triangulation": false}
{"run_id": "20260427_172806", "kraken_seq": null, "telemetry_seq": 122, "t_rx_ms": 1777336110796, "dt_ms": null, "doa_deg": null, "confidence_0_1": null, "lat_deg": 34.0102822, "lon_deg": -118.00153189999999, "altitude_rel_ft": 258.2152, "yaw_deg": 93.1222, "pitch_deg": -4.7901, "roll_deg": 0.0391, "ground_speed_ft_s": 73.3255, "vel_north_m_s": -1.15, "vel_east_m_s": 22.32, "vel_down_m_s": 0.54, "usable_for_triangulation": false}
{"run_id": "20260427_172806", "kraken_seq": null, "telemetry_seq": 123, "t_rx_ms": 1777336110997, "dt_ms": null, "doa_deg": null, "confidence_0_1": null, "lat_deg": 34.0102822, "lon_deg": -118.00153189999999, "altitude_rel_ft": 258.2152, "yaw_deg": 93.1153, "pitch_deg": -4.9366, "roll_deg": 0.109, "ground_speed_ft_s": 73.3255, "vel_north_m_s": -1.15, "vel_east_m_s": 22.32, "vel_down_m_s": 0.54, "usable_for_triangulation": false}
{"run_id": "20260427_172806", "kraken_seq": null, "telemetry_seq": 124, "t_rx_ms": 1777336111198, "dt_ms": null, "doa_deg": null, "confidence_0_1": null, "lat_deg": 34.0102787, "lon_deg": -118.0014487, "altitude_rel_ft": 257.6083, "yaw_deg": 93.1117, "pitch_deg": -4.9855, "roll_deg": 0.1606, "ground_speed_ft_s": 73.4272, "vel_north_m_s": -1.17, "vel_east_m_s": 22.35, "vel_down_m_s": 0.59, "usable_for_triangulation": false}
{"run_id": "20260427_172806", "kraken_seq": null, "telemetry_seq": 125, "t_rx_ms": 1777336111399, "dt_ms": null, "doa_deg": null, "confidence_0_1": null, "lat_deg": 34.010275299999996, "lon_deg": -118.0013706, "altitude_rel_ft": 256.9948, "yaw_deg": 93.1081, "pitch_deg": -5.0849, "roll_deg": 0.0742, "ground_speed_ft_s": 73.5255, "vel_north_m_s": -1.17, "vel_east_m_s": 22.38, "vel_down_m_s": 0.62, "usable_for_triangulation": false}
{"run_id": "20260427_172806", "kraken_seq": null, "telemetry_seq": 126, "t_rx_ms": 1777336111600, "dt_ms": null, "doa_deg": null, "confidence_0_1": null, "lat_deg": 34.010275299999996, "lon_deg": -118.0013706, "altitude_rel_ft": 256.9948, "yaw_deg": 93.0575, "pitch_deg": -4.9655, "roll_deg": 0.065, "ground_speed_ft_s": 73.5255, "vel_north_m_s": -1.17, "vel_east_m_s": 22.38, "vel_down_m_s": 0.62, "usable_for_triangulation": false}
{"run_id": "20260427_172806", "kraken_seq": null, "telemetry_seq": 127, "t_rx_ms": 1777336111801, "dt_ms": null, "doa_deg": null, "confidence_0_1": null, "lat_deg": 34.0102718, "lon_deg": -118.00128839999999, "altitude_rel_ft": 256.3452, "yaw_deg": 93.1104, "pitch_deg": -4.853, "roll_deg": -0.0023, "ground_speed_ft_s": 73.4238, "vel_north_m_s": -1.15, "vel_east_m_s": 22.35, "vel_down_m_s": 0.55, "usable_for_triangulation": false}
{"run_id": "20260427_172806", "kraken_seq": null, "telemetry_seq": 128, "t_rx_ms": 1777336112001, "dt_ms": null, "doa_deg": null, "confidence_0_1": null, "lat_deg": 34.0102718, "lon_deg": -118.00128839999999, "altitude_rel_ft": 256.3452, "yaw_deg": 93.0447, "pitch_deg": -4.9456, "roll_deg": 0.0637, "ground_speed_ft_s": 73.4238, "vel_north_m_s": -1.15, "vel_east_m_s": 22.35, "vel_down_m_s": 0.55, "usable_for_triangulation": false}
{"run_id": "20260427_172806", "kraken_seq": null, "telemetry_seq": 129, "t_rx_ms": 1777336112202, "dt_ms": null, "doa_deg": null, "confidence_0_1": null, "lat_deg": 34.010268599999996, "lon_deg": -118.0012115, "altitude_rel_ft": 255.7415, "yaw_deg": 93.0519, "pitch_deg": -5.1579, "roll_deg": 0.0579, "ground_speed_ft_s": 73.3238, "vel_north_m_s": -1.14, "vel_east_m_s": 22.32, "vel_down_m_s": 0.62, "usable_for_triangulation": false}
{"run_id": "20260427_172806", "kraken_seq": null, "telemetry_seq": 130, "t_rx_ms": 1777336112403, "dt_ms": null, "doa_deg": null, "confidence_0_1": null, "lat_deg": 34.0102652, "lon_deg": -118.00112969999999, "altitude_rel_ft": 255.0099, "yaw_deg": 93.0629, "pitch_deg": -4.9194, "roll_deg": 0.1017, "ground_speed_ft_s": 73.2894, "vel_north_m_s": -1.13, "vel_east_m_s": 22.31, "vel_down_m_s": 0.64, "usable_for_triangulation": false}
{"run_id": "20260427_172806", "kraken_seq": null, "telemetry_seq": 131, "t_rx_ms": 1777336112604, "dt_ms": null, "doa_deg": null, "confidence_0_1": null, "lat_deg": 34.0102652, "lon_deg": -118.00112969999999, "altitude_rel_ft": 255.0099, "yaw_deg": 93.0851, "pitch_deg": -4.7345, "roll_deg": 0.1183, "ground_speed_ft_s": 73.2894, "vel_north_m_s": -1.13, "vel_east_m_s": 22.31, "vel_down_m_s": 0.64, "usable_for_triangulation": false}
{"run_id": "20260427_172806", "kraken_seq": null, "telemetry_seq": 132, "t_rx_ms": 1777336112806, "dt_ms": null, "doa_deg": null, "confidence_0_1": null, "lat_deg": 34.0102617, "lon_deg": -118.0010473, "altitude_rel_ft": 254.3832, "yaw_deg": 93.1402, "pitch_deg": -4.8815, "roll_deg": 0.2236, "ground_speed_ft_s": 73.2599, "vel_north_m_s": -1.15, "vel_east_m_s": 22.3, "vel_down_m_s": 0.52, "usable_for_triangulation": false}
{"run_id": "20260427_172806", "kraken_seq": null, "telemetry_seq": 133, "t_rx_ms": 1777336113006, "dt_ms": null, "doa_deg": null, "confidence_0_1": null, "lat_deg": 34.0102617, "lon_deg": -118.0010473, "altitude_rel_ft": 254.3832, "yaw_deg": 93.1085, "pitch_deg": -5.0103, "roll_deg": 0.1525, "ground_speed_ft_s": 73.2599, "vel_north_m_s": -1.15, "vel_east_m_s": 22.3, "vel_down_m_s": 0.52, "usable_for_triangulation": false}
{"run_id": "20260427_172806", "kraken_seq": null, "telemetry_seq": 134, "t_rx_ms": 1777336113207, "dt_ms": null, "doa_deg": null, "confidence_0_1": null, "lat_deg": 34.0102584, "lon_deg": -118.0009692, "altitude_rel_ft": 253.7927, "yaw_deg": 93.0218, "pitch_deg": -4.9499, "roll_deg": 0.067, "ground_speed_ft_s": 73.3272, "vel_north_m_s": -1.16, "vel_east_m_s": 22.32, "vel_down_m_s": 0.61, "usable_for_triangulation": false}
{"run_id": "20260427_172806", "kraken_seq": null, "telemetry_seq": 135, "t_rx_ms": 1777336113408, "dt_ms": null, "doa_deg": null, "confidence_0_1": null, "lat_deg": 34.0102549, "lon_deg": -118.00088629999999, "altitude_rel_ft": 253.1266, "yaw_deg": 93.0884, "pitch_deg": -4.9759, "roll_deg": 0.0069, "ground_speed_ft_s": 73.3893, "vel_north_m_s": -1.14, "vel_east_m_s": 22.34, "vel_down_m_s": 0.57, "usable_for_triangulation": false}
{"run_id": "20260427_172806", "kraken_seq": null, "telemetry_seq": 136, "t_rx_ms": 1777336113609, "dt_ms": null, "doa_deg": null, "confidence_0_1": null, "lat_deg": 34.0102549, "lon_deg": -118.00088629999999, "altitude_rel_ft": 253.1266, "yaw_deg": 93.0811, "pitch_deg": -4.9918, "roll_deg": 0.0686, "ground_speed_ft_s": 73.3893, "vel_north_m_s": -1.14, "vel_east_m_s": 22.34, "vel_down_m_s": 0.57, "usable_for_triangulation": false}
{"run_id": "20260427_172806", "kraken_seq": null, "telemetry_seq": 137, "t_rx_ms": 1777336113809, "dt_ms": null, "doa_deg": null, "confidence_0_1": null, "lat_deg": 34.0102514, "lon_deg": -118.0008043, "altitude_rel_ft": 252.4246, "yaw_deg": 93.0228, "pitch_deg": -4.8992, "roll_deg": 0.0414, "ground_speed_ft_s": 73.3221, "vel_north_m_s": -1.13, "vel_east_m_s": 22.32, "vel_down_m_s": 0.6, "usable_for_triangulation": false}
{"run_id": "20260427_172806", "kraken_seq": null, "telemetry_seq": 138, "t_rx_ms": 1777336114010, "dt_ms": null, "doa_deg": null, "confidence_0_1": null, "lat_deg": 34.0102483, "lon_deg": -118.00072739999999, "altitude_rel_ft": 251.7946, "yaw_deg": 93.0243, "pitch_deg": -4.9214, "roll_deg": 0.0245, "ground_speed_ft_s": 73.2877, "vel_north_m_s": -1.12, "vel_east_m_s": 22.31, "vel_down_m_s": 0.57, "usable_for_triangulation": false}
