{"run_id": "SIM_TEST", "kraken_seq": 113, "telemetry_seq": 0, "t_rx_ms": 1774598843816, "dt_ms": 249, "doa_deg": 51.0, "confidence_0_1": 0.5331232194226659, "lat_deg": 34.005190896436616, "lon_deg": -117.99329432199009, "altitude_rel_ft": 73.6956, "yaw_deg": 274.96, "pitch_deg": -9.537, "roll_deg": -12.2251, "ground_speed_ft_s": 56.5236, "vel_north_m_s": -5.1183, "vel_east_m_s": 4.8697, "vel_down_m_s": -0.8289, "usable_for_triangulation": true}
{"run_id": "SIM_TEST", "kraken_seq": 114, "telemetry_seq": 0, "t_rx_ms": 1774598843917, "dt_ms": 148, "doa_deg": 296.0, "confidence_0_1": 0.23793389623599503, "lat_deg": 34.005190896436616, "lon_deg": -117.99329432199009, "altitude_rel_ft": 73.6956, "yaw_deg": 274.96, "pitch_deg": -9.537, "roll_deg": -12.2251, "ground_speed_ft_s": 56.5236, "vel_north_m_s": -5.1183, "vel_east_m_s": 4.8697, "vel_down_m_s": -0.8289, "usable_for_triangulation": false}
{"run_id": "SIM_TEST", "kraken_seq": 115, "telemetry_seq": 0, "t_rx_ms": 1774598844018, "dt_ms": 47, "doa_deg": 61.0, "confidence_0_1": 0.7505879658957794, "lat_deg": 34.005190896436616, "lon_deg": -117.99329432199009, "altitude_rel_ft": 73.6956, "yaw_deg": 274.96, "pitch_deg": -9.537, "roll_deg": -12.2251, "ground_speed_ft_s": 56.5236, "vel_north_m_s": -5.1183, "vel_east_m_s": 4.8697, "vel_down_m_s": -0.8289, "usable_for_triangulation": true}
{"run_id": "SIM_TEST", "kraken_seq": 116, "telemetry_seq": 1, "t_rx_ms": 1774598844118, "dt_ms": 48, "doa_deg": 143.0, "confidence_0_1": 0.18567096192743038, "lat_deg": 33.994204747116136, "lon_deg": -118.00819015979881, "altitude_rel_ft": 84.7922, "yaw_deg": 31.0667, "pitch_deg": 7.1971, "roll_deg": 12.2478, "ground_speed_ft_s": 33.8701, "vel_north_m_s": -7.5309, "vel_east_m_s": 8.3873, "vel_down_m_s": 0.3726, "usable_for_triangulation": false}
{"run_id": "SIM_TEST", "kraken_seq": 117, "telemetry_seq": 2, "t_rx_ms": 1774598844219, "dt_ms": 49, "doa_deg": 340.0, "confidence_0_1": 0.8576436973610772, "lat_deg": 33.991385992533075, "lon_deg": -117.99350453479589, "altitude_rel_ft": 82.7025, "yaw_deg": 291.7538, "pitch_deg": -2.0664, "roll_deg": 0.2122, "ground_speed_ft_s": 54.008, "vel_north_m_s": 1.8944, "vel_east_m_s": 4.9484, "vel_down_m_s": -0.6745, "usable_for_triangulation": true}
{"run_id": "SIM_TEST", "kraken_seq": 118, "telemetry_seq": 3, "t_rx_ms": 1774598844320, "dt_ms": 49, "doa_deg": 86.0, "confidence_0_1": 0.023415621160248867, "lat_deg": 34.007466921384726, "lon_deg": -117.99286936075643, "altitude_rel_ft": 28.01, "yaw_deg": 202.3863, "pitch_deg": 2.5751, "roll_deg": 14.7651, "ground_speed_ft_s": 32.3725, "vel_north_m_s": 1.9717, "vel_east_m_s": 0.0301, "vel_down_m_s": -0.477, "usable_for_triangulation": false}
{"run_id": "SIM_TEST", "kraken_seq": 119, "telemetry_seq": 4, "t_rx_ms": 1774598844421, "dt_ms": 49, "doa_deg": 16.0, "confidence_0_1": 0.16226447974392832, "lat_deg": 33.99010548308356, "lon_deg": -118.00488769838, "altitude_rel_ft": 31.3982, "yaw_deg": 253.3951, "pitch_deg": 1.4011, "roll_deg": -8.3607, "ground_speed_ft_s": 49.1958, "vel_north_m_s": 6.5213, "vel_east_m_s": -7.0551, "vel_down_m_s": 0.7996, "usable_for_triangulation": false}
{"run_id": "SIM_TEST", "kraken_seq": 120, "telemetry_seq": 5, "t_rx_ms": 1774598844522, "dt_ms": 49, "doa_deg": 353.0, "confidence_0_1": 0.2760340871427427, "lat_deg": 34.00221375614441, "lon_deg": -117.99387112032665, "altitude_rel_ft": 51.2085, "yaw_deg": 152.9249, "pitch_deg": -9.3343, "roll_deg": -4.735, "ground_speed_ft_s": 40.1614, "vel_north_m_s": 6.9083, "vel_east_m_s": 2.4162, "vel_down_m_s": -0.3839, "usable_for_triangulation": false}
{"run_id": "SIM_TEST", "kraken_seq": 121, "telemetry_seq": 6, "t_rx_ms": 1774598844623, "dt_ms": 49, "doa_deg": 6.0, "confidence_0_1": 0.38784860238931607, "lat_deg": 34.00985447359821, "lon_deg": -117.99218772481309, "altitude_rel_ft": 58.1737, "yaw_deg": 80.2885, "pitch_deg": -4.8231, "roll_deg": -0.9314, "ground_speed_ft_s": 23.0821, "vel_north_m_s": -6.6079, "vel_east_m_s": 0.8918, "vel_down_m_s": -0.7878, "usable_for_triangulation": false}
{"run_id": "SIM_TEST", "kraken_seq": 122, "telemetry_seq": 7, "t_rx_ms": 1774598844724, "dt_ms": 49, "doa_deg": 335.0, "confidence_0_1": 0.7821859896320918, "lat_deg": 34.00617037798353, "lon_deg": -118.0000137612646, "altitude_rel_ft": 67.2122, "yaw_deg": 65.657, "pitch_deg": 8.3229, "roll_deg": -3.9326, "ground_speed_ft_s": 48.1466, "vel_north_m_s": -7.7294, "vel_east_m_s": -6.1593, "vel_down_m_s": -0.0498, "usable_for_triangulation": true}
{"run_id": "SIM_TEST", "kraken_seq": 123, "telemetry_seq": 8, "t_rx_ms": 1774598844824, "dt_ms": 49, "doa_deg": 27.0, "confidence_0_1": 0.4746143394486222, "lat_deg": 34.006473359775775, "lon_deg": -117.99849941499484, "altitude_rel_ft": 28.947, "yaw_deg": 154.6877, "pitch_deg": 1.3157, "roll_deg": -8.7255, "ground_speed_ft_s": 22.5827, "vel_north_m_s": 3.7425, "vel_east_m_s": -7.4556, "vel_down_m_s": 0.9115, "usable_for_triangulation": false}
{"run_id": "SIM_TEST", "kraken_seq": 124, "telemetry_seq": 9, "t_rx_ms": 1774598844925, "dt_ms": 49, "doa_deg": 163.0, "confidence_0_1": 0.6204443260729917, "lat_deg": 34.00608726722692, "lon_deg": -118.00597751833718, "altitude_rel_ft": 67.4291, "yaw_deg": 215.977, "pitch_deg": 3.6819, "roll_deg": -0.2565, "ground_speed_ft_s": 42.0262, "vel_north_m_s": 0.6654, "vel_east_m_s": 9.0583, "vel_down_m_s": 0.9571, "usable_for_triangulation": true}
{"run_id": "SIM_TEST", "kraken_seq": 125, "telemetry_seq": 10, "t_rx_ms": 1774598845026, "dt_ms": 48, "doa_deg": 85.0, "confidence_0_1": 0.9194146439338698, "lat_deg": 33.99000344609498, "lon_deg": -118.00173335804607, "altitude_rel_ft": 29.395, "yaw_deg": 338.003, "pitch_deg": -9.8402, "roll_deg": 0.8986, "ground_speed_ft_s": 59.9518, "vel_north_m_s": -4.871, "vel_east_m_s": -6.8996, "vel_down_m_s": -0.4161, "usable_for_triangulation": true}
{"run_id": "SIM_TEST", "kraken_seq": 126, "telemetry_seq": 11, "t_rx_ms": 1774598845127, "dt_ms": 48, "doa_deg": 47.0, "confidence_0_1": 0.38301265827694764, "lat_deg": 34.00424167997618, "lon_deg": -117.99610962726621, "altitude_rel_ft": 76.6706, "yaw_deg": 141.8126, "pitch_deg": -1.5866, "roll_deg": -4.5209, "ground_speed_ft_s": 30.46, "vel_north_m_s": -6.4513, "vel_east_m_s": -3.5132, "vel_down_m_s": 0.059, "usable_for_triangulation": false}
{"run_id": "SIM_TEST", "kraken_seq": 127, "telemetry_seq": 12, "t_rx_ms": 1774598845228, "dt_ms": 48, "doa_deg": 43.0, "confidence_0_1": 0.5608234426382881, "lat_deg": 33.999967631643194, "lon_deg": -118.00593018335596, "altitude_rel_ft": 35.706, "yaw_deg": 269.3939, "pitch_deg": 3.8417, "roll_deg": -10.139, "ground_speed_ft_s": 51.4821, "vel_north_m_s": -8.6907, "vel_east_m_s": 5.4646, "vel_down_m_s": -0.2351, "usable_for_triangulation": true}
{"run_id": "SIM_TEST", "kraken_seq": 128, "telemetry_seq": 13, "t_rx_ms": 1774598845329, "dt_ms": 48, "doa_deg": 171.0, "confidence_0_1": 0.24609225797408485, "lat_deg": 33.99139686818169, "lon_deg": -117.993884236305, "altitude_rel_ft": 59.6297, "yaw_deg": 174.7253, "pitch_deg": 1.5878, "roll_deg": 3.31, "ground_speed_ft_s": 24.3556, "vel_north_m_s": 7.3766, "vel_east_m_s": 8.3974, "vel_down_m_s": 0.4765, "usable_for_triangulation": false}
{"run_id": "SIM_TEST", "kraken_seq": 129, "telemetry_seq": 14, "t_rx_ms": 1774598845430, "dt_ms": 48, "doa_deg": 355.0, "confidence_0_1": 0.9961050697815422, "lat_deg": 33.994951622811406, "lon_deg": -117.9995428900194, "altitude_rel_ft": 55.7852, "yaw_deg": 353.3332, "pitch_deg": -8.0411, "roll_deg": 1.0089, "ground_speed_ft_s": 54.2104, "vel_north_m_s": -1.0875, "vel_east_m_s": -5.4515, "vel_down_m_s": -0.8997, "usable_for_triangulation": true}
{"run_id": "SIM_TEST", "kraken_seq": 130, "telemetry_seq": 15, "t_rx_ms": 1774598845531, "dt_ms": 48, "doa_deg": 197.0, "confidence_0_1": 0.3272941996371279, "lat_deg": 33.99084135052043, "lon_deg": -118.00238887670909, "altitude_rel_ft": 28.4896, "yaw_deg": 63.2678, "pitch_deg": -4.7485, "roll_deg": 8.7236, "ground_speed_ft_s": 32.5805, "vel_north_m_s": -6.3221, "vel_east_m_s": 0.8252, "vel_down_m_s": 0.4267, "usable_for_triangulation": false}
{"run_id": "SIM_TEST", "kraken_seq": 131, "telemetry_seq": 16, "t_rx_ms": 1774598845632, "dt_ms": 48, "doa_deg": 15.0, "confidence_0_1": 0.4973369130402423, "lat_deg": 34.002661292893045, "lon_deg": -117.9963941203176, "altitude_rel_ft": 94.6149, "yaw_deg": 260.3505, "pitch_deg": -6.5202, "roll_deg": 2.0068, "ground_speed_ft_s": 5.5439, "vel_north_m_s": 4.629, "vel_east_m_s": -4.9385, "vel_down_m_s": -0.1655, "usable_for_triangulation": false}
{"run_id": "SIM_TEST", "kraken_seq": 132, "telemetry_seq": 17, "t_rx_ms": 1774598845733, "dt_ms": 48, "doa_deg": 281.0, "confidence_0_1": 0.8640938601594551, "lat_deg": 33.99169958506714, "lon_deg": -118.00895169345301, "altitude_rel_ft": 60.4416, "yaw_deg": 196.6028, "pitch_deg": -5.1407, "roll_deg": -11.1082, "ground_speed_ft_s": 20.3519, "vel_north_m_s": 4.9471, "vel_east_m_s": 3.5324, "vel_down_m_s": 0.8925, "usable_for_triangulation": true}
{"run_id": "SIM_TEST", "kraken_seq": 133, "telemetry_seq": 18, "t_rx_ms": 1774598845834, "dt_ms": 48, "doa_deg": 137.0, "confidence_0_1": 0.1836146731428807, "lat_deg": 33.994570902151196, "lon_deg": -118.00506108028728, "altitude_rel_ft": 20.6904, "yaw_deg": 62.5116, "pitch_deg": 6.1335, "roll_deg": -14.8354, "ground_speed_ft_s": 10.3374, "vel_north_m_s": 5.1785, "vel_east_m_s": 0.6923, "vel_down_m_s": 0.8778, "usable_for_triangulation": false}
{"run_id": "SIM_TEST", "kraken_seq": 134, "telemetry_seq": 19, "t_rx_ms": 1774598845935, "dt_ms": 48, "doa_deg": 140.0, "confidence_0_1": 0.23770802535258828, "lat_deg": 33.99759888473965, "lon_deg": -118.00901369495648, "altitude_rel_ft": 72.4874, "yaw_deg": 0.2389, "pitch_deg": 1.936, "roll_deg": 10.9123, "ground_speed_ft_s": 56.5514, "vel_north_m_s": 6.2418, "vel_east_m_s": 9.932, "vel_down_m_s": 0.2568, "usable_for_triangulation": false}
{"run_id": "SIM_TEST", "kraken_seq": 135, "telemetry_seq": 20, "t_rx_ms": 1774598846036, "dt_ms": 48, "doa_deg": 28.0, "confidence_0_1": 0.7081137938750534, "lat_deg": 33.99926457705084, "lon_deg": -118.00629649601315, "altitude_rel_ft": 36.5823, "yaw_deg": 100.3728, "pitch_deg": -2.4124, "roll_deg": 11.7261, "ground_speed_ft_s": 33.3824, "vel_north_m_s": 5.3172, "vel_east_m_s": 8.21, "vel_down_m_s": -0.1005, "usable_for_triangulation": true}
{"run_id": "SIM_TEST", "kraken_seq": 136, "telemetry_seq": 21, "t_rx_ms": 1774598846137, "dt_ms": 48, "doa_deg": 175.0, "confidence_0_1": 0.6092105817810772, "lat_deg": 33.999481713629045, "lon_deg": -118.00689021037456, "altitude_rel_ft": 48.036, "yaw_deg": 255.3615, "pitch_deg": 4.3422, "roll_deg": -13.9884, "ground_speed_ft_s": 53.9818, "vel_north_m_s": -7.4539, "vel_east_m_s": 1.8512, "vel_down_m_s": 0.0815, "usable_for_triangulation": true}
{"run_id": "SIM_TEST", "kraken_seq": 137, "telemetry_seq": 22, "t_rx_ms": 1774598846238, "dt_ms": 48, "doa_deg": 327.0, "confidence_0_1": 0.24325423147694936, "lat_deg": 33.999766573911685, "lon_deg": -117.9940534069914, "altitude_rel_ft": 26.8763, "yaw_deg": 99.5993, "pitch_deg": 9.1211, "roll_deg": -7.5173, "ground_speed_ft_s": 21.9293, "vel_north_m_s": 5.4278, "vel_east_m_s": 9.5354, "vel_down_m_s": 0.725, "usable_for_triangulation": false}
{"run_id": "SIM_TEST", "kraken_seq": 138, "telemetry_seq": 23, "t_rx_ms": 1774598846340, "dt_ms": 48, "doa_deg": 300.0, "confidence_0_1": 0.14512639797748883, "lat_deg": 33.99916237444595, "lon_deg": -118.00706704601438, "altitude_rel_ft": 83.5869, "yaw_deg": 330.0742, "pitch_deg": 1.297, "roll_deg": 5.5684, "ground_speed_ft_s": 41.6499, "vel_north_m_s": -5.4897, "vel_east_m_s": -6.7595, "vel_down_m_s": -0.0259, "usable_for_triangulation": false}
{"run_id": "SIM_TEST", "kraken_seq": 139, "telemetry_seq": 24, "t_rx_ms": 1774598846442, "dt_ms": 47, "doa_deg": 320.0, "confidence_0_1": 0.1570747056475369, "lat_deg": 33.99063110991639, "lon_deg": -117.99356834456829, "altitude_rel_ft": 26.9438, "yaw_deg": 54.051, "pitch_deg": 0.0063, "roll_deg": 9.5962, "ground_speed_ft_s": 34.8197, "vel_north_m_s": 4.178, "vel_east_m_s": 2.3388, "vel_down_m_s": -0.7542, "usable_for_triangulation": false}
{"run_id": "SIM_TEST", "kraken_seq": 140, "telemetry_seq": 25, "t_rx_ms": 1774598846543, "dt_ms": 47, "doa_deg": 252.0, "confidence_0_1": 0.173985192812401, "lat_deg": 34.00155252606528, "lon_deg": -117.99105326364152, "altitude_rel_ft": 40.1366, "yaw_deg": 78.5331, "pitch_deg": -2.9322, "roll_deg": 5.0606, "ground_speed_ft_s": 8.2217, "vel_north_m_s": 0.2128, "vel_east_m_s": -3.7667, "vel_down_m_s": -0.9167, "usable_for_triangulation": false}
{"run_id": "SIM_TEST", "kraken_seq": 141, "telemetry_seq": 26, "t_rx_ms": 1774598846643, "dt_ms": 48, "doa_deg": 286.0, "confidence_0_1": 0.15064214287107947, "lat_deg": 33.99109938002718, "lon_deg": -118.00535104068902, "altitude_rel_ft": 25.2148, "yaw_deg": 18.4873, "pitch_deg": -8.3878, "roll_deg": -0.4517, "ground_speed_ft_s": 20.6771, "vel_north_m_s": -5.0499, "vel_east_m_s": -4.2652, "vel_down_m_s": 0.7105, "usable_for_triangulation": false}
{"run_id": "SIM_TEST", "kraken_seq": 142, "telemetry_seq": 27, "t_rx_ms": 1774598846744, "dt_ms": 48, "doa_deg": 57.0, "confidence_0_1": 0.04297478869810323, "lat_deg": 33.99850693367526, "lon_deg": -118.00051516706519, "altitude_rel_ft": 45.364, "yaw_deg": 336.4739, "pitch_deg": 3.489, "roll_deg": 6.3049, "ground_speed_ft_s": 5.1914, "vel_north_m_s": -4.7776, "vel_east_m_s": -9.6876, "vel_down_m_s": 0.6999, "usable_for_triangulation": false}
{"run_id": "SIM_TEST", "kraken_seq": 143, "telemetry_seq": 28, "t_rx_ms": 1774598846845, "dt_ms": 48, "doa_deg": 224.0, "confidence_0_1": 0.5286880603861275, "lat_deg": 33.99269877394818, "lon_deg": -117.99719397054433, "altitude_rel_ft": 71.1657, "yaw_deg": 42.2664, "pitch_deg": 6.7914, "roll_deg": 2.4303, "ground_speed_ft_s": 50.1591, "vel_north_m_s": 6.5533, "vel_east_m_s": -7.1102, "vel_down_m_s": 0.7792, "usable_for_triangulation": true}
{"run_id": "SIM_TEST", "kraken_seq": 144, "telemetry_seq": 29, "t_rx_ms": 1774598846947, "dt_ms": 47, "doa_deg": 159.0, "confidence_0_1": 0.6903766788678095, "lat_deg": 34.000343237735905, "lon_deg": -118.0038790241225, "altitude_rel_ft": 56.7304, "yaw_deg": 292.3748, "pitch_deg": -1.9258, "roll_deg": 12.3631, "ground_speed_ft_s": 42.8644, "vel_north_m_s": 3.8772, "vel_east_m_s": -4.471, "vel_down_m_s": 0.8633, "usable_for_triangulation": true}
{"run_id": "SIM_TEST", "kraken_seq": 145, "telemetry_seq": 30, "t_rx_ms": 1774598847048, "dt_ms": 47, "doa_deg": 34.0, "confidence_0_1": 0.939897250632103, "lat_deg": 34.00312005304031, "lon_deg": -118.00431709450874, "altitude_rel_ft": 99.0049, "yaw_deg": 166.527, "pitch_deg": -0.3429, "roll_deg": 3.4955, "ground_speed_ft_s": 58.7394, "vel_north_m_s": 2.691, "vel_east_m_s": 8.7021, "vel_down_m_s": -0.3302, "usable_for_triangulation": true}
{"run_id": "SIM_TEST", "kraken_seq": 146, "telemetry_seq": 31, "t_rx_ms": 1774598847148, "dt_ms": 47, "doa_deg": 359.0, "confidence_0_1": 0.5487565329463291, "lat_deg": 33.997583511693264, "lon_deg": -118.00044129290579, "altitude_rel_ft": 74.6901, "yaw_deg": 80.0986, "pitch_deg": -3.7691, "roll_deg": -12.4343, "ground_speed_ft_s": 39.3826, "vel_north_m_s": -5.4693, "vel_east_m_s": 2.6425, "vel_down_m_s": 0.7569, "usable_for_triangulation": true}
{"run_id": "SIM_TEST", "kraken_seq": 147, "telemetry_seq": 32, "t_rx_ms": 1774598847249, "dt_ms": 47, "doa_deg": 228.0, "confidence_0_1": 0.38249406130458774, "lat_deg": 34.00985877668063, "lon_deg": -117.99008600559523, "altitude_rel_ft": 48.5015, "yaw_deg": 234.7114, "pitch_deg": -1.1182, "roll_deg": 5.5286, "ground_speed_ft_s": 55.4322, "vel_north_m_s": 1.6561, "vel_east_m_s": -2.4004, "vel_down_m_s": -0.288, "usable_for_triangulation": false}
{"run_id": "SIM_TEST", "kraken_seq": 148, "telemetry_seq": 33, "t_rx_ms": 1774598847349, "dt_ms": 47, "doa_deg": 354.0, "confidence_0_1": 0.24073190122200006, "lat_deg": 34.007712080558676, "lon_deg": -117.99604292134516, "altitude_rel_ft": 76.6849, "yaw_deg": 240.4656, "pitch_deg": 4.9749, "roll_deg": -10.0853, "ground_speed_ft_s": 8.6787, "vel_north_m_s": 5.2005, "vel_east_m_s": -4.8068, "vel_down_m_s": 0.5416, "usable_for_triangulation": false}
{"run_id": "SIM_TEST", "kraken_seq": 149, "telemetry_seq": 34, "t_rx_ms": 1774598847450, "dt_ms": 47, "doa_deg": 22.0, "confidence_0_1": 0.5060736057665619, "lat_deg": 34.00908653870084, "lon_deg": -117.99029751096884, "altitude_rel_ft": 26.9134, "yaw_deg": 100.6455, "pitch_deg": -4.5971, "roll_deg": -0.3642, "ground_speed_ft_s": 32.8137, "vel_north_m_s": 7.6927, "vel_east_m_s": -9.2744, "vel_down_m_s": 0.8223, "usable_for_triangulation": true}
{"run_id": "SIM_TEST", "kraken_seq": 150, "telemetry_seq": 35, "t_rx_ms": 1774598847551, "dt_ms": 46, "doa_deg": 30.0, "confidence_0_1": 0.5770425721328102, "lat_deg": 34.00516393219441, "lon_deg": -118.00215983239313, "altitude_rel_ft": 43.4723, "yaw_deg": 113.9888, "pitch_deg": 0.0664, "roll_deg": -3.9385, "ground_speed_ft_s": 5.8444, "vel_north_m_s": 3.2968, "vel_east_m_s": -7.9477, "vel_down_m_s": 0.687, "usable_for_triangulation": true}
{"run_id": "SIM_TEST", "kraken_seq": 151, "telemetry_seq": 36, "t_rx_ms": 1774598847651, "dt_ms": 47, "doa_deg": 235.0, "confidence_0_1": 0.6411246479199199, "lat_deg": 33.993635503366214, "lon_deg": -117.9934425406847, "altitude_rel_ft": 46.8899, "yaw_deg": 136.8863, "pitch_deg": -5.9952, "roll_deg": 8.4724, "ground_speed_ft_s": 59.4634, "vel_north_m_s": -1.5948, "vel_east_m_s": 5.4493, "vel_down_m_s": 0.9955, "usable_for_triangulation": true}
{"run_id": "SIM_TEST", "kraken_seq": 152, "telemetry_seq": 37, "t_rx_ms": 1774598847751, "dt_ms": 48, "doa_deg": 193.0, "confidence_0_1": 0.15924998865715712, "lat_deg": 34.006141202569175, "lon_deg": -118.00049288102767, "altitude_rel_ft": 69.2127, "yaw_deg": 125.3771, "pitch_deg": -3.5153, "roll_deg": -4.3042, "ground_speed_ft_s": 55.2846, "vel_north_m_s": -5.7674, "vel_east_m_s": -9.4475, "vel_down_m_s": -0.2396, "usable_for_triangulation": false}
{"run_id": "SIM_TEST", "kraken_seq": 153, "telemetry_seq": 38, "t_rx_ms": 1774598847852, "dt_ms": 48, "doa_deg": 84.0, "confidence_0_1": 0.957664414008615, "lat_deg": 34.002942656437526, "lon_deg": -117.99830282582013, "altitude_rel_ft": 66.7373, "yaw_deg": 130.0127, "pitch_deg": -3.4633, "roll_deg": 4.431, "ground_speed_ft_s": 58.0736, "vel_north_m_s": 1.4166, "vel_east_m_s": 2.7821, "vel_down_m_s": 0.8181, "usable_for_triangulation": true}
{"run_id": "SIM_TEST", "kraken_seq": 154, "telemetry_seq": 39, "t_rx_ms": 1774598847953, "dt_ms": 48, "doa_deg": 242.0, "confidence_0_1": 0.09355621701939432, "lat_deg": 33.995681596340056, "lon_deg": -118.00808007020598, "altitude_rel_ft": 20.4892, "yaw_deg": 210.2835, "pitch_deg": -9.4943, "roll_deg": -0.4211, "ground_speed_ft_s": 14.73, "vel_north_m_s": -3.9925, "vel_east_m_s": -7.2501, "vel_down_m_s": 0.3448, "usable_for_triangulation": false}
{"run_id": "SIM_TEST", "kraken_seq": 155, "telemetry_seq": 40, "t_rx_ms": 1774598848053, "dt_ms": 48, "doa_deg": 260.0, "confidence_0_1": 0.266914993694934, "lat_deg": 34.008718068870536, "lon_deg": -118.00292972176791, "altitude_rel_ft": 70.5687, "yaw_deg": 195.4725, "pitch_deg": -7.8832, "roll_deg": 4.5564, "ground_speed_ft_s": 48.9836, "vel_north_m_s": 6.1909, "vel_east_m_s": 3.9081, "vel_down_m_s": -0.9204, "usable_for_triangulation": false}
{"run_id": "SIM_TEST", "kraken_seq": 156, "telemetry_seq": 41, "t_rx_ms": 1774598848153, "dt_ms": 49, "doa_deg": 43.0, "confidence_0_1": 0.7379178117337841, "lat_deg": 34.00965522973258, "lon_deg": -117.99898104625952, "altitude_rel_ft": 34.1635, "yaw_deg": 235.0167, "pitch_deg": 6.1455, "roll_deg": 11.9769, "ground_speed_ft_s": 54.1604, "vel_north_m_s": -6.262, "vel_east_m_s": -2.0768, "vel_down_m_s": 0.5115, "usable_for_triangulation": true}
{"run_id": "SIM_TEST", "kraken_seq": 157, "telemetry_seq": 42, "t_rx_ms": 1774598848254, "dt_ms": 49, "doa_deg": 189.0, "confidence_0_1": 0.02019372909334949, "lat_deg": 33.9937015611083, "lon_deg": -118.00768356676573, "altitude_rel_ft": 62.3514, "yaw_deg": 21.6123, "pitch_deg": 1.027, "roll_deg": -3.4208, "ground_speed_ft_s": 13.9232, "vel_north_m_s": -1.8039, "vel_east_m_s": 3.0638, "vel_down_m_s": -0.0394, "usable_for_triangulation": false}
{"run_id": "SIM_TEST", "kraken_seq": 158, "telemetry_seq": 43, "t_rx_ms": 1774598848355, "dt_ms": 48, "doa_deg": 149.0, "confidence_0_1": 0.7462807722786624, "lat_deg": 33.99281647289479, "lon_deg": -118.00700281504487, "altitude_rel_ft": 91.061, "yaw_deg": 92.1974, "pitch_deg": 4.2369, "roll_deg": -5.2506, "ground_speed_ft_s": 39.676, "vel_north_m_s": -3.0083, "vel_east_m_s": -2.1789, "vel_down_m_s": 0.2724, "usable_for_triangulation": true}
{"run_id": "SIM_TEST", "kraken_seq": 159, "telemetry_seq": 44, "t_rx_ms": 1774598848456, "dt_ms": 48, "doa_deg": 126.0, "confidence_0_1": 0.0915482129865135, "lat_deg": 34.00979735540867, "lon_deg": -117.99197653194942, "altitude_rel_ft": 45.4648, "yaw_deg": 34.7867, "pitch_deg": -7.5349, "roll_deg": -2.4731, "ground_speed_ft_s": 27.7871, "vel_north_m_s": 2.9181, "vel_east_m_s": -6.0737, "vel_down_m_s": 0.0214, "usable_for_triangulation": false}
{"run_id": "SIM_TEST", "kraken_seq": 160, "telemetry_seq": 45, "t_rx_ms": 1774598848556, "dt_ms": 48, "doa_deg": 233.0, "confidence_0_1": 0.15799922082159956, "lat_deg": 33.992922558589875, "lon_deg": -117.99066769583648, "altitude_rel_ft": 80.4071, "yaw_deg": 168.9582, "pitch_deg": 4.1196, "roll_deg": 13.8734, "ground_speed_ft_s": 21.8666, "vel_north_m_s": 3.8629, "vel_east_m_s": 5.1166, "vel_down_m_s": 0.0322, "usable_for_triangulation": false}
{"run_id": "SIM_TEST", "kraken_seq": 161, "telemetry_seq": 46, "t_rx_ms": 1774598848657, "dt_ms": 48, "doa_deg": 121.0, "confidence_0_1": 0.09584068370068699, "lat_deg": 34.00318269957048, "lon_deg": -118.00422222085106, "altitude_rel_ft": 46.9649, "yaw_deg": 300.8576, "pitch_deg": 0.3835, "roll_deg": 3.4756, "ground_speed_ft_s": 21.5199, "vel_north_m_s": -1.293, "vel_east_m_s": 6.575, "vel_down_m_s": -0.3212, "usable_for_triangulation": false}
{"run_id": "SIM_TEST", "kraken_seq": 162, "telemetry_seq": 47, "t_rx_ms": 1774598848758, "dt_ms": 48, "doa_deg": 8.0, "confidence_0_1": 0.4017805964233535, "lat_deg": 34.004553406602, "lon_deg": -118.00930228188386, "altitude_rel_ft": 24.2736, "yaw_deg": 37.5705, "pitch_deg": 4.9866, "roll_deg": 4.4265, "ground_speed_ft_s": 29.521, "vel_north_m_s": 7.1141, "vel_east_m_s": 9.8594, "vel_down_m_s": -0.7174, "usable_for_triangulation": false}
{"run_id": "SIM_TEST", "kraken_seq": 163, "telemetry_seq": 48, "t_rx_ms": 1774598848859, "dt_ms": 47, "doa_deg": 194.0, "confidence_0_1": 0.43725343638460956, "lat_deg": 33.99832361287795, "lon_deg": -117.99754992011674, "altitude_rel_ft": 33.0279, "yaw_deg": 55.5665, "pitch_deg": 1.8264, "roll_deg": 8.8625, "ground_speed_ft_s": 42.0856, "vel_north_m_s": 8.7218, "vel_east_m_s": -4.7642, "vel_down_m_s": -0.9985, "usable_for_triangulation": false}
{"run_id": "SIM_TEST", "kraken_seq": 164, "telemetry_seq": 49, "t_rx_ms": 1774598848959, "dt_ms": 48, "doa_deg": 303.0, "confidence_0_1": 0.2449260471107434, "lat_deg": 34.00035693418311, "lon_deg": -118.00667799157819, "altitude_rel_ft": 53.8203, "yaw_deg": 338.0404, "pitch_deg": 0.3236, "roll_deg": -1.2067, "ground_speed_ft_s": 16.7744, "vel_north_m_s": -3.4074, "vel_east_m_s": 3.4521, "vel_down_m_s": 0.3516, "usable_for_triangulation": false}
{"run_id": "SIM_TEST", "kraken_seq": 165, "telemetry_seq": 50, "t_rx_ms": 1774598849060, "dt_ms": 47, "doa_deg": 50.0, "confidence_0_1": 0.05069587183838076, "lat_deg": 34.001180919658864, "lon_deg": -117.99667358192512, "altitude_rel_ft": 20.6715, "yaw_deg": 277.2222, "pitch_deg": -5.6286, "roll_deg": 9.3287, "ground_speed_ft_s": 40.3781, "vel_north_m_s": 2.0172, "vel_east_m_s": 8.9813, "vel_down_m_s": 0.7317, "usable_for_triangulation": false}
{"run_id": "SIM_TEST", "kraken_seq": 166, "telemetry_seq": 51, "t_rx_ms": 1774598849161, "dt_ms": 47, "doa_deg": 299.0, "confidence_0_1": 0.5847284424425906, "lat_deg": 33.99634694672248, "lon_deg": -117.99668565617633, "altitude_rel_ft": 72.6673, "yaw_deg": 232.0662, "pitch_deg": -0.0529, "roll_deg": 11.1012, "ground_speed_ft_s": 34.322, "vel_north_m_s": -0.235, "vel_east_m_s": -1.6798, "vel_down_m_s": 0.4324, "usable_for_triangulation": true}
{"run_id": "SIM_TEST", "kraken_seq": 167, "telemetry_seq": 52, "t_rx_ms": 1774598849261, "dt_ms": 48, "doa_deg": 201.0, "confidence_0_1": 0.8217222428411495, "lat_deg": 33.99563071942327, "lon_deg": -117.99644686627288, "altitude_rel_ft": 42.0324, "yaw_deg": 217.8523, "pitch_deg": 4.1783, "roll_deg": 1.0842, "ground_speed_ft_s": 24.4288, "vel_north_m_s": -1.0302, "vel_east_m_s": -6.1371, "vel_down_m_s": -0.1919, "usable_for_triangulation": true}
{"run_id": "SIM_TEST", "kraken_seq": 168, "telemetry_seq": 53, "t_rx_ms": 1774598849362, "dt_ms": 47, "doa_deg": 264.0, "confidence_0_1": 0.29242885945547614, "lat_deg": 34.006559412493196, "lon_deg": -117.99936049612867, "altitude_rel_ft": 57.7651, "yaw_deg": 22.4964, "pitch_deg": 9.5288, "roll_deg": 13.4419, "ground_speed_ft_s": 43.9525, "vel_north_m_s": 3.8098, "vel_east_m_s": -4.0068, "vel_down_m_s": -0.4687, "usable_for_triangulation": false}
{"run_id": "SIM_TEST", "kraken_seq": 169, "telemetry_seq": 54, "t_rx_ms": 1774598849463, "dt_ms": 47, "doa_deg": 282.0, "confidence_0_1": 0.6486799796140706, "lat_deg": 33.99365026354376, "lon_deg": -117.99031458715083, "altitude_rel_ft": 35.5302, "yaw_deg": 326.1616, "pitch_deg": 4.9446, "roll_deg": 14.6575, "ground_speed_ft_s": 11.3126, "vel_north_m_s": 8.225, "vel_east_m_s": 8.5487, "vel_down_m_s": -0.98, "usable_for_triangulation": true}
{"run_id": "SIM_TEST", "kraken_seq": 170, "telemetry_seq": 55, "t_rx_ms": 1774598849564, "dt_ms": 48, "doa_deg": 135.0, "confidence_0_1": 0.943894666344016, "lat_deg": 33.99012781367689, "lon_deg": -117.99272329211527, "altitude_rel_ft": 40.2419, "yaw_deg": 162.8808, "pitch_deg": -6.2662, "roll_deg": -7.3072, "ground_speed_ft_s": 21.3069, "vel_north_m_s": 5.3105, "vel_east_m_s": 7.7333, "vel_down_m_s": -0.4566, "usable_for_triangulation": true}
{"run_id": "SIM_TEST", "kraken_seq": 171, "telemetry_seq": 56, "t_rx_ms": 1774598849665, "dt_ms": 47, "doa_deg": 90.0, "confidence_0_1": 0.6112701053142834, "lat_deg": 34.00007502964281, "lon_deg": -117.9971672026485, "altitude_rel_ft": 99.4484, "yaw_deg": 38.1996, "pitch_deg": -9.8167, "roll_deg": -7.9494, "ground_speed_ft_s": 9.1083, "vel_north_m_s": -6.1783, "vel_east_m_s": 0.9094, "vel_down_m_s": -0.9372, "usable_for_triangulation": true}
{"run_id": "SIM_TEST", "kraken_seq": 172, "telemetry_seq": 57, "t_rx_ms": 1774598849765, "dt_ms": 48, "doa_deg": 334.0, "confidence_0_1": 0.5703152621065396, "lat_deg": 34.00281156851758, "lon_deg": -118.00844091919762, "altitude_rel_ft": 69.7713, "yaw_deg": 319.3049, "pitch_deg": 6.7971, "roll_deg": 11.8674, "ground_speed_ft_s": 27.5812, "vel_north_m_s": -9.1214, "vel_east_m_s": 0.685, "vel_down_m_s": -0.0669, "usable_for_triangulation": true}
{"run_id": "SIM_TEST", "kraken_seq": 173, "telemetry_seq": 58, "t_rx_ms": 1774598849866, "dt_ms": 47, "doa_deg": 71.0, "confidence_0_1": 0.45229888476822655, "lat_deg": 33.996289690635734, "lon_deg": -117.99199823104645, "altitude_rel_ft": 20.515, "yaw_deg": 355.7651, "pitch_deg": 7.2431, "roll_deg": -6.901, "ground_speed_ft_s": 59.0218, "vel_north_m_s": -0.8506, "vel_east_m_s": 4.3696, "vel_down_m_s": 0.3945, "usable_for_triangulation": false}
{"run_id": "SIM_TEST", "kraken_seq": 174, "telemetry_seq": 59, "t_rx_ms": 1774598849967, "dt_ms": 47, "doa_deg": 171.0, "confidence_0_1": 0.13399345033038723, "lat_deg": 33.99866182509246, "lon_deg": -118.00113801682136, "altitude_rel_ft": 36.4333, "yaw_deg": 66.419, "pitch_deg": -5.1736, "roll_deg": 13.2944, "ground_speed_ft_s": 24.6881, "vel_north_m_s": -8.936, "vel_east_m_s": 8.2067, "vel_down_m_s": -0.7166, "usable_for_triangulation": false}
{"run_id": "SIM_TEST", "kraken_seq": 175, "telemetry_seq": 60, "t_rx_ms": 1774598850069, "dt_ms": 46, "doa_deg": 132.0, "confidence_0_1": 0.5424305165704615, "lat_deg": 33.99687446389776, "lon_deg": -117.99617349206913, "altitude_rel_ft": 20.2646, "yaw_deg": 237.7664, "pitch_deg": 1.8815, "roll_deg": -13.9061, "ground_speed_ft_s": 34.4727, "vel_north_m_s": 6.0522, "vel_east_m_s": 5.8879, "vel_down_m_s": -0.3796, "usable_for_triangulation": true}
{"run_id": "SIM_TEST", "kraken_seq": 176, "telemetry_seq": 61, "t_rx_ms": 1774598850169, "dt_ms": 47, "doa_deg": 216.0, "confidence_0_1": 0.45889883008697774, "lat_deg": 33.991272340832545, "lon_deg": -118.00055602762613, "altitude_rel_ft": 58.6826, "yaw_deg": 96.9798, "pitch_deg": -7.7452, "roll_deg": -8.3367, "ground_speed_ft_s": 31.3576, "vel_north_m_s": 5.4655, "vel_east_m_s": -1.2642, "vel_down_m_s": -0.2276, "usable_for_triangulation": false}
{"run_id": "SIM_TEST", "kraken_seq": 177, "telemetry_seq": 62, "t_rx_ms": 1774598850270, "dt_ms": 46, "doa_deg": 302.0, "confidence_0_1": 0.09032843916445576, "lat_deg": 33.99121758343689, "lon_deg": -117.99565367105023, "altitude_rel_ft": 77.2962, "yaw_deg": 68.8464, "pitch_deg": -7.0818, "roll_deg": 10.127, "ground_speed_ft_s": 6.5379, "vel_north_m_s": -7.1041, "vel_east_m_s": -0.8874, "vel_down_m_s": -0.0822, "usable_for_triangulation": false}
{"run_id": "SIM_TEST", "kraken_seq": 178, "telemetry_seq": 63, "t_rx_ms": 1774598850371, "dt_ms": 46, "doa_deg": 34.0, "confidence_0_1": 0.9795099047720152, "lat_deg": 34.00850217822056, "lon_deg": -118.0053694108274, "altitude_rel_ft": 95.238, "yaw_deg": 22.165, "pitch_deg": -2.9927, "roll_deg": -1.4827, "ground_speed_ft_s": 25.992, "vel_north_m_s": 1.2805, "vel_east_m_s": 5.6195, "vel_down_m_s": 0.6464, "usable_for_triangulation": true}
{"run_id": "SIM_TEST", "kraken_seq": 179, "telemetry_seq": 64, "t_rx_ms": 1774598850472, "dt_ms": 46, "doa_deg": 35.0, "confidence_0_1": 0.820516067373641, "lat_deg": 33.990472409297375, "lon_deg": -117.99125068755076, "altitude_rel_ft": 92.0345, "yaw_deg": 68.974, "pitch_deg": 3.3169, "roll_deg": -10.8643, "ground_speed_ft_s": 9.5938, "vel_north_m_s": 6.8765, "vel_east_m_s": -4.2191, "vel_down_m_s": 0.8081, "usable_for_triangulation": true}
{"run_id": "SIM_TEST", "kraken_seq": 180, "telemetry_seq": 65, "t_rx_ms": 1774598850573, "dt_ms": 46, "doa_deg": 17.0, "confidence_0_1": 0.06686185656127075, "lat_deg": 33.99379363719897, "lon_deg": -118.0027789580518, "altitude_rel_ft": 89.7569, "yaw_deg": 297.4062, "pitch_deg": 6.7163, "roll_deg": 13.9624, "ground_speed_ft_s": 43.6326, "vel_north_m_s": -4.9957, "vel_east_m_s": -9.7351, "vel_down_m_s": 0.522, "usable_for_triangulation": false}
{"run_id": "SIM_TEST", "kraken_seq": 181, "telemetry_seq": 66, "t_rx_ms": 1774598850674, "dt_ms": 46, "doa_deg": 2.0, "confidence_0_1": 0.09317960012151072, "lat_deg": 34.0084310987895, "lon_deg": -118.00247831182115, "altitude_rel_ft": 76.9992, "yaw_deg": 338.4974, "pitch_deg": -1.0154, "roll_deg": -9.5239, "ground_speed_ft_s": 10.8444, "vel_north_m_s": 3.6577, "vel_east_m_s": 8.314, "vel_down_m_s": -0.1423, "usable_for_triangulation": false}
{"run_id": "SIM_TEST", "kraken_seq": 182, "telemetry_seq": 67, "t_rx_ms": 1774598850774, "dt_ms": 46, "doa_deg": 81.0, "confidence_0_1": 0.22319348197491196, "lat_deg": 34.00831599951518, "lon_deg": -117.99574628697843, "altitude_rel_ft": 51.184, "yaw_deg": 70.6812, "pitch_deg": 1.3855, "roll_deg": -9.8033, "ground_speed_ft_s": 39.0936, "vel_north_m_s": -9.0878, "vel_east_m_s": -1.8076, "vel_down_m_s": -0.8405, "usable_for_triangulation": false}
{"run_id": "SIM_TEST", "kraken_seq": 183, "telemetry_seq": 68, "t_rx_ms": 1774598850875, "dt_ms": 46, "doa_deg": 93.0, "confidence_0_1": 0.8747718968842929, "lat_deg": 34.009599530064094, "lon_deg": -117.99151631100199, "altitude_rel_ft": 27.4677, "yaw_deg": 166.9617, "pitch_deg": -5.5496, "roll_deg": 14.4903, "ground_speed_ft_s": 53.0425, "vel_north_m_s": -0.6353, "vel_east_m_s": 8.8945, "vel_down_m_s": 0.605, "usable_for_triangulation": true}
{"run_id": "SIM_TEST", "kraken_seq": 184, "telemetry_seq": 69, "t_rx_ms": 1774598850976, "dt_ms": 46, "doa_deg": 31.0, "confidence_0_1": 0.7999844849748764, "lat_deg": 33.99726845394337, "lon_deg": -117.99287214072149, "altitude_rel_ft": 36.5664, "yaw_deg": 354.6385, "pitch_deg": -1.7376, "roll_deg": -12.2305, "ground_speed_ft_s": 20.189, "vel_north_m_s": 6.044, "vel_east_m_s": -6.5125, "vel_down_m_s": 0.9924, "usable_for_triangulation": true}
{"run_id": "SIM_TEST", "kraken_seq": 185, "telemetry_seq": 70, "t_rx_ms": 1774598851076, "dt_ms": 47, "doa_deg": 88.0, "confidence_0_1": 0.2563323692532614, "lat_deg": 33.997833007831794, "lon_deg": -117.99474533846403, "altitude_rel_ft": 80.8993, "yaw_deg": 140.019, "pitch_deg": -6.0068, "roll_deg": -0.8538, "ground_speed_ft_s": 12.6056, "vel_north_m_s": 5.3966, "vel_east_m_s": 8.3701, "vel_down_m_s": 0.429, "usable_for_triangulation": false}
{"run_id": "SIM_TEST", "kraken_seq": 186, "telemetry_seq": 71, "t_rx_ms": 1774598851177, "dt_ms": 47, "doa_deg": 286.0, "confidence_0_1": 0.6474890205875312, "lat_deg": 34.00794789587956, "lon_deg": -117.99996750666426, "altitude_rel_ft": 26.7789, "yaw_deg": 306.2805, "pitch_deg": -1.429, "roll_deg": 8.2437, "ground_speed_ft_s": 24.1848, "vel_north_m_s": 8.3187, "vel_east_m_s": -9.9483, "vel_down_m_s": 0.0522, "usable_for_triangulation": true}
{"run_id": "SIM_TEST", "kraken_seq": 187, "telemetry_seq": 72, "t_rx_ms": 1774598851278, "dt_ms": 47, "doa_deg": 79.0, "confidence_0_1": 0.4627053302044609, "lat_deg": 33.99075299065272, "lon_deg": -118.00885893682248, "altitude_rel_ft": 46.3305, "yaw_deg": 130.7825, "pitch_deg": -6.0219, "roll_deg": 9.7915, "ground_speed_ft_s": 18.5927, "vel_north_m_s": 5.1103, "vel_east_m_s": -8.8233, "vel_down_m_s": -0.8083, "usable_for_triangulation": false}
{"run_id": "SIM_TEST", "kraken_seq": 188, "telemetry_seq": 73, "t_rx_ms": 1774598851378, "dt_ms": 47, "doa_deg": 304.0, "confidence_0_1": 0.04857487832119323, "lat_deg": 34.00113079469975, "lon_deg": -117.9948771639292, "altitude_rel_ft": 69.31, "yaw_deg": 195.5062, "pitch_deg": -7.8469, "roll_deg": 10.9181, "ground_speed_ft_s": 5.8342, "vel_north_m_s": -5.0942, "vel_east_m_s": -5.7603, "vel_down_m_s": 0.7709, "usable_for_triangulation": false}
{"run_id": "SIM_TEST", "kraken_seq": 189, "telemetry_seq": 74, "t_rx_ms": 1774598851479, "dt_ms": 47, "doa_deg": 339.0, "confidence_0_1": 0.5157697665301573, "lat_deg": 34.00537054064466, "lon_deg": -118.00800341091436, "altitude_rel_ft": 78.3729, "yaw_deg": 13.6675, "pitch_deg": -0.2047, "roll_deg": 7.8566, "ground_speed_ft_s": 16.9967, "vel_north_m_s": -1.0547, "vel_east_m_s": 5.2132, "vel_down_m_s": 0.58, "usable_for_triangulation": true}
{"run_id": "SIM_TEST", "kraken_seq": 190, "telemetry_seq": 75, "t_rx_ms": 1774598851579, "dt_ms": 47, "doa_deg": 41.0, "confidence_0_1": 0.6885875289034908, "lat_deg": 34.00272156674677, "lon_deg": -118.00671856749078, "altitude_rel_ft": 39.4185, "yaw_deg": 293.5559, "pitch_deg": -7.4451, "roll_deg": 13.7519, "ground_speed_ft_s": 12.5554, "vel_north_m_s": -4.3443, "vel_east_m_s": -1.4008, "vel_down_m_s": 0.7637, "usable_for_triangulation": true}
{"run_id": "SIM_TEST", "kraken_seq": 191, "telemetry_seq": 76, "t_rx_ms": 1774598851680, "dt_ms": 47, "doa_deg": 148.0, "confidence_0_1": 0.1421276269716294, "lat_deg": 33.99286031411245, "lon_deg": -118.00471256331815, "altitude_rel_ft": 87.014, "yaw_deg": 50.2755, "pitch_deg": 2.5659, "roll_deg": -14.4862, "ground_speed_ft_s": 47.4116, "vel_north_m_s": -3.8404, "vel_east_m_s": 9.8131, "vel_down_m_s": -0.6042, "usable_for_triangulation": false}
{"run_id": "SIM_TEST", "kraken_seq": 192, "telemetry_seq": 77, "t_rx_ms": 1774598851780, "dt_ms": 47, "doa_deg": 55.0, "confidence_0_1": 0.30189331121114715, "lat_deg": 33.999144765066966, "lon_deg": -118.00525768816982, "altitude_rel_ft": 72.5767, "yaw_deg": 191.2744, "pitch_deg": 4.1402, "roll_deg": -5.5099, "ground_speed_ft_s": 47.4104, "vel_north_m_s": -0.9598, "vel_east_m_s": 3.5401, "vel_down_m_s": -0.8041, "usable_for_triangulation": false}
{"run_id": "SIM_TEST", "kraken_seq": 193, "telemetry_seq": 78, "t_rx_ms": 1774598851881, "dt_ms": 47, "doa_deg": 144.0, "confidence_0_1": 0.4827210754083151, "lat_deg": 34.008174858179345, "lon_deg": -117.99565622703162, "altitude_rel_ft": 66.6524, "yaw_deg": 23.6566, "pitch_deg": -5.7807, "roll_deg": 0.7451, "ground_speed_ft_s": 39.6443, "vel_north_m_s": 8.2953, "vel_east_m_s": 8.2777, "vel_down_m_s": 0.821, "usable_for_triangulation": false}
{"run_id": "SIM_TEST", "kraken_seq": 194, "telemetry_seq": 79, "t_rx_ms": 1774598851982, "dt_ms": 47, "doa_deg": 119.0, "confidence_0_1": 0.2153406801203659, "lat_deg": 33.99166694809935, "lon_deg": -117.99274253419429, "altitude_rel_ft": 61.8477, "yaw_deg": 282.0235, "pitch_deg": -1.5646, "roll_deg": 13.0317, "ground_speed_ft_s": 27.5599, "vel_north_m_s": 9.2468, "vel_east_m_s": 0.2051, "vel_down_m_s": -0.4979, "usable_for_triangulation": false}
{"run_id": "SIM_TEST", "kraken_seq": 195, "telemetry_seq": 80, "t_rx_ms": 1774598852083, "dt_ms": 47, "doa_deg": 187.0, "confidence_0_1": 0.507964497027287, "lat_deg": 34.00324509275882, "lon_deg": -118.00128360140148, "altitude_rel_ft": 25.7771, "yaw_deg": 161.0709, "pitch_deg": 8.5186, "roll_deg": 0.8976, "ground_speed_ft_s": 58.8688, "vel_north_m_s": 9.9787, "vel_east_m_s": -4.4893, "vel_down_m_s": -0.484, "usable_for_triangulation": true}
{"run_id": "SIM_TEST", "kraken_seq": 196, "telemetry_seq": 81, "t_rx_ms": 1774598852184, "dt_ms": 47, "doa_deg": 84.0, "confidence_0_1": 0.9450494820384147, "lat_deg": 34.00420640871827, "lon_deg": -117.99112141420434, "altitude_rel_ft": 93.5274, "yaw_deg": 86.6498, "pitch_deg": -2.822, "roll_deg": 9.9997, "ground_speed_ft_s": 27.386, "vel_north_m_s": 9.0956, "vel_east_m_s": -4.6126, "vel_down_m_s": -0.7237, "usable_for_triangulation": true}
{"run_id": "SIM_TEST", "kraken_seq": 197, "telemetry_seq": 82, "t_rx_ms": 1774598852284, "dt_ms": 48, "doa_deg": 327.0, "confidence_0_1": 0.6226657447235533, "lat_deg": 34.000309903045675, "lon_deg": -117.99748028417744, "altitude_rel_ft": 68.7932, "yaw_deg": 336.8684, "pitch_deg": -0.7569, "roll_deg": 1.9567, "ground_speed_ft_s": 18.8527, "vel_north_m_s": 2.8207, "vel_east_m_s": -1.7363, "vel_down_m_s": -0.974, "usable_for_triangulation": true}
{"run_id": "SIM_TEST", "kraken_seq": 198, "telemetry_seq": 83, "t_rx_ms": 1774598852387, "dt_ms": 46, "doa_deg": 181.0, "confidence_0_1": 0.8637561375441166, "lat_deg": 34.009125514729355, "lon_deg": -117.99749994555647, "altitude_rel_ft": 88.5999, "yaw_deg": 48.5426, "pitch_deg": -6.4645, "roll_deg": 6.8066, "ground_speed_ft_s": 7.9843, "vel_north_m_s": -9.1468, "vel_east_m_s": -8.1096, "vel_down_m_s": -0.1302, "usable_for_triangulation": true}
{"run_id": "SIM_TEST", "kraken_seq": 199, "telemetry_seq": 84, "t_rx_ms": 1774598852487, "dt_ms": 47, "doa_deg": 106.0, "confidence_0_1": 0.48982619185675935, "lat_deg": 33.99859004010974, "lon_deg": -118.00616888999592, "altitude_rel_ft": 24.9312, "yaw_deg": 258.523, "pitch_deg": -6.247, "roll_deg": 14.4295, "ground_speed_ft_s": 19.2302, "vel_north_m_s": -3.1597, "vel_east_m_s": 2.3993, "vel_down_m_s": 0.8707, "usable_for_triangulation": false}
{"run_id": "SIM_TEST", "kraken_seq": 200, "telemetry_seq": 85, "t_rx_ms": 1774598852588, "dt_ms": 47, "doa_deg": 304.0, "confidence_0_1": 0.34048092815785624, "lat_deg": 33.99581244585026, "lon_deg": -117.99399093663853, "altitude_rel_ft": 59.9632, "yaw_deg": 197.276, "pitch_deg": 7.672, "roll_deg": -7.5507, "ground_speed_ft_s": 52.6662, "vel_north_m_s": -0.7513, "vel_east_m_s": 0.4079, "vel_down_m_s": 0.3403, "usable_for_triangulation": false}
{"run_id": "SIM_TEST", "kraken_seq": 201, "telemetry_seq": 86, "t_rx_ms": 1774598852690, "dt_ms": 46, "doa_deg": 318.0, "confidence_0_1": 0.26977166396450614, "lat_deg": 33.99967186826659, "lon_deg": -117.99350463398602, "altitude_rel_ft": 60.5619, "yaw_deg": 144.042, "pitch_deg": -4.1204, "roll_deg": -2.5694, "ground_speed_ft_s": 41.1248, "vel_north_m_s": -1.6984, "vel_east_m_s": -3.5486, "vel_down_m_s": 0.8531, "usable_for_triangulation": false}
{"run_id": "SIM_TEST", "kraken_seq": 202, "telemetry_seq": 87, "t_rx_ms": 1774598852791, "dt_ms": 46, "doa_deg": 79.0, "confidence_0_1": 0.6829219436215498, "lat_deg": 34.0034594998138, "lon_deg": -118.00901600633591, "altitude_rel_ft": 56.3256, "yaw_deg": 291.1892, "pitch_deg": 2.7968, "roll_deg": -3.1236, "ground_speed_ft_s": 20.5939, "vel_north_m_s": -6.2783, "vel_east_m_s": -2.802, "vel_down_m_s": 0.933, "usable_for_triangulation": true}
{"run_id": "SIM_TEST", "kraken_seq": 203, "telemetry_seq": 88, "t_rx_ms": 1774598852892, "dt_ms": 46, "doa_deg": 357.0, "confidence_0_1": 0.6921329117127267, "lat_deg": 34.00225513585862, "lon_deg": -117.99856534668697, "altitude_rel_ft": 90.1837, "yaw_deg": 265.9296, "pitch_deg": -8.9468, "roll_deg": 13.6181, "ground_speed_ft_s": 17.7793, "vel_north_m_s": -6.1134, "vel_east_m_s": -6.6944, "vel_down_m_s": 0.834, "usable_for_triangulation": true}
{"run_id": "SIM_TEST", "kraken_seq": 204, "telemetry_seq": 89, "t_rx_ms": 1774598852993, "dt_ms": 46, "doa_deg": 239.0, "confidence_0_1": 0.37306450340244934, "lat_deg": 34.00023319744413, "lon_deg": -117.99043204592505, "altitude_rel_ft": 53.9346, "yaw_deg": 197.1356, "pitch_deg": -6.8984, "roll_deg": -11.8901, "ground_speed_ft_s": 15.1568, "vel_north_m_s": 6.1125, "vel_east_m_s": 5.1676, "vel_down_m_s": 0.1888, "usable_for_triangulation": false}
{"run_id": "SIM_TEST", "kraken_seq": 205, "telemetry_seq": 90, "t_rx_ms": 1774598853094, "dt_ms": 46, "doa_deg": 325.0, "confidence_0_1": 0.5084219465614329, "lat_deg": 34.0092979477688, "lon_deg": -117.9964830590208, "altitude_rel_ft": 51.3265, "yaw_deg": 280.2703, "pitch_deg": -2.1223, "roll_deg": -1.2502, "ground_speed_ft_s": 22.0526, "vel_north_m_s": -1.0783, "vel_east_m_s": 6.097, "vel_down_m_s": 0.5582, "usable_for_triangulation": true}
{"run_id": "SIM_TEST", "kraken_seq": 206, "telemetry_seq": 91, "t_rx_ms": 1774598853195, "dt_ms": 46, "doa_deg": 259.0, "confidence_0_1": 0.041668529139131105, "lat_deg": 33.996958974911664, "lon_deg": -118.00659755023376, "altitude_rel_ft": 23.0525, "yaw_deg": 125.98, "pitch_deg": 3.9938, "roll_deg": 3.9872, "ground_speed_ft_s": 15.0433, "vel_north_m_s": 5.8364, "vel_east_m_s": -5.1627, "vel_down_m_s": 0.3588, "usable_for_triangulation": false}
{"run_id": "SIM_TEST", "kraken_seq": 207, "telemetry_seq": 92, "t_rx_ms": 1774598853296, "dt_ms": 46, "doa_deg": 119.0, "confidence_0_1": 0.5186943346840829, "lat_deg": 34.009874821080174, "lon_deg": -118.00579698575257, "altitude_rel_ft": 73.4283, "yaw_deg": 323.8697, "pitch_deg": 9.4371, "roll_deg": 10.3718, "ground_speed_ft_s": 43.3756, "vel_north_m_s": 7.6256, "vel_east_m_s": -8.2981, "vel_down_m_s": 0.3476, "usable_for_triangulation": true}
{"run_id": "SIM_TEST", "kraken_seq": 208, "telemetry_seq": 93, "t_rx_ms": 1774598853397, "dt_ms": 46, "doa_deg": 233.0, "confidence_0_1": 0.2183764534712861, "lat_deg": 33.99476631855359, "lon_deg": -117.99305227800264, "altitude_rel_ft": 42.2333, "yaw_deg": 195.3805, "pitch_deg": 0.7409, "roll_deg": 7.1898, "ground_speed_ft_s": 39.204, "vel_north_m_s": -8.9148, "vel_east_m_s": -1.6302, "vel_down_m_s": -0.042, "usable_for_triangulation": false}
{"run_id": "SIM_TEST", "kraken_seq": 209, "telemetry_seq": 94, "t_rx_ms": 1774598853498, "dt_ms": 46, "doa_deg": 153.0, "confidence_0_1": 0.6809958649674563, "lat_deg": 34.002040559627346, "lon_deg": -117.99589730439213, "altitude_rel_ft": 68.322, "yaw_deg": 98.8634, "pitch_deg": -8.5532, "roll_deg": 4.4964, "ground_speed_ft_s": 7.3872, "vel_north_m_s": -2.4419, "vel_east_m_s": 5.081, "vel_down_m_s": -0.0928, "usable_for_triangulation": true}
{"run_id": "SIM_TEST", "kraken_seq": 210, "telemetry_seq": 95, "t_rx_ms": 1774598853598, "dt_ms": 47, "doa_deg": 28.0, "confidence_0_1": 0.4657212180759478, "lat_deg": 34.00278884659063, "lon_deg": -118.00523879304178, "altitude_rel_ft": 40.1056, "yaw_deg": 56.7027, "pitch_deg": -1.0395, "roll_deg": -4.4395, "ground_speed_ft_s": 19.7679, "vel_north_m_s": -6.392, "vel_east_m_s": 1.3252, "vel_down_m_s": 0.7541, "usable_for_triangulation": false}
{"run_id": "SIM_TEST", "kraken_seq": 211, "telemetry_seq": 96, "t_rx_ms": 1774598853700, "dt_ms": 48, "doa_deg": 173.0, "confidence_0_1": 0.6579442757520381, "lat_deg": 33.99471109378631, "lon_deg": -118.00276355158447, "altitude_rel_ft": 96.0867, "yaw_deg": 176.034, "pitch_deg": -2.8103, "roll_deg": -13.751, "ground_speed_ft_s": 14.3991, "vel_north_m_s": -1.3269, "vel_east_m_s": -3.4111, "vel_down_m_s": -0.5086, "usable_for_triangulation": true}
{"run_id": "SIM_TEST", "kraken_seq": 212, "telemetry_seq": 97, "t_rx_ms": 1774598853800, "dt_ms": 50, "doa_deg": 45.0, "confidence_0_1": 0.8173694693169291, "lat_deg": 33.99928784511156, "lon_deg": -118.00280825081151, "altitude_rel_ft": 95.6779, "yaw_deg": 70.8349, "pitch_deg": 3.9374, "roll_deg": -1.9696, "ground_speed_ft_s": 27.3971, "vel_north_m_s": -6.461, "vel_east_m_s": 3.58, "vel_down_m_s": 0.4154, "usable_for_triangulation": true}
{"run_id": "SIM_TEST", "kraken_seq": 213, "telemetry_seq": 98, "t_rx_ms": 1774598853901, "dt_ms": 50, "doa_deg": 297.0, "confidence_0_1": 0.5190046571588037, "lat_deg": 34.00388089111586, "lon_deg": -118.00585138683209, "altitude_rel_ft": 39.5525, "yaw_deg": 212.3846, "pitch_deg": 0.0005, "roll_deg": 7.6726, "ground_speed_ft_s": 51.1577, "vel_north_m_s": -0.993, "vel_east_m_s": 0.0575, "vel_down_m_s": -0.3336, "usable_for_triangulation": true}
{"run_id": "SIM_TEST", "kraken_seq": 214, "telemetry_seq": 99, "t_rx_ms": 1774598854003, "dt_ms": 50, "doa_deg": 22.0, "confidence_0_1": 0.29284172886704973, "lat_deg": 33.993058139516855, "lon_deg": -118.00580271316208, "altitude_rel_ft": 64.393, "yaw_deg": 132.8508, "pitch_deg": 4.649, "roll_deg": 5.6511, "ground_speed_ft_s": 8.7905, "vel_north_m_s": 5.3609, "vel_east_m_s": 3.4635, "vel_down_m_s": -0.2399, "usable_for_triangulation": false}
{"run_id": "SIM_TEST", "kraken_seq": 215, "telemetry_seq": 99, "t_rx_ms": 1774598854103, "dt_ms": -50, "doa_deg": 182.0, "confidence_0_1": 0.441594526549849, "lat_deg": 33.993058139516855, "lon_deg": -118.00580271316208, "altitude_rel_ft": 64.393, "yaw_deg": 132.8508, "pitch_deg": 4.649, "roll_deg": 5.6511, "ground_speed_ft_s": 8.7905, "vel_north_m_s": 5.3609, "vel_east_m_s": 3.4635, "vel_down_m_s": -0.2399, "usable_for_triangulation": false}
{"run_id": "SIM_TEST", "kraken_seq": 216, "telemetry_seq": 101, "t_rx_ms": 1774598854204, "dt_ms": 50, "doa_deg": 227.0, "confidence_0_1": 0.9725981733103479, "lat_deg": 33.990387721183765, "lon_deg": -117.99486794951298, "altitude_rel_ft": 75.5504, "yaw_deg": 199.878, "pitch_deg": 4.0789, "roll_deg": 7.4565, "ground_speed_ft_s": 36.4838, "vel_north_m_s": 2.2068, "vel_east_m_s": 2.399, "vel_down_m_s": 0.8367, "usable_for_triangulation": true}
{"run_id": "SIM_TEST", "kraken_seq": 217, "telemetry_seq": 101, "t_rx_ms": 1774598854305, "dt_ms": -51, "doa_deg": 239.0, "confidence_0_1": 0.11761116435580632, "lat_deg": 33.990387721183765, "lon_deg": -117.99486794951298, "altitude_rel_ft": 75.5504, "yaw_deg": 199.878, "pitch_deg": 4.0789, "roll_deg": 7.4565, "ground_speed_ft_s": 36.4838, "vel_north_m_s": 2.2068, "vel_east_m_s": 2.399, "vel_down_m_s": 0.8367, "usable_for_triangulation": false}
{"run_id": "SIM_TEST", "kraken_seq": 218, "telemetry_seq": 102, "t_rx_ms": 1774598854406, "dt_ms": -50, "doa_deg": 296.0, "confidence_0_1": 0.3562236869444815, "lat_deg": 33.993372167069886, "lon_deg": -117.99696397935095, "altitude_rel_ft": 96.3959, "yaw_deg": 144.7736, "pitch_deg": 7.4725, "roll_deg": 10.2438, "ground_speed_ft_s": 37.2211, "vel_north_m_s": 6.0305, "vel_east_m_s": 6.9152, "vel_down_m_s": 0.2455, "usable_for_triangulation": false}
{"run_id": "SIM_TEST", "kraken_seq": 219, "telemetry_seq": 104, "t_rx_ms": 1774598854509, "dt_ms": 49, "doa_deg": 129.0, "confidence_0_1": 0.6004931505789702, "lat_deg": 34.00591069125677, "lon_deg": -117.99395216882479, "altitude_rel_ft": 45.2309, "yaw_deg": 43.5018, "pitch_deg": 9.8603, "roll_deg": -2.9382, "ground_speed_ft_s": 50.9575, "vel_north_m_s": -6.12, "vel_east_m_s": -8.9821, "vel_down_m_s": -0.3721, "usable_for_triangulation": true}
{"run_id": "SIM_TEST", "kraken_seq": 220, "telemetry_seq": 105, "t_rx_ms": 1774598854610, "dt_ms": 49, "doa_deg": 123.0, "confidence_0_1": 0.11648768531365805, "lat_deg": 33.99624381091258, "lon_deg": -117.9903911598568, "altitude_rel_ft": 88.0807, "yaw_deg": 19.44, "pitch_deg": -6.8844, "roll_deg": 4.2383, "ground_speed_ft_s": 16.0145, "vel_north_m_s": 8.1213, "vel_east_m_s": -1.021, "vel_down_m_s": -0.4118, "usable_for_triangulation": false}
{"run_id": "SIM_TEST", "kraken_seq": 221, "telemetry_seq": 106, "t_rx_ms": 1774598854711, "dt_ms": 49, "doa_deg": 209.0, "confidence_0_1": 0.5651780853102354, "lat_deg": 34.00215642553172, "lon_deg": -118.00230097758437, "altitude_rel_ft": 55.7857, "yaw_deg": 238.3559, "pitch_deg": 4.5309, "roll_deg": 12.8797, "ground_speed_ft_s": 20.747, "vel_north_m_s": -9.1551, "vel_east_m_s": -4.9751, "vel_down_m_s": -0.308, "usable_for_triangulation": true}
{"run_id": "SIM_TEST", "kraken_seq": 222, "telemetry_seq": 107, "t_rx_ms": 1774598854812, "dt_ms": 49, "doa_deg": 141.0, "confidence_0_1": 0.153771927033167, "lat_deg": 34.003873072378106, "lon_deg": -118.00683826905534, "altitude_rel_ft": 66.3775, "yaw_deg": 51.2621, "pitch_deg": 5.3204, "roll_deg": -13.1406, "ground_speed_ft_s": 58.2008, "vel_north_m_s": 4.032, "vel_east_m_s": 7.5624, "vel_down_m_s": -0.8178, "usable_for_triangulation": false}
{"run_id": "SIM_TEST", "kraken_seq": 223, "telemetry_seq": 108, "t_rx_ms": 1774598854913, "dt_ms": 49, "doa_deg": 116.0, "confidence_0_1": 0.3494864185366975, "lat_deg": 34.00097420371518, "lon_deg": -117.99899577671914, "altitude_rel_ft": 39.5831, "yaw_deg": 92.0679, "pitch_deg": 1.8134, "roll_deg": -9.4395, "ground_speed_ft_s": 28.4273, "vel_north_m_s": -6.7663, "vel_east_m_s": 7.7302, "vel_down_m_s": 0.6548, "usable_for_triangulation": false}
{"run_id": "SIM_TEST", "kraken_seq": 224, "telemetry_seq": 109, "t_rx_ms": 1774598855015, "dt_ms": 48, "doa_deg": 295.0, "confidence_0_1": 0.7833095363719486, "lat_deg": 33.99343295724833, "lon_deg": -118.00690029095784, "altitude_rel_ft": 87.7902, "yaw_deg": 22.7744, "pitch_deg": 2.0475, "roll_deg": -5.6711, "ground_speed_ft_s": 13.5188, "vel_north_m_s": -9.6935, "vel_east_m_s": 6.5174, "vel_down_m_s": 0.3209, "usable_for_triangulation": true}
{"run_id": "SIM_TEST", "kraken_seq": 225, "telemetry_seq": 110, "t_rx_ms": 1774598855119, "dt_ms": 46, "doa_deg": 113.0, "confidence_0_1": 0.6962774847590402, "lat_deg": 34.003961537939546, "lon_deg": -117.99045062422007, "altitude_rel_ft": 38.3697, "yaw_deg": 206.9587, "pitch_deg": -7.5595, "roll_deg": 0.6749, "ground_speed_ft_s": 45.9883, "vel_north_m_s": 2.836, "vel_east_m_s": -9.839, "vel_down_m_s": -0.2058, "usable_for_triangulation": true}
{"run_id": "SIM_TEST", "kraken_seq": 226, "telemetry_seq": 111, "t_rx_ms": 1774598855220, "dt_ms": 46, "doa_deg": 170.0, "confidence_0_1": 0.7812849593905329, "lat_deg": 34.006971522688815, "lon_deg": -117.99624959187265, "altitude_rel_ft": 51.3599, "yaw_deg": 285.1497, "pitch_deg": 6.6328, "roll_deg": -5.6101, "ground_speed_ft_s": 53.1975, "vel_north_m_s": 6.8364, "vel_east_m_s": -6.4549, "vel_down_m_s": -0.1623, "usable_for_triangulation": true}
{"run_id": "SIM_TEST", "kraken_seq": 227, "telemetry_seq": 112, "t_rx_ms": 1774598855321, "dt_ms": 46, "doa_deg": 180.0, "confidence_0_1": 0.19343037239549854, "lat_deg": 33.99224488840128, "lon_deg": -117.99899625623846, "altitude_rel_ft": 90.154, "yaw_deg": 147.8405, "pitch_deg": 4.6822, "roll_deg": -13.2329, "ground_speed_ft_s": 53.1255, "vel_north_m_s": 7.1811, "vel_east_m_s": 0.7059, "vel_down_m_s": 0.3879, "usable_for_triangulation": false}
{"run_id": "SIM_TEST", "kraken_seq": 228, "telemetry_seq": 113, "t_rx_ms": 1774598855422, "dt_ms": 45, "doa_deg": 5.0, "confidence_0_1": 0.9572710708971828, "lat_deg": 33.99383157674014, "lon_deg": -117.9977169351101, "altitude_rel_ft": 64.8016, "yaw_deg": 270.4107, "pitch_deg": 0.4761, "roll_deg": 13.3547, "ground_speed_ft_s": 15.304, "vel_north_m_s": 9.0952, "vel_east_m_s": 5.7145, "vel_down_m_s": -0.0447, "usable_for_triangulation": true}
{"run_id": "SIM_TEST", "kraken_seq": 229, "telemetry_seq": 114, "t_rx_ms": 1774598855523, "dt_ms": 46, "doa_deg": 263.0, "confidence_0_1": 0.40364463651542515, "lat_deg": 34.009865652171115, "lon_deg": -117.99396029822368, "altitude_rel_ft": 44.6796, "yaw_deg": 211.5845, "pitch_deg": -4.7675, "roll_deg": -11.3623, "ground_speed_ft_s": 7.56, "vel_north_m_s": 3.3291, "vel_east_m_s": -0.7189, "vel_down_m_s": 0.2346, "usable_for_triangulation": false}
{"run_id": "SIM_TEST", "kraken_seq": 230, "telemetry_seq": 115, "t_rx_ms": 1774598855624, "dt_ms": 46, "doa_deg": 66.0, "confidence_0_1": 0.44836228400832756, "lat_deg": 33.995651210552595, "lon_deg": -117.99656161099594, "altitude_rel_ft": 24.9455, "yaw_deg": 80.7024, "pitch_deg": -4.8263, "roll_deg": 2.1815, "ground_speed_ft_s": 52.9481, "vel_north_m_s": 0.1179, "vel_east_m_s": -0.9724, "vel_down_m_s": -0.7368, "usable_for_triangulation": false}
{"run_id": "SIM_TEST", "kraken_seq": 231, "telemetry_seq": 116, "t_rx_ms": 1774598855725, "dt_ms": 46, "doa_deg": 138.0, "confidence_0_1": 0.6030733080342411, "lat_deg": 34.003854418379156, "lon_deg": -117.99695935824751, "altitude_rel_ft": 51.1699, "yaw_deg": 6.6835, "pitch_deg": -7.2663, "roll_deg": -9.1327, "ground_speed_ft_s": 21.6448, "vel_north_m_s": 4.2648, "vel_east_m_s": 7.9735, "vel_down_m_s": -0.0359, "usable_for_triangulation": true}
{"run_id": "SIM_TEST", "kraken_seq": 232, "telemetry_seq": 117, "t_rx_ms": 1774598855826, "dt_ms": 46, "doa_deg": 299.0, "confidence_0_1": 0.07323325091499433, "lat_deg": 33.9980135737959, "lon_deg": -117.9926048269315, "altitude_rel_ft": 86.2785, "yaw_deg": 263.992, "pitch_deg": -1.9224, "roll_deg": 14.7042, "ground_speed_ft_s": 57.5766, "vel_north_m_s": -2.0962, "vel_east_m_s": -5.2166, "vel_down_m_s": -0.6244, "usable_for_triangulation": false}
{"run_id": "SIM_TEST", "kraken_seq": 233, "telemetry_seq": 118, "t_rx_ms": 1774598855927, "dt_ms": 47, "doa_deg": 256.0, "confidence_0_1": 0.7175412716312565, "lat_deg": 33.99891395546561, "lon_deg": -118.00279955090951, "altitude_rel_ft": 30.8557, "yaw_deg": 25.7271, "pitch_deg": 7.5824, "roll_deg": 6.7875, "ground_speed_ft_s": 16.3585, "vel_north_m_s": -7.1427, "vel_east_m_s": 1.9696, "vel_down_m_s": 0.1424, "usable_for_triangulation": true}
{"run_id": "SIM_TEST", "kraken_seq": 234, "telemetry_seq": 119, "t_rx_ms": 1774598856028, "dt_ms": 46, "doa_deg": 78.0, "confidence_0_1": 0.9040944630588648, "lat_deg": 34.00851941353459, "lon_deg": -117.99759263459936, "altitude_rel_ft": 67.3339, "yaw_deg": 137.2393, "pitch_deg": -2.0187, "roll_deg": -7.1339, "ground_speed_ft_s": 39.6509, "vel_north_m_s": 2.5351, "vel_east_m_s": 1.3191, "vel_down_m_s": -0.7029, "usable_for_triangulation": true}
{"run_id": "SIM_TEST", "kraken_seq": 235, "telemetry_seq": 120, "t_rx_ms": 1774598856129, "dt_ms": 46, "doa_deg": 359.0, "confidence_0_1": 0.39180292353211754, "lat_deg": 33.991244663445, "lon_deg": -117.99615865166514, "altitude_rel_ft": 31.1903, "yaw_deg": 297.8547, "pitch_deg": 0.7001, "roll_deg": -0.5652, "ground_speed_ft_s": 5.362, "vel_north_m_s": -2.356, "vel_east_m_s": 3.3955, "vel_down_m_s": 0.9691, "usable_for_triangulation": false}
{"run_id": "SIM_TEST", "kraken_seq": 236, "telemetry_seq": 121, "t_rx_ms": 1774598856230, "dt_ms": 46, "doa_deg": 74.0, "confidence_0_1": 0.5497864494549594, "lat_deg": 33.994223789440724, "lon_deg": -118.00763311476803, "altitude_rel_ft": 51.1338, "yaw_deg": 227.3859, "pitch_deg": 4.4731, "roll_deg": -13.5476, "ground_speed_ft_s": 34.1958, "vel_north_m_s": -7.0831, "vel_east_m_s": -9.2443, "vel_down_m_s": 0.8201, "usable_for_triangulation": true}
{"run_id": "SIM_TEST", "kraken_seq": 237, "telemetry_seq": 122, "t_rx_ms": 1774598856330, "dt_ms": 48, "doa_deg": 59.0, "confidence_0_1": 0.1969753103397719, "lat_deg": 33.99158318704963, "lon_deg": -118.00628308011737, "altitude_rel_ft": 33.3869, "yaw_deg": 58.5203, "pitch_deg": 8.7409, "roll_deg": -11.2271, "ground_speed_ft_s": 44.4592, "vel_north_m_s": -0.8482, "vel_east_m_s": -1.0249, "vel_down_m_s": 0.913, "usable_for_triangulation": false}
{"run_id": "SIM_TEST", "kraken_seq": 238, "telemetry_seq": 123, "t_rx_ms": 1774598856432, "dt_ms": 47, "doa_deg": 162.0, "confidence_0_1": 0.9205179044479055, "lat_deg": 34.00955289733697, "lon_deg": -117.99433040934647, "altitude_rel_ft": 83.1641, "yaw_deg": 174.177, "pitch_deg": -9.3902, "roll_deg": -8.4668, "ground_speed_ft_s": 10.803, "vel_north_m_s": 3.5432, "vel_east_m_s": -9.0533, "vel_down_m_s": -0.1495, "usable_for_triangulation": true}
{"run_id": "SIM_TEST", "kraken_seq": 239, "telemetry_seq": 124, "t_rx_ms": 1774598856532, "dt_ms": 48, "doa_deg": 43.0, "confidence_0_1": 0.816609355363195, "lat_deg": 33.99756333921165, "lon_deg": -117.99660218140384, "altitude_rel_ft": 99.5433, "yaw_deg": 174.545, "pitch_deg": 5.9933, "roll_deg": -4.9966, "ground_speed_ft_s": 55.4707, "vel_north_m_s": 0.9678, "vel_east_m_s": -5.8867, "vel_down_m_s": 0.3024, "usable_for_triangulation": true}
{"run_id": "SIM_TEST", "kraken_seq": 240, "telemetry_seq": 125, "t_rx_ms": 1774598856633, "dt_ms": 49, "doa_deg": 192.0, "confidence_0_1": 0.23227247212787594, "lat_deg": 33.99010483479444, "lon_deg": -117.99576103596878, "altitude_rel_ft": 93.101, "yaw_deg": 120.5468, "pitch_deg": -3.3883, "roll_deg": 1.3258, "ground_speed_ft_s": 45.465, "vel_north_m_s": -0.5165, "vel_east_m_s": 1.1241, "vel_down_m_s": 0.55, "usable_for_triangulation": false}
{"run_id": "SIM_TEST", "kraken_seq": 241, "telemetry_seq": 126, "t_rx_ms": 1774598856734, "dt_ms": 49, "doa_deg": 39.0, "confidence_0_1": 0.8121814696487869, "lat_deg": 33.99418669840813, "lon_deg": -117.99001700982782, "altitude_rel_ft": 78.6319, "yaw_deg": 274.2538, "pitch_deg": 3.3455, "roll_deg": -7.1147, "ground_speed_ft_s": 12.8976, "vel_north_m_s": -8.8139, "vel_east_m_s": -7.564, "vel_down_m_s": 0.1681, "usable_for_triangulation": true}
{"run_id": "SIM_TEST", "kraken_seq": 242, "telemetry_seq": 127, "t_rx_ms": 1774598856835, "dt_ms": 49, "doa_deg": 6.0, "confidence_0_1": 0.2120700200342318, "lat_deg": 34.00631093041293, "lon_deg": -117.99314325946322, "altitude_rel_ft": 48.0528, "yaw_deg": 134.6541, "pitch_deg": 8.8191, "roll_deg": 14.2486, "ground_speed_ft_s": 16.8088, "vel_north_m_s": -9.6966, "vel_east_m_s": 6.2829, "vel_down_m_s": 0.7598, "usable_for_triangulation": false}
{"run_id": "SIM_TEST", "kraken_seq": 243, "telemetry_seq": 128, "t_rx_ms": 1774598856937, "dt_ms": 48, "doa_deg": 155.0, "confidence_0_1": 0.48105338124879715, "lat_deg": 34.00327714597316, "lon_deg": -117.99434995533721, "altitude_rel_ft": 32.8657, "yaw_deg": 240.7932, "pitch_deg": -9.1429, "roll_deg": -4.7706, "ground_speed_ft_s": 6.9763, "vel_north_m_s": 0.3839, "vel_east_m_s": 0.8097, "vel_down_m_s": -0.9948, "usable_for_triangulation": false}
{"run_id": "SIM_TEST", "kraken_seq": 244, "telemetry_seq": 129, "t_rx_ms": 1774598857038, "dt_ms": 48, "doa_deg": 124.0, "confidence_0_1": 0.6642703617337977, "lat_deg": 34.004619299606794, "lon_deg": -118.00562186784765, "altitude_rel_ft": 50.2267, "yaw_deg": 295.461, "pitch_deg": -8.6229, "roll_deg": -1.2236, "ground_speed_ft_s": 54.8038, "vel_north_m_s": 9.9087, "vel_east_m_s": -3.8061, "vel_down_m_s": -0.5914, "usable_for_triangulation": true}
{"run_id": "SIM_TEST", "kraken_seq": 245, "telemetry_seq": 130, "t_rx_ms": 1774598857139, "dt_ms": 48, "doa_deg": 173.0, "confidence_0_1": 0.24669139012707098, "lat_deg": 33.99732514872643, "lon_deg": -118.00437033744943, "altitude_rel_ft": 78.1341, "yaw_deg": 302.6818, "pitch_deg": 9.0839, "roll_deg": -8.1357, "ground_speed_ft_s": 28.815, "vel_north_m_s": 3.5456, "vel_east_m_s": 7.5462, "vel_down_m_s": 0.196, "usable_for_triangulation": false}
