{"run_id": "SIM_TEST", "kraken_seq": 75, "telemetry_seq": 0, "t_rx_ms": 1774641665933, "dt_ms": 205, "doa_deg": 332.0, "confidence_0_1": 0.17476482286822292, "lat_deg": 33.99427133067997, "lon_deg": -118.00476056882046, "altitude_rel_ft": 56.771, "yaw_deg": 263.9713, "pitch_deg": 7.1448, "roll_deg": -8.002, "ground_speed_ft_s": 15.0047, "vel_north_m_s": 7.451, "vel_east_m_s": 7.853, "vel_down_m_s": -0.7575, "usable_for_triangulation": false}
{"run_id": "SIM_TEST", "kraken_seq": 76, "telemetry_seq": 0, "t_rx_ms": 1774641666034, "dt_ms": 104, "doa_deg": 46.0, "confidence_0_1": 0.8660220702728718, "lat_deg": 33.99427133067997, "lon_deg": -118.00476056882046, "altitude_rel_ft": 56.771, "yaw_deg": 263.9713, "pitch_deg": 7.1448, "roll_deg": -8.002, "ground_speed_ft_s": 15.0047, "vel_north_m_s": 7.451, "vel_east_m_s": 7.853, "vel_down_m_s": -0.7575, "usable_for_triangulation": true}
{"run_id": "SIM_TEST", "kraken_seq": 77, "telemetry_seq": 0, "t_rx_ms": 1774641666135, "dt_ms": 3, "doa_deg": 205.0, "confidence_0_1": 0.44522275695380875, "lat_deg": 33.99427133067997, "lon_deg": -118.00476056882046, "altitude_rel_ft": 56.771, "yaw_deg": 263.9713, "pitch_deg": 7.1448, "roll_deg": -8.002, "ground_speed_ft_s": 15.0047, "vel_north_m_s": 7.451, "vel_east_m_s": 7.853, "vel_down_m_s": -0.7575, "usable_for_triangulation": false}
{"run_id": "SIM_TEST", "kraken_seq": 78, "telemetry_seq": 1, "t_rx_ms": 1774641666235, "dt_ms": 4, "doa_deg": 84.0, "confidence_0_1": 0.5400169636718348, "lat_deg": 33.99672994061427, "lon_deg": -117.99167505929371, "altitude_rel_ft": 49.9746, "yaw_deg": 154.7821, "pitch_deg": -5.6199, "roll_deg": 11.397, "ground_speed_ft_s": 17.0097, "vel_north_m_s": 6.9565, "vel_east_m_s": -2.7984, "vel_down_m_s": 0.4976, "usable_for_triangulation": true}
{"run_id": "SIM_TEST", "kraken_seq": 79, "telemetry_seq": 2, "t_rx_ms": 1774641666336, "dt_ms": 7, "doa_deg": 143.0, "confidence_0_1": 0.9495393803660677, "lat_deg": 33.99662364291946, "lon_deg": -118.0048964697181, "altitude_rel_ft": 55.4258, "yaw_deg": 256.1486, "pitch_deg": 0.6778, "roll_deg": -0.5094, "ground_speed_ft_s": 23.6055, "vel_north_m_s": -6.1746, "vel_east_m_s": 4.1847, "vel_down_m_s": 0.9583, "usable_for_triangulation": true}
{"run_id": "SIM_TEST", "kraken_seq": 80, "telemetry_seq": 3, "t_rx_ms": 1774641666437, "dt_ms": 7, "doa_deg": 213.0, "confidence_0_1": 0.33942407468761115, "lat_deg": 33.996821392809835, "lon_deg": -117.99648298333659, "altitude_rel_ft": 30.1219, "yaw_deg": 338.5342, "pitch_deg": 4.292, "roll_deg": -4.3877, "ground_speed_ft_s": 22.5117, "vel_north_m_s": 5.3457, "vel_east_m_s": -1.6139, "vel_down_m_s": -0.5539, "usable_for_triangulation": false}
{"run_id": "SIM_TEST", "kraken_seq": 81, "telemetry_seq": 4, "t_rx_ms": 1774641666537, "dt_ms": 7, "doa_deg": 40.0, "confidence_0_1": 0.9799871048856644, "lat_deg": 33.99262169107988, "lon_deg": -117.99464862115678, "altitude_rel_ft": 31.9204, "yaw_deg": 341.9396, "pitch_deg": -8.1906, "roll_deg": 9.7847, "ground_speed_ft_s": 21.8063, "vel_north_m_s": -9.8657, "vel_east_m_s": 7.9341, "vel_down_m_s": 0.3316, "usable_for_triangulation": true}
{"run_id": "SIM_TEST", "kraken_seq": 82, "telemetry_seq": 5, "t_rx_ms": 1774641666638, "dt_ms": 7, "doa_deg": 185.0, "confidence_0_1": 0.3644836879121097, "lat_deg": 34.00965491084531, "lon_deg": -117.99612700797667, "altitude_rel_ft": 50.443, "yaw_deg": 88.9472, "pitch_deg": -4.6027, "roll_deg": 8.64, "ground_speed_ft_s": 56.4244, "vel_north_m_s": -4.0898, "vel_east_m_s": -4.7418, "vel_down_m_s": 0.5586, "usable_for_triangulation": false}
{"run_id": "SIM_TEST", "kraken_seq": 83, "telemetry_seq": 6, "t_rx_ms": 1774641666738, "dt_ms": 7, "doa_deg": 200.0, "confidence_0_1": 0.5203052028259724, "lat_deg": 34.0045027137082, "lon_deg": -117.99224540241663, "altitude_rel_ft": 68.2028, "yaw_deg": 183.411, "pitch_deg": 3.1041, "roll_deg": -3.0686, "ground_speed_ft_s": 31.9128, "vel_north_m_s": 2.7061, "vel_east_m_s": 7.4242, "vel_down_m_s": -0.3182, "usable_for_triangulation": true}
{"run_id": "SIM_TEST", "kraken_seq": 84, "telemetry_seq": 7, "t_rx_ms": 1774641666839, "dt_ms": 7, "doa_deg": 299.0, "confidence_0_1": 0.8675713667608045, "lat_deg": 33.992676930509724, "lon_deg": -117.99038995386611, "altitude_rel_ft": 53.1808, "yaw_deg": 164.0774, "pitch_deg": -8.9672, "roll_deg": -10.7795, "ground_speed_ft_s": 22.7482, "vel_north_m_s": 6.5764, "vel_east_m_s": 0.7369, "vel_down_m_s": 0.2262, "usable_for_triangulation": true}
{"run_id": "SIM_TEST", "kraken_seq": 85, "telemetry_seq": 8, "t_rx_ms": 1774641666939, "dt_ms": 8, "doa_deg": 249.0, "confidence_0_1": 0.8897532199105853, "lat_deg": 34.006659131952915, "lon_deg": -118.00305569020726, "altitude_rel_ft": 66.5133, "yaw_deg": 214.9927, "pitch_deg": 5.8526, "roll_deg": -7.3556, "ground_speed_ft_s": 56.5273, "vel_north_m_s": -4.5631, "vel_east_m_s": 9.4465, "vel_down_m_s": -0.3022, "usable_for_triangulation": true}
{"run_id": "SIM_TEST", "kraken_seq": 86, "telemetry_seq": 9, "t_rx_ms": 1774641667040, "dt_ms": 7, "doa_deg": 274.0, "confidence_0_1": 0.6560785980735951, "lat_deg": 33.99175194762876, "lon_deg": -117.99401981402238, "altitude_rel_ft": 85.1016, "yaw_deg": 212.299, "pitch_deg": -9.515, "roll_deg": -2.8229, "ground_speed_ft_s": 8.9492, "vel_north_m_s": -2.7298, "vel_east_m_s": 0.1895, "vel_down_m_s": -0.622, "usable_for_triangulation": true}
{"run_id": "SIM_TEST", "kraken_seq": 87, "telemetry_seq": 10, "t_rx_ms": 1774641667140, "dt_ms": 8, "doa_deg": 76.0, "confidence_0_1": 0.3947953817281944, "lat_deg": 33.999186861101556, "lon_deg": -117.99984938448533, "altitude_rel_ft": 88.8026, "yaw_deg": 305.2895, "pitch_deg": 4.2382, "roll_deg": -9.6177, "ground_speed_ft_s": 35.5912, "vel_north_m_s": 5.5279, "vel_east_m_s": -4.6675, "vel_down_m_s": -0.2269, "usable_for_triangulation": false}
{"run_id": "SIM_TEST", "kraken_seq": 88, "telemetry_seq": 11, "t_rx_ms": 1774641667240, "dt_ms": 8, "doa_deg": 111.0, "confidence_0_1": 0.12311183858752284, "lat_deg": 33.9924310402719, "lon_deg": -117.99719937389067, "altitude_rel_ft": 87.0378, "yaw_deg": 124.2477, "pitch_deg": 1.0032, "roll_deg": -5.061, "ground_speed_ft_s": 46.2822, "vel_north_m_s": -1.0471, "vel_east_m_s": 3.469, "vel_down_m_s": 0.781, "usable_for_triangulation": false}
{"run_id": "SIM_TEST", "kraken_seq": 89, "telemetry_seq": 12, "t_rx_ms": 1774641667341, "dt_ms": 8, "doa_deg": 17.0, "confidence_0_1": 0.08492969682994345, "lat_deg": 33.9998381801421, "lon_deg": -117.99009545536902, "altitude_rel_ft": 51.7193, "yaw_deg": 201.368, "pitch_deg": -1.421, "roll_deg": 14.6041, "ground_speed_ft_s": 51.6399, "vel_north_m_s": 0.8338, "vel_east_m_s": -6.9233, "vel_down_m_s": 0.5372, "usable_for_triangulation": false}
{"run_id": "SIM_TEST", "kraken_seq": 90, "telemetry_seq": 13, "t_rx_ms": 1774641667442, "dt_ms": 7, "doa_deg": 218.0, "confidence_0_1": 0.11213566059262636, "lat_deg": 34.00789502074705, "lon_deg": -117.9905217676991, "altitude_rel_ft": 35.8338, "yaw_deg": 322.8174, "pitch_deg": -6.5412, "roll_deg": 8.7914, "ground_speed_ft_s": 27.0813, "vel_north_m_s": -8.9319, "vel_east_m_s": 3.6718, "vel_down_m_s": 0.8805, "usable_for_triangulation": false}
{"run_id": "SIM_TEST", "kraken_seq": 91, "telemetry_seq": 14, "t_rx_ms": 1774641667542, "dt_ms": 7, "doa_deg": 187.0, "confidence_0_1": 0.7028633409973128, "lat_deg": 33.9921918891503, "lon_deg": -118.00153465335447, "altitude_rel_ft": 21.2414, "yaw_deg": 149.0415, "pitch_deg": 8.5327, "roll_deg": -0.314, "ground_speed_ft_s": 40.7116, "vel_north_m_s": 9.5245, "vel_east_m_s": -1.4403, "vel_down_m_s": -0.3603, "usable_for_triangulation": true}
{"run_id": "SIM_TEST", "kraken_seq": 92, "telemetry_seq": 15, "t_rx_ms": 1774641667642, "dt_ms": 8, "doa_deg": 135.0, "confidence_0_1": 0.2382637828838866, "lat_deg": 33.99737018342219, "lon_deg": -118.00365235338786, "altitude_rel_ft": 51.8152, "yaw_deg": 154.8196, "pitch_deg": 2.6936, "roll_deg": 8.7744, "ground_speed_ft_s": 8.3206, "vel_north_m_s": 2.6445, "vel_east_m_s": 0.0505, "vel_down_m_s": 0.0367, "usable_for_triangulation": false}
{"run_id": "SIM_TEST", "kraken_seq": 93, "telemetry_seq": 16, "t_rx_ms": 1774641667743, "dt_ms": 7, "doa_deg": 343.0, "confidence_0_1": 0.13298559138772037, "lat_deg": 33.99897030276897, "lon_deg": -118.00156089649482, "altitude_rel_ft": 28.6836, "yaw_deg": 132.5854, "pitch_deg": -3.9405, "roll_deg": 2.6039, "ground_speed_ft_s": 46.5018, "vel_north_m_s": -0.3557, "vel_east_m_s": 7.7487, "vel_down_m_s": 0.3246, "usable_for_triangulation": false}
{"run_id": "SIM_TEST", "kraken_seq": 94, "telemetry_seq": 17, "t_rx_ms": 1774641667844, "dt_ms": 7, "doa_deg": 63.0, "confidence_0_1": 0.21501476702735056, "lat_deg": 33.99816936018765, "lon_deg": -117.99532010624459, "altitude_rel_ft": 72.3677, "yaw_deg": 208.6186, "pitch_deg": 4.9908, "roll_deg": -4.1852, "ground_speed_ft_s": 35.3999, "vel_north_m_s": 0.0629, "vel_east_m_s": -9.284, "vel_down_m_s": -0.581, "usable_for_triangulation": false}
{"run_id": "SIM_TEST", "kraken_seq": 95, "telemetry_seq": 18, "t_rx_ms": 1774641667945, "dt_ms": 7, "doa_deg": 137.0, "confidence_0_1": 0.24277329811753678, "lat_deg": 34.0032939679345, "lon_deg": -117.99778665480216, "altitude_rel_ft": 89.6009, "yaw_deg": 269.2812, "pitch_deg": 6.3222, "roll_deg": -0.7209, "ground_speed_ft_s": 48.6251, "vel_north_m_s": 5.756, "vel_east_m_s": 8.8263, "vel_down_m_s": 0.3067, "usable_for_triangulation": false}
{"run_id": "SIM_TEST", "kraken_seq": 96, "telemetry_seq": 19, "t_rx_ms": 1774641668045, "dt_ms": 7, "doa_deg": 252.0, "confidence_0_1": 0.3568237106468338, "lat_deg": 33.99929364503739, "lon_deg": -118.0099732766702, "altitude_rel_ft": 94.9023, "yaw_deg": 206.9428, "pitch_deg": -1.6116, "roll_deg": 10.2769, "ground_speed_ft_s": 46.9179, "vel_north_m_s": -5.5174, "vel_east_m_s": 7.2688, "vel_down_m_s": 0.0884, "usable_for_triangulation": false}
{"run_id": "SIM_TEST", "kraken_seq": 97, "telemetry_seq": 20, "t_rx_ms": 1774641668146, "dt_ms": 7, "doa_deg": 236.0, "confidence_0_1": 0.35254060346545046, "lat_deg": 33.99542641971191, "lon_deg": -118.00827482572191, "altitude_rel_ft": 34.2635, "yaw_deg": 343.0249, "pitch_deg": -1.9423, "roll_deg": 1.9513, "ground_speed_ft_s": 16.113, "vel_north_m_s": 9.8036, "vel_east_m_s": 9.8743, "vel_down_m_s": -0.8898, "usable_for_triangulation": false}
{"run_id": "SIM_TEST", "kraken_seq": 98, "telemetry_seq": 21, "t_rx_ms": 1774641668246, "dt_ms": 7, "doa_deg": 189.0, "confidence_0_1": 0.9566234176357971, "lat_deg": 33.99269663550488, "lon_deg": -117.99653719659648, "altitude_rel_ft": 33.6938, "yaw_deg": 242.3423, "pitch_deg": -6.2794, "roll_deg": -3.0868, "ground_speed_ft_s": 33.4844, "vel_north_m_s": -4.9225, "vel_east_m_s": 7.9719, "vel_down_m_s": 0.3441, "usable_for_triangulation": true}
{"run_id": "SIM_TEST", "kraken_seq": 99, "telemetry_seq": 22, "t_rx_ms": 1774641668347, "dt_ms": 7, "doa_deg": 305.0, "confidence_0_1": 0.9016317603769016, "lat_deg": 34.00982265421783, "lon_deg": -117.99412732345576, "altitude_rel_ft": 31.9531, "yaw_deg": 262.0881, "pitch_deg": 1.258, "roll_deg": -6.0196, "ground_speed_ft_s": 57.8857, "vel_north_m_s": 4.6617, "vel_east_m_s": -6.0303, "vel_down_m_s": 0.4744, "usable_for_triangulation": true}
{"run_id": "SIM_TEST", "kraken_seq": 100, "telemetry_seq": 23, "t_rx_ms": 1774641668448, "dt_ms": 7, "doa_deg": 149.0, "confidence_0_1": 0.2056320420850628, "lat_deg": 33.99737522668374, "lon_deg": -118.00583687175303, "altitude_rel_ft": 74.0029, "yaw_deg": 349.3683, "pitch_deg": 5.4855, "roll_deg": -3.5808, "ground_speed_ft_s": 9.7513, "vel_north_m_s": 0.4638, "vel_east_m_s": 7.4187, "vel_down_m_s": -0.6488, "usable_for_triangulation": false}
{"run_id": "SIM_TEST", "kraken_seq": 101, "telemetry_seq": 24, "t_rx_ms": 1774641668548, "dt_ms": 7, "doa_deg": 34.0, "confidence_0_1": 0.6831855012897878, "lat_deg": 34.000360869796026, "lon_deg": -117.99332268363509, "altitude_rel_ft": 87.6185, "yaw_deg": 45.365, "pitch_deg": 8.3255, "roll_deg": 3.7584, "ground_speed_ft_s": 19.3385, "vel_north_m_s": -6.3968, "vel_east_m_s": 1.3255, "vel_down_m_s": -0.5677, "usable_for_triangulation": true}
{"run_id": "SIM_TEST", "kraken_seq": 102, "telemetry_seq": 25, "t_rx_ms": 1774641668649, "dt_ms": 7, "doa_deg": 222.0, "confidence_0_1": 0.4916798895171992, "lat_deg": 33.99874922015215, "lon_deg": -118.00584712815653, "altitude_rel_ft": 78.5399, "yaw_deg": 37.5678, "pitch_deg": 7.0981, "roll_deg": -10.6325, "ground_speed_ft_s": 40.5975, "vel_north_m_s": 4.9203, "vel_east_m_s": -3.3259, "vel_down_m_s": 0.552, "usable_for_triangulation": false}
{"run_id": "SIM_TEST", "kraken_seq": 103, "telemetry_seq": 26, "t_rx_ms": 1774641668750, "dt_ms": 7, "doa_deg": 234.0, "confidence_0_1": 0.24927323266293322, "lat_deg": 34.005886214168, "lon_deg": -118.00990006468774, "altitude_rel_ft": 25.0312, "yaw_deg": 321.2639, "pitch_deg": -9.5668, "roll_deg": -0.1481, "ground_speed_ft_s": 33.5427, "vel_north_m_s": -1.7906, "vel_east_m_s": -1.0297, "vel_down_m_s": -0.1687, "usable_for_triangulation": false}
{"run_id": "SIM_TEST", "kraken_seq": 104, "telemetry_seq": 27, "t_rx_ms": 1774641668851, "dt_ms": 7, "doa_deg": 341.0, "confidence_0_1": 0.7628793694551611, "lat_deg": 33.99584674731032, "lon_deg": -118.00094028693124, "altitude_rel_ft": 30.0025, "yaw_deg": 173.6429, "pitch_deg": 1.0177, "roll_deg": -5.6564, "ground_speed_ft_s": 6.0242, "vel_north_m_s": -4.0564, "vel_east_m_s": -2.4847, "vel_down_m_s": 0.7641, "usable_for_triangulation": true}
{"run_id": "SIM_TEST", "kraken_seq": 105, "telemetry_seq": 28, "t_rx_ms": 1774641668951, "dt_ms": 7, "doa_deg": 251.0, "confidence_0_1": 0.559837484235985, "lat_deg": 34.0095208574813, "lon_deg": -117.99200238456912, "altitude_rel_ft": 35.2753, "yaw_deg": 64.8015, "pitch_deg": 9.1793, "roll_deg": 12.4636, "ground_speed_ft_s": 44.6055, "vel_north_m_s": 7.8192, "vel_east_m_s": 0.4473, "vel_down_m_s": -0.8327, "usable_for_triangulation": true}
{"run_id": "SIM_TEST", "kraken_seq": 106, "telemetry_seq": 29, "t_rx_ms": 1774641669051, "dt_ms": 8, "doa_deg": 234.0, "confidence_0_1": 0.6151722116262708, "lat_deg": 34.007987953421775, "lon_deg": -117.99986560102627, "altitude_rel_ft": 34.6839, "yaw_deg": 253.224, "pitch_deg": -8.4864, "roll_deg": 2.4858, "ground_speed_ft_s": 10.4349, "vel_north_m_s": -5.6357, "vel_east_m_s": -9.5347, "vel_down_m_s": -0.1363, "usable_for_triangulation": true}
{"run_id": "SIM_TEST", "kraken_seq": 107, "telemetry_seq": 30, "t_rx_ms": 1774641669152, "dt_ms": 8, "doa_deg": 204.0, "confidence_0_1": 0.7577720548247842, "lat_deg": 34.009033786761734, "lon_deg": -117.99909507148293, "altitude_rel_ft": 80.8849, "yaw_deg": 321.2196, "pitch_deg": -5.1999, "roll_deg": 1.1948, "ground_speed_ft_s": 50.4978, "vel_north_m_s": -4.3927, "vel_east_m_s": 0.7792, "vel_down_m_s": -0.0413, "usable_for_triangulation": true}
{"run_id": "SIM_TEST", "kraken_seq": 108, "telemetry_seq": 31, "t_rx_ms": 1774641669252, "dt_ms": 8, "doa_deg": 209.0, "confidence_0_1": 0.2180655421730534, "lat_deg": 33.99667472361708, "lon_deg": -117.99482148125725, "altitude_rel_ft": 39.4017, "yaw_deg": 119.9808, "pitch_deg": 7.6883, "roll_deg": -12.0443, "ground_speed_ft_s": 23.4084, "vel_north_m_s": -0.3173, "vel_east_m_s": -8.1149, "vel_down_m_s": -0.1181, "usable_for_triangulation": false}
{"run_id": "SIM_TEST", "kraken_seq": 109, "telemetry_seq": 32, "t_rx_ms": 1774641669352, "dt_ms": 9, "doa_deg": 269.0, "confidence_0_1": 0.47751786717240985, "lat_deg": 33.99680787729665, "lon_deg": -118.00625968774774, "altitude_rel_ft": 31.9529, "yaw_deg": 227.667, "pitch_deg": -1.7873, "roll_deg": 7.8858, "ground_speed_ft_s": 35.6501, "vel_north_m_s": 9.1049, "vel_east_m_s": -2.7616, "vel_down_m_s": -0.3663, "usable_for_triangulation": false}
{"run_id": "SIM_TEST", "kraken_seq": 110, "telemetry_seq": 33, "t_rx_ms": 1774641669453, "dt_ms": 9, "doa_deg": 266.0, "confidence_0_1": 0.005899740953824728, "lat_deg": 33.99977439697226, "lon_deg": -117.99028287067824, "altitude_rel_ft": 84.0308, "yaw_deg": 2.7458, "pitch_deg": 6.3485, "roll_deg": 11.025, "ground_speed_ft_s": 48.7179, "vel_north_m_s": 8.2531, "vel_east_m_s": 9.4937, "vel_down_m_s": 0.8917, "usable_for_triangulation": false}
{"run_id": "SIM_TEST", "kraken_seq": 111, "telemetry_seq": 34, "t_rx_ms": 1774641669553, "dt_ms": 9, "doa_deg": 6.0, "confidence_0_1": 0.11942405643779785, "lat_deg": 33.999768030006656, "lon_deg": -118.00936563234619, "altitude_rel_ft": 70.7772, "yaw_deg": 23.7169, "pitch_deg": -0.0972, "roll_deg": -8.1936, "ground_speed_ft_s": 10.2516, "vel_north_m_s": 0.7891, "vel_east_m_s": -4.1154, "vel_down_m_s": 0.7134, "usable_for_triangulation": false}
{"run_id": "SIM_TEST", "kraken_seq": 112, "telemetry_seq": 35, "t_rx_ms": 1774641669654, "dt_ms": 9, "doa_deg": 340.0, "confidence_0_1": 0.18775531218386843, "lat_deg": 33.999562740037945, "lon_deg": -117.99588103378086, "altitude_rel_ft": 48.7157, "yaw_deg": 331.7324, "pitch_deg": 2.7523, "roll_deg": -5.3217, "ground_speed_ft_s": 34.8387, "vel_north_m_s": 3.6332, "vel_east_m_s": 5.6043, "vel_down_m_s": 0.5951, "usable_for_triangulation": false}
{"run_id": "SIM_TEST", "kraken_seq": 113, "telemetry_seq": 36, "t_rx_ms": 1774641669754, "dt_ms": 10, "doa_deg": 39.0, "confidence_0_1": 0.22238189142043507, "lat_deg": 34.009756710019424, "lon_deg": -117.99660219779948, "altitude_rel_ft": 90.1125, "yaw_deg": 95.5154, "pitch_deg": 2.3287, "roll_deg": -8.0615, "ground_speed_ft_s": 42.6386, "vel_north_m_s": 6.6127, "vel_east_m_s": 0.016, "vel_down_m_s": -0.1385, "usable_for_triangulation": false}
{"run_id": "SIM_TEST", "kraken_seq": 114, "telemetry_seq": 37, "t_rx_ms": 1774641669855, "dt_ms": 10, "doa_deg": 128.0, "confidence_0_1": 0.06063393810957707, "lat_deg": 34.00168221924178, "lon_deg": -117.99764100537047, "altitude_rel_ft": 26.8892, "yaw_deg": 256.5337, "pitch_deg": 2.5648, "roll_deg": 7.8952, "ground_speed_ft_s": 12.6363, "vel_north_m_s": 6.5677, "vel_east_m_s": -7.3827, "vel_down_m_s": -0.5447, "usable_for_triangulation": false}
{"run_id": "SIM_TEST", "kraken_seq": 115, "telemetry_seq": 38, "t_rx_ms": 1774641669955, "dt_ms": 10, "doa_deg": 70.0, "confidence_0_1": 0.9605796124775832, "lat_deg": 34.00950776972219, "lon_deg": -117.99040104911585, "altitude_rel_ft": 45.6753, "yaw_deg": 237.3312, "pitch_deg": -2.2814, "roll_deg": -13.9576, "ground_speed_ft_s": 40.3822, "vel_north_m_s": -7.4645, "vel_east_m_s": 5.536, "vel_down_m_s": 0.8244, "usable_for_triangulation": true}
{"run_id": "SIM_TEST", "kraken_seq": 116, "telemetry_seq": 39, "t_rx_ms": 1774641670055, "dt_ms": 11, "doa_deg": 285.0, "confidence_0_1": 0.23929696790581279, "lat_deg": 33.99215465716025, "lon_deg": -117.99666386135038, "altitude_rel_ft": 71.1454, "yaw_deg": 170.1939, "pitch_deg": -3.3454, "roll_deg": 8.3098, "ground_speed_ft_s": 50.2749, "vel_north_m_s": -5.225, "vel_east_m_s": 7.4496, "vel_down_m_s": -0.2722, "usable_for_triangulation": false}
{"run_id": "SIM_TEST", "kraken_seq": 117, "telemetry_seq": 40, "t_rx_ms": 1774641670156, "dt_ms": 10, "doa_deg": 107.0, "confidence_0_1": 0.09678674089547101, "lat_deg": 33.999612154132, "lon_deg": -117.99753622221908, "altitude_rel_ft": 67.5818, "yaw_deg": 45.3409, "pitch_deg": -2.5061, "roll_deg": 11.8747, "ground_speed_ft_s": 10.4277, "vel_north_m_s": -8.3908, "vel_east_m_s": -2.0527, "vel_down_m_s": 0.6809, "usable_for_triangulation": false}
{"run_id": "SIM_TEST", "kraken_seq": 118, "telemetry_seq": 41, "t_rx_ms": 1774641670256, "dt_ms": 10, "doa_deg": 80.0, "confidence_0_1": 0.9093570030695987, "lat_deg": 34.00452332659426, "lon_deg": -117.99739765257507, "altitude_rel_ft": 59.8994, "yaw_deg": 295.9808, "pitch_deg": -2.3442, "roll_deg": 9.0631, "ground_speed_ft_s": 54.0867, "vel_north_m_s": 8.9685, "vel_east_m_s": -7.2009, "vel_down_m_s": 0.6499, "usable_for_triangulation": true}
{"run_id": "SIM_TEST", "kraken_seq": 119, "telemetry_seq": 42, "t_rx_ms": 1774641670357, "dt_ms": 10, "doa_deg": 266.0, "confidence_0_1": 0.3602215457033241, "lat_deg": 33.991189952906105, "lon_deg": -117.99076686760867, "altitude_rel_ft": 65.9364, "yaw_deg": 285.9117, "pitch_deg": 8.5867, "roll_deg": -14.6509, "ground_speed_ft_s": 34.5454, "vel_north_m_s": -1.3037, "vel_east_m_s": -5.3089, "vel_down_m_s": 0.828, "usable_for_triangulation": false}
{"run_id": "SIM_TEST", "kraken_seq": 120, "telemetry_seq": 43, "t_rx_ms": 1774641670458, "dt_ms": 9, "doa_deg": 190.0, "confidence_0_1": 0.23440180602770067, "lat_deg": 33.990645982348425, "lon_deg": -117.99070615233904, "altitude_rel_ft": 20.177, "yaw_deg": 196.9238, "pitch_deg": 2.3061, "roll_deg": -4.9981, "ground_speed_ft_s": 37.4699, "vel_north_m_s": -1.9078, "vel_east_m_s": -7.8805, "vel_down_m_s": 0.7493, "usable_for_triangulation": false}
{"run_id": "SIM_TEST", "kraken_seq": 121, "telemetry_seq": 44, "t_rx_ms": 1774641670558, "dt_ms": 9, "doa_deg": 264.0, "confidence_0_1": 0.12874236295050723, "lat_deg": 34.000055096430884, "lon_deg": -117.99295220147222, "altitude_rel_ft": 96.6601, "yaw_deg": 285.1672, "pitch_deg": -8.1056, "roll_deg": 9.8169, "ground_speed_ft_s": 32.5904, "vel_north_m_s": -1.2661, "vel_east_m_s": -3.3751, "vel_down_m_s": -0.5387, "usable_for_triangulation": false}
{"run_id": "SIM_TEST", "kraken_seq": 122, "telemetry_seq": 45, "t_rx_ms": 1774641670659, "dt_ms": 9, "doa_deg": 302.0, "confidence_0_1": 0.8640745722270082, "lat_deg": 34.00355461422163, "lon_deg": -117.99908145874814, "altitude_rel_ft": 34.4636, "yaw_deg": 161.8517, "pitch_deg": -5.126, "roll_deg": -13.7042, "ground_speed_ft_s": 18.6199, "vel_north_m_s": -1.0101, "vel_east_m_s": 1.1202, "vel_down_m_s": 0.0328, "usable_for_triangulation": true}
{"run_id": "SIM_TEST", "kraken_seq": 123, "telemetry_seq": 46, "t_rx_ms": 1774641670760, "dt_ms": 9, "doa_deg": 18.0, "confidence_0_1": 0.959969548931172, "lat_deg": 33.99696358361252, "lon_deg": -117.99239127578169, "altitude_rel_ft": 31.4847, "yaw_deg": 327.151, "pitch_deg": 0.465, "roll_deg": -4.4422, "ground_speed_ft_s": 25.4196, "vel_north_m_s": -5.2077, "vel_east_m_s": 8.3961, "vel_down_m_s": 0.3454, "usable_for_triangulation": true}
{"run_id": "SIM_TEST", "kraken_seq": 124, "telemetry_seq": 47, "t_rx_ms": 1774641670861, "dt_ms": 8, "doa_deg": 314.0, "confidence_0_1": 0.6840496842123821, "lat_deg": 33.99588974049882, "lon_deg": -117.9934943197128, "altitude_rel_ft": 99.0654, "yaw_deg": 10.4219, "pitch_deg": 5.5509, "roll_deg": -9.5639, "ground_speed_ft_s": 46.1591, "vel_north_m_s": 0.315, "vel_east_m_s": 6.9339, "vel_down_m_s": -0.7803, "usable_for_triangulation": true}
{"run_id": "SIM_TEST", "kraken_seq": 125, "telemetry_seq": 48, "t_rx_ms": 1774641670961, "dt_ms": 9, "doa_deg": 290.0, "confidence_0_1": 0.3337891086200243, "lat_deg": 34.00367610822488, "lon_deg": -117.99842938684777, "altitude_rel_ft": 53.2733, "yaw_deg": 295.8728, "pitch_deg": 5.9085, "roll_deg": 8.8705, "ground_speed_ft_s": 39.7618, "vel_north_m_s": 3.3253, "vel_east_m_s": -6.8783, "vel_down_m_s": -0.038, "usable_for_triangulation": false}
{"run_id": "SIM_TEST", "kraken_seq": 126, "telemetry_seq": 49, "t_rx_ms": 1774641671062, "dt_ms": 8, "doa_deg": 333.0, "confidence_0_1": 0.695000487111551, "lat_deg": 34.00419582406965, "lon_deg": -117.99903268918577, "altitude_rel_ft": 53.3559, "yaw_deg": 74.2803, "pitch_deg": -3.5803, "roll_deg": 12.0345, "ground_speed_ft_s": 56.8713, "vel_north_m_s": 7.1331, "vel_east_m_s": 3.1124, "vel_down_m_s": 0.0408, "usable_for_triangulation": true}
{"run_id": "SIM_TEST", "kraken_seq": 127, "telemetry_seq": 50, "t_rx_ms": 1774641671162, "dt_ms": 9, "doa_deg": 16.0, "confidence_0_1": 0.047683604797302936, "lat_deg": 33.99906015763208, "lon_deg": -118.00356891652567, "altitude_rel_ft": 48.7873, "yaw_deg": 221.8911, "pitch_deg": -1.5965, "roll_deg": -3.5847, "ground_speed_ft_s": 20.95, "vel_north_m_s": -7.3591, "vel_east_m_s": -3.6555, "vel_down_m_s": -0.8707, "usable_for_triangulation": false}
{"run_id": "SIM_TEST", "kraken_seq": 128, "telemetry_seq": 51, "t_rx_ms": 1774641671263, "dt_ms": 9, "doa_deg": 188.0, "confidence_0_1": 0.5153238976409973, "lat_deg": 33.993678676823365, "lon_deg": -118.00957644222203, "altitude_rel_ft": 35.8844, "yaw_deg": 106.5207, "pitch_deg": -3.4224, "roll_deg": 3.3665, "ground_speed_ft_s": 35.218, "vel_north_m_s": -6.7315, "vel_east_m_s": -6.6832, "vel_down_m_s": 0.3307, "usable_for_triangulation": true}
{"run_id": "SIM_TEST", "kraken_seq": 129, "telemetry_seq": 52, "t_rx_ms": 1774641671363, "dt_ms": 9, "doa_deg": 211.0, "confidence_0_1": 0.23770465701530308, "lat_deg": 34.00379996584343, "lon_deg": -118.00655731602487, "altitude_rel_ft": 45.2424, "yaw_deg": 346.5886, "pitch_deg": 4.2508, "roll_deg": 1.7999, "ground_speed_ft_s": 7.1682, "vel_north_m_s": -4.2581, "vel_east_m_s": 5.5791, "vel_down_m_s": 0.7723, "usable_for_triangulation": false}
{"run_id": "SIM_TEST", "kraken_seq": 130, "telemetry_seq": 53, "t_rx_ms": 1774641671464, "dt_ms": 10, "doa_deg": 229.0, "confidence_0_1": 0.32134271148412585, "lat_deg": 34.005163376681736, "lon_deg": -117.99614921117215, "altitude_rel_ft": 86.3533, "yaw_deg": 55.4595, "pitch_deg": 6.4076, "roll_deg": -13.3079, "ground_speed_ft_s": 39.7067, "vel_north_m_s": -2.4804, "vel_east_m_s": -9.9112, "vel_down_m_s": 0.9371, "usable_for_triangulation": false}
{"run_id": "SIM_TEST", "kraken_seq": 131, "telemetry_seq": 54, "t_rx_ms": 1774641671564, "dt_ms": 10, "doa_deg": 291.0, "confidence_0_1": 0.5019701160875326, "lat_deg": 33.999240429878164, "lon_deg": -118.00649204137173, "altitude_rel_ft": 38.0521, "yaw_deg": 270.2439, "pitch_deg": -0.679, "roll_deg": -0.4171, "ground_speed_ft_s": 40.8898, "vel_north_m_s": 6.7517, "vel_east_m_s": 5.1975, "vel_down_m_s": 0.2253, "usable_for_triangulation": true}
{"run_id": "SIM_TEST", "kraken_seq": 132, "telemetry_seq": 55, "t_rx_ms": 1774641671665, "dt_ms": 10, "doa_deg": 73.0, "confidence_0_1": 0.13338280480303744, "lat_deg": 33.992450280700645, "lon_deg": -118.0006720802338, "altitude_rel_ft": 83.8583, "yaw_deg": 61.5191, "pitch_deg": 0.3876, "roll_deg": 11.3589, "ground_speed_ft_s": 56.4669, "vel_north_m_s": -5.5909, "vel_east_m_s": 4.4094, "vel_down_m_s": 0.3523, "usable_for_triangulation": false}
{"run_id": "SIM_TEST", "kraken_seq": 133, "telemetry_seq": 56, "t_rx_ms": 1774641671765, "dt_ms": 10, "doa_deg": 249.0, "confidence_0_1": 0.529443389991041, "lat_deg": 33.99154311124531, "lon_deg": -118.00108778020304, "altitude_rel_ft": 29.1264, "yaw_deg": 36.6393, "pitch_deg": -6.2514, "roll_deg": 12.2932, "ground_speed_ft_s": 16.177, "vel_north_m_s": -9.1584, "vel_east_m_s": -0.3173, "vel_down_m_s": -0.4893, "usable_for_triangulation": true}
{"run_id": "SIM_TEST", "kraken_seq": 134, "telemetry_seq": 57, "t_rx_ms": 1774641671866, "dt_ms": 10, "doa_deg": 149.0, "confidence_0_1": 0.6063590161070336, "lat_deg": 34.00871740312364, "lon_deg": -117.99512080889984, "altitude_rel_ft": 96.7175, "yaw_deg": 251.0284, "pitch_deg": -6.5865, "roll_deg": 8.5312, "ground_speed_ft_s": 24.0737, "vel_north_m_s": -5.2868, "vel_east_m_s": 8.7569, "vel_down_m_s": 0.6536, "usable_for_triangulation": true}
{"run_id": "SIM_TEST", "kraken_seq": 135, "telemetry_seq": 58, "t_rx_ms": 1774641671966, "dt_ms": 10, "doa_deg": 269.0, "confidence_0_1": 0.1332930137114957, "lat_deg": 33.99863573089628, "lon_deg": -118.00057656294541, "altitude_rel_ft": 72.192, "yaw_deg": 100.5007, "pitch_deg": 4.6892, "roll_deg": -12.0111, "ground_speed_ft_s": 59.9467, "vel_north_m_s": 9.5681, "vel_east_m_s": 1.5328, "vel_down_m_s": 0.1981, "usable_for_triangulation": false}
{"run_id": "SIM_TEST", "kraken_seq": 136, "telemetry_seq": 59, "t_rx_ms": 1774641672067, "dt_ms": 10, "doa_deg": 333.0, "confidence_0_1": 0.07484472727514335, "lat_deg": 34.000207431633875, "lon_deg": -117.99852474208635, "altitude_rel_ft": 87.5231, "yaw_deg": 227.8573, "pitch_deg": -0.8078, "roll_deg": -12.124, "ground_speed_ft_s": 44.7871, "vel_north_m_s": 1.1829, "vel_east_m_s": 8.3906, "vel_down_m_s": 0.268, "usable_for_triangulation": false}
{"run_id": "SIM_TEST", "kraken_seq": 137, "telemetry_seq": 60, "t_rx_ms": 1774641672167, "dt_ms": 11, "doa_deg": 31.0, "confidence_0_1": 0.837046202411588, "lat_deg": 33.990384633927455, "lon_deg": -118.00894274426427, "altitude_rel_ft": 65.366, "yaw_deg": 92.5288, "pitch_deg": 3.8456, "roll_deg": 8.7485, "ground_speed_ft_s": 23.5814, "vel_north_m_s": -7.1903, "vel_east_m_s": 3.7628, "vel_down_m_s": -0.3862, "usable_for_triangulation": true}
{"run_id": "SIM_TEST", "kraken_seq": 138, "telemetry_seq": 61, "t_rx_ms": 1774641672268, "dt_ms": 10, "doa_deg": 2.0, "confidence_0_1": 0.26505826606413585, "lat_deg": 33.9940899143335, "lon_deg": -118.00183097720574, "altitude_rel_ft": 70.1153, "yaw_deg": 49.3261, "pitch_deg": -8.1558, "roll_deg": 8.6177, "ground_speed_ft_s": 28.1167, "vel_north_m_s": 0.1635, "vel_east_m_s": 4.4151, "vel_down_m_s": -0.8638, "usable_for_triangulation": false}
{"run_id": "SIM_TEST", "kraken_seq": 139, "telemetry_seq": 62, "t_rx_ms": 1774641672369, "dt_ms": 10, "doa_deg": 148.0, "confidence_0_1": 0.4367426821332381, "lat_deg": 34.001892654164436, "lon_deg": -117.99273952354264, "altitude_rel_ft": 66.9887, "yaw_deg": 201.909, "pitch_deg": 8.3919, "roll_deg": -12.9915, "ground_speed_ft_s": 6.1333, "vel_north_m_s": -2.0573, "vel_east_m_s": -5.874, "vel_down_m_s": -0.1941, "usable_for_triangulation": false}
{"run_id": "SIM_TEST", "kraken_seq": 140, "telemetry_seq": 63, "t_rx_ms": 1774641672469, "dt_ms": 11, "doa_deg": 329.0, "confidence_0_1": 0.09996809949908925, "lat_deg": 33.99867303001248, "lon_deg": -118.007993926565, "altitude_rel_ft": 34.57, "yaw_deg": 171.6956, "pitch_deg": -9.3636, "roll_deg": -3.3045, "ground_speed_ft_s": 10.7643, "vel_north_m_s": 3.7774, "vel_east_m_s": 7.3195, "vel_down_m_s": -0.7602, "usable_for_triangulation": false}
{"run_id": "SIM_TEST", "kraken_seq": 141, "telemetry_seq": 64, "t_rx_ms": 1774641672570, "dt_ms": 10, "doa_deg": 309.0, "confidence_0_1": 0.8848790349827659, "lat_deg": 33.99634369477646, "lon_deg": -117.99697295416499, "altitude_rel_ft": 34.1874, "yaw_deg": 185.1251, "pitch_deg": -1.5241, "roll_deg": -8.7284, "ground_speed_ft_s": 42.8456, "vel_north_m_s": -2.6317, "vel_east_m_s": -1.436, "vel_down_m_s": 0.3232, "usable_for_triangulation": true}
{"run_id": "SIM_TEST", "kraken_seq": 142, "telemetry_seq": 65, "t_rx_ms": 1774641672670, "dt_ms": 11, "doa_deg": 292.0, "confidence_0_1": 0.7349991696173345, "lat_deg": 33.99472883050104, "lon_deg": -118.00019392170795, "altitude_rel_ft": 94.0703, "yaw_deg": 93.6885, "pitch_deg": -2.0962, "roll_deg": -14.0312, "ground_speed_ft_s": 36.4085, "vel_north_m_s": -3.5787, "vel_east_m_s": 7.3711, "vel_down_m_s": 0.1857, "usable_for_triangulation": true}
{"run_id": "SIM_TEST", "kraken_seq": 143, "telemetry_seq": 66, "t_rx_ms": 1774641672770, "dt_ms": 11, "doa_deg": 5.0, "confidence_0_1": 0.1587852180478092, "lat_deg": 33.99018118492358, "lon_deg": -117.99536316585501, "altitude_rel_ft": 27.8473, "yaw_deg": 73.4306, "pitch_deg": -1.3529, "roll_deg": -3.6338, "ground_speed_ft_s": 56.893, "vel_north_m_s": -8.1055, "vel_east_m_s": 3.432, "vel_down_m_s": -0.8157, "usable_for_triangulation": false}
{"run_id": "SIM_TEST", "kraken_seq": 144, "telemetry_seq": 67, "t_rx_ms": 1774641672871, "dt_ms": 11, "doa_deg": 280.0, "confidence_0_1": 0.9082797428588684, "lat_deg": 33.99422884261839, "lon_deg": -118.00007950055844, "altitude_rel_ft": 97.1433, "yaw_deg": 122.765, "pitch_deg": -5.2364, "roll_deg": -8.1678, "ground_speed_ft_s": 28.824, "vel_north_m_s": 9.1522, "vel_east_m_s": -5.151, "vel_down_m_s": -0.721, "usable_for_triangulation": true}
{"run_id": "SIM_TEST", "kraken_seq": 145, "telemetry_seq": 68, "t_rx_ms": 1774641672971, "dt_ms": 11, "doa_deg": 261.0, "confidence_0_1": 0.2675757478125723, "lat_deg": 34.00426514297108, "lon_deg": -118.00149809965663, "altitude_rel_ft": 43.5659, "yaw_deg": 25.9235, "pitch_deg": -3.0135, "roll_deg": -9.2232, "ground_speed_ft_s": 53.0652, "vel_north_m_s": 1.0616, "vel_east_m_s": -8.4029, "vel_down_m_s": 0.6666, "usable_for_triangulation": false}
{"run_id": "SIM_TEST", "kraken_seq": 146, "telemetry_seq": 69, "t_rx_ms": 1774641673072, "dt_ms": 11, "doa_deg": 250.0, "confidence_0_1": 0.5200881339706388, "lat_deg": 34.0009269590623, "lon_deg": -117.99426137191395, "altitude_rel_ft": 83.4834, "yaw_deg": 341.9206, "pitch_deg": -3.4341, "roll_deg": -13.464, "ground_speed_ft_s": 41.3857, "vel_north_m_s": 5.3021, "vel_east_m_s": -7.0948, "vel_down_m_s": 0.8422, "usable_for_triangulation": true}
{"run_id": "SIM_TEST", "kraken_seq": 147, "telemetry_seq": 70, "t_rx_ms": 1774641673172, "dt_ms": 11, "doa_deg": 357.0, "confidence_0_1": 0.08479917644261148, "lat_deg": 34.003138027210404, "lon_deg": -117.99922197313496, "altitude_rel_ft": 75.0172, "yaw_deg": 258.9492, "pitch_deg": -5.1391, "roll_deg": -12.9203, "ground_speed_ft_s": 8.0263, "vel_north_m_s": -2.2896, "vel_east_m_s": 2.5636, "vel_down_m_s": -0.9082, "usable_for_triangulation": false}
{"run_id": "SIM_TEST", "kraken_seq": 148, "telemetry_seq": 71, "t_rx_ms": 1774641673272, "dt_ms": 11, "doa_deg": 254.0, "confidence_0_1": 0.2853062558296008, "lat_deg": 34.00635585306891, "lon_deg": -117.99261897235353, "altitude_rel_ft": 69.1664, "yaw_deg": 357.9058, "pitch_deg": 1.9097, "roll_deg": 1.6023, "ground_speed_ft_s": 20.7953, "vel_north_m_s": -9.9403, "vel_east_m_s": -8.7413, "vel_down_m_s": -0.3212, "usable_for_triangulation": false}
{"run_id": "SIM_TEST", "kraken_seq": 149, "telemetry_seq": 72, "t_rx_ms": 1774641673373, "dt_ms": 11, "doa_deg": 69.0, "confidence_0_1": 0.029101446476427983, "lat_deg": 33.99050616031005, "lon_deg": -118.00802151619848, "altitude_rel_ft": 73.3159, "yaw_deg": 244.3045, "pitch_deg": -2.9109, "roll_deg": -5.8851, "ground_speed_ft_s": 30.3653, "vel_north_m_s": -1.9892, "vel_east_m_s": 5.4714, "vel_down_m_s": 0.6904, "usable_for_triangulation": false}
{"run_id": "SIM_TEST", "kraken_seq": 150, "telemetry_seq": 73, "t_rx_ms": 1774641673473, "dt_ms": 12, "doa_deg": 147.0, "confidence_0_1": 0.3480686756917334, "lat_deg": 34.00046514178113, "lon_deg": -117.99183108542839, "altitude_rel_ft": 54.9524, "yaw_deg": 72.0686, "pitch_deg": 5.9713, "roll_deg": 2.1109, "ground_speed_ft_s": 25.7178, "vel_north_m_s": 6.6687, "vel_east_m_s": -3.9359, "vel_down_m_s": 0.2476, "usable_for_triangulation": false}
{"run_id": "SIM_TEST", "kraken_seq": 151, "telemetry_seq": 74, "t_rx_ms": 1774641673574, "dt_ms": 11, "doa_deg": 77.0, "confidence_0_1": 0.8248188616062757, "lat_deg": 34.00925128628947, "lon_deg": -118.00056965424649, "altitude_rel_ft": 90.6822, "yaw_deg": 42.21, "pitch_deg": -5.4579, "roll_deg": 14.8204, "ground_speed_ft_s": 28.6485, "vel_north_m_s": -9.8043, "vel_east_m_s": -0.5456, "vel_down_m_s": -0.473, "usable_for_triangulation": true}
{"run_id": "SIM_TEST", "kraken_seq": 152, "telemetry_seq": 75, "t_rx_ms": 1774641673674, "dt_ms": 12, "doa_deg": 22.0, "confidence_0_1": 0.9323219131625308, "lat_deg": 34.0088775708202, "lon_deg": -118.00334192007146, "altitude_rel_ft": 58.3224, "yaw_deg": 45.5434, "pitch_deg": 6.8711, "roll_deg": 2.3292, "ground_speed_ft_s": 43.1493, "vel_north_m_s": 7.6083, "vel_east_m_s": 2.5698, "vel_down_m_s": 0.2039, "usable_for_triangulation": true}
{"run_id": "SIM_TEST", "kraken_seq": 153, "telemetry_seq": 76, "t_rx_ms": 1774641673774, "dt_ms": 12, "doa_deg": 222.0, "confidence_0_1": 0.9233108270481125, "lat_deg": 34.00949030917187, "lon_deg": -117.99996989869832, "altitude_rel_ft": 94.6754, "yaw_deg": 150.6446, "pitch_deg": -9.3995, "roll_deg": 7.8773, "ground_speed_ft_s": 47.5336, "vel_north_m_s": -8.3637, "vel_east_m_s": -6.0337, "vel_down_m_s": 0.7373, "usable_for_triangulation": true}
{"run_id": "SIM_TEST", "kraken_seq": 154, "telemetry_seq": 77, "t_rx_ms": 1774641673875, "dt_ms": 12, "doa_deg": 57.0, "confidence_0_1": 0.4703693911391795, "lat_deg": 33.99107033064446, "lon_deg": -117.99308479665046, "altitude_rel_ft": 64.9737, "yaw_deg": 17.7564, "pitch_deg": -4.4742, "roll_deg": -9.6351, "ground_speed_ft_s": 11.1645, "vel_north_m_s": -0.175, "vel_east_m_s": 7.2298, "vel_down_m_s": -0.0682, "usable_for_triangulation": false}
{"run_id": "SIM_TEST", "kraken_seq": 155, "telemetry_seq": 78, "t_rx_ms": 1774641673975, "dt_ms": 13, "doa_deg": 215.0, "confidence_0_1": 0.059999886642687406, "lat_deg": 34.00549845346871, "lon_deg": -117.99475179980875, "altitude_rel_ft": 89.3052, "yaw_deg": 107.9269, "pitch_deg": 2.4918, "roll_deg": -4.1687, "ground_speed_ft_s": 26.8397, "vel_north_m_s": 9.0423, "vel_east_m_s": 2.1106, "vel_down_m_s": 0.9718, "usable_for_triangulation": false}
{"run_id": "SIM_TEST", "kraken_seq": 156, "telemetry_seq": 79, "t_rx_ms": 1774641674075, "dt_ms": 13, "doa_deg": 318.0, "confidence_0_1": 0.7862091879437364, "lat_deg": 34.00402218867849, "lon_deg": -117.99643066188773, "altitude_rel_ft": 45.812, "yaw_deg": 144.0602, "pitch_deg": 3.1888, "roll_deg": -10.1284, "ground_speed_ft_s": 5.528, "vel_north_m_s": -9.9769, "vel_east_m_s": 6.446, "vel_down_m_s": -0.6301, "usable_for_triangulation": true}
{"run_id": "SIM_TEST", "kraken_seq": 157, "telemetry_seq": 80, "t_rx_ms": 1774641674176, "dt_ms": 13, "doa_deg": 336.0, "confidence_0_1": 0.7674511694413011, "lat_deg": 33.99049625888196, "lon_deg": -118.00781085658737, "altitude_rel_ft": 23.6101, "yaw_deg": 127.6234, "pitch_deg": 5.1812, "roll_deg": 2.8043, "ground_speed_ft_s": 39.0459, "vel_north_m_s": 5.4733, "vel_east_m_s": 0.3135, "vel_down_m_s": 0.6015, "usable_for_triangulation": true}
{"run_id": "SIM_TEST", "kraken_seq": 158, "telemetry_seq": 81, "t_rx_ms": 1774641674276, "dt_ms": 13, "doa_deg": 149.0, "confidence_0_1": 0.26387847682464727, "lat_deg": 33.995618895813394, "lon_deg": -117.99774695125684, "altitude_rel_ft": 25.2079, "yaw_deg": 248.2602, "pitch_deg": 8.3319, "roll_deg": -7.1644, "ground_speed_ft_s": 17.867, "vel_north_m_s": 4.858, "vel_east_m_s": -0.5411, "vel_down_m_s": 0.9985, "usable_for_triangulation": false}
{"run_id": "SIM_TEST", "kraken_seq": 159, "telemetry_seq": 82, "t_rx_ms": 1774641674377, "dt_ms": 12, "doa_deg": 257.0, "confidence_0_1": 0.6990037013857838, "lat_deg": 34.00346640849526, "lon_deg": -117.99469910446304, "altitude_rel_ft": 76.3298, "yaw_deg": 86.5697, "pitch_deg": -7.1611, "roll_deg": -13.988, "ground_speed_ft_s": 16.4102, "vel_north_m_s": -8.0053, "vel_east_m_s": -2.7797, "vel_down_m_s": 0.6089, "usable_for_triangulation": true}
{"run_id": "SIM_TEST", "kraken_seq": 160, "telemetry_seq": 83, "t_rx_ms": 1774641674477, "dt_ms": 13, "doa_deg": 55.0, "confidence_0_1": 0.502132693923583, "lat_deg": 34.00307470274248, "lon_deg": -117.99583623502646, "altitude_rel_ft": 58.4947, "yaw_deg": 169.7372, "pitch_deg": 6.0061, "roll_deg": 4.7709, "ground_speed_ft_s": 20.4966, "vel_north_m_s": -9.9853, "vel_east_m_s": 7.3618, "vel_down_m_s": 0.6781, "usable_for_triangulation": true}
{"run_id": "SIM_TEST", "kraken_seq": 161, "telemetry_seq": 84, "t_rx_ms": 1774641674578, "dt_ms": 13, "doa_deg": 333.0, "confidence_0_1": 0.34665142830961937, "lat_deg": 34.00862740587694, "lon_deg": -118.00663033330076, "altitude_rel_ft": 40.5032, "yaw_deg": 118.962, "pitch_deg": -0.4811, "roll_deg": -8.8458, "ground_speed_ft_s": 35.2549, "vel_north_m_s": 2.7607, "vel_east_m_s": -6.685, "vel_down_m_s": -0.9523, "usable_for_triangulation": false}
{"run_id": "SIM_TEST", "kraken_seq": 162, "telemetry_seq": 85, "t_rx_ms": 1774641674678, "dt_ms": 14, "doa_deg": 354.0, "confidence_0_1": 0.6353676874598109, "lat_deg": 34.0006980812715, "lon_deg": -118.0024598132721, "altitude_rel_ft": 27.0879, "yaw_deg": 237.4837, "pitch_deg": -5.6155, "roll_deg": -13.9698, "ground_speed_ft_s": 53.2208, "vel_north_m_s": -1.3999, "vel_east_m_s": -7.3146, "vel_down_m_s": -0.6472, "usable_for_triangulation": true}
{"run_id": "SIM_TEST", "kraken_seq": 163, "telemetry_seq": 86, "t_rx_ms": 1774641674779, "dt_ms": 13, "doa_deg": 332.0, "confidence_0_1": 0.008044643140308616, "lat_deg": 33.99227158769301, "lon_deg": -117.99819261919049, "altitude_rel_ft": 24.9708, "yaw_deg": 261.876, "pitch_deg": 6.1168, "roll_deg": 9.4333, "ground_speed_ft_s": 21.5001, "vel_north_m_s": -3.6001, "vel_east_m_s": -3.59, "vel_down_m_s": 0.8383, "usable_for_triangulation": false}
{"run_id": "SIM_TEST", "kraken_seq": 164, "telemetry_seq": 87, "t_rx_ms": 1774641674880, "dt_ms": 13, "doa_deg": 302.0, "confidence_0_1": 0.8943981767229442, "lat_deg": 34.00872636899222, "lon_deg": -117.99573489847603, "altitude_rel_ft": 55.2081, "yaw_deg": 150.7387, "pitch_deg": 8.9566, "roll_deg": 9.2276, "ground_speed_ft_s": 40.954, "vel_north_m_s": 4.5533, "vel_east_m_s": 9.171, "vel_down_m_s": -0.9602, "usable_for_triangulation": true}
{"run_id": "SIM_TEST", "kraken_seq": 165, "telemetry_seq": 88, "t_rx_ms": 1774641674980, "dt_ms": 13, "doa_deg": 36.0, "confidence_0_1": 0.6060266694192165, "lat_deg": 33.99691407861836, "lon_deg": -118.00865145306501, "altitude_rel_ft": 79.3265, "yaw_deg": 242.7037, "pitch_deg": -0.1189, "roll_deg": 3.9046, "ground_speed_ft_s": 54.4539, "vel_north_m_s": -5.9551, "vel_east_m_s": -5.858, "vel_down_m_s": -0.6801, "usable_for_triangulation": true}
{"run_id": "SIM_TEST", "kraken_seq": 166, "telemetry_seq": 89, "t_rx_ms": 1774641675081, "dt_ms": 13, "doa_deg": 79.0, "confidence_0_1": 0.1657175487783843, "lat_deg": 34.00812988009348, "lon_deg": -117.99189546400855, "altitude_rel_ft": 69.3124, "yaw_deg": 74.2216, "pitch_deg": 1.0863, "roll_deg": -6.7199, "ground_speed_ft_s": 34.3405, "vel_north_m_s": -5.8773, "vel_east_m_s": -9.945, "vel_down_m_s": 0.7049, "usable_for_triangulation": false}
{"run_id": "SIM_TEST", "kraken_seq": 167, "telemetry_seq": 90, "t_rx_ms": 1774641675181, "dt_ms": 13, "doa_deg": 332.0, "confidence_0_1": 0.25900252883039576, "lat_deg": 33.99044425846023, "lon_deg": -118.00799384660702, "altitude_rel_ft": 27.6859, "yaw_deg": 323.7255, "pitch_deg": -1.9853, "roll_deg": -7.6823, "ground_speed_ft_s": 39.0285, "vel_north_m_s": 6.4809, "vel_east_m_s": 3.0225, "vel_down_m_s": 0.4889, "usable_for_triangulation": false}
{"run_id": "SIM_TEST", "kraken_seq": 168, "telemetry_seq": 91, "t_rx_ms": 1774641675282, "dt_ms": 13, "doa_deg": 36.0, "confidence_0_1": 0.34627999207320204, "lat_deg": 34.00403313128362, "lon_deg": -117.99667556097913, "altitude_rel_ft": 22.4114, "yaw_deg": 184.7053, "pitch_deg": 0.2069, "roll_deg": 3.6711, "ground_speed_ft_s": 54.9514, "vel_north_m_s": -4.5832, "vel_east_m_s": 8.0448, "vel_down_m_s": -0.0367, "usable_for_triangulation": false}
{"run_id": "SIM_TEST", "kraken_seq": 169, "telemetry_seq": 92, "t_rx_ms": 1774641675382, "dt_ms": 13, "doa_deg": 356.0, "confidence_0_1": 0.674470277718476, "lat_deg": 33.9942370388006, "lon_deg": -117.99938900106763, "altitude_rel_ft": 74.5985, "yaw_deg": 333.2018, "pitch_deg": -7.6431, "roll_deg": 6.8452, "ground_speed_ft_s": 31.7549, "vel_north_m_s": 2.6088, "vel_east_m_s": -4.4426, "vel_down_m_s": -0.0265, "usable_for_triangulation": true}
{"run_id": "SIM_TEST", "kraken_seq": 170, "telemetry_seq": 93, "t_rx_ms": 1774641675483, "dt_ms": 13, "doa_deg": 61.0, "confidence_0_1": 0.5759121688684921, "lat_deg": 34.007882053075875, "lon_deg": -118.00502347897957, "altitude_rel_ft": 73.4488, "yaw_deg": 160.3076, "pitch_deg": 6.1865, "roll_deg": 9.3246, "ground_speed_ft_s": 25.6806, "vel_north_m_s": 4.1248, "vel_east_m_s": 7.7598, "vel_down_m_s": -0.1683, "usable_for_triangulation": true}
{"run_id": "SIM_TEST", "kraken_seq": 171, "telemetry_seq": 94, "t_rx_ms": 1774641675583, "dt_ms": 13, "doa_deg": 162.0, "confidence_0_1": 0.7384074056497031, "lat_deg": 33.99689542222006, "lon_deg": -117.99707275660828, "altitude_rel_ft": 26.2387, "yaw_deg": 351.276, "pitch_deg": -9.9527, "roll_deg": 1.6183, "ground_speed_ft_s": 40.9614, "vel_north_m_s": -8.3451, "vel_east_m_s": -6.2037, "vel_down_m_s": -0.1645, "usable_for_triangulation": true}
{"run_id": "SIM_TEST", "kraken_seq": 172, "telemetry_seq": 95, "t_rx_ms": 1774641675683, "dt_ms": 14, "doa_deg": 97.0, "confidence_0_1": 0.4076277463875385, "lat_deg": 33.99061374494945, "lon_deg": -118.00981698318428, "altitude_rel_ft": 91.9252, "yaw_deg": 125.8229, "pitch_deg": -8.0661, "roll_deg": -4.5239, "ground_speed_ft_s": 12.0025, "vel_north_m_s": 3.0068, "vel_east_m_s": -7.7863, "vel_down_m_s": 0.4839, "usable_for_triangulation": false}
{"run_id": "SIM_TEST", "kraken_seq": 173, "telemetry_seq": 96, "t_rx_ms": 1774641675784, "dt_ms": 13, "doa_deg": 332.0, "confidence_0_1": 0.2220391766934806, "lat_deg": 33.99517547741675, "lon_deg": -117.99093487940813, "altitude_rel_ft": 90.1293, "yaw_deg": 151.0214, "pitch_deg": -8.2029, "roll_deg": 8.8505, "ground_speed_ft_s": 44.4094, "vel_north_m_s": 1.5355, "vel_east_m_s": 2.5909, "vel_down_m_s": -0.6789, "usable_for_triangulation": false}
{"run_id": "SIM_TEST", "kraken_seq": 174, "telemetry_seq": 97, "t_rx_ms": 1774641675884, "dt_ms": 14, "doa_deg": 149.0, "confidence_0_1": 0.6987347430802857, "lat_deg": 33.996374979193035, "lon_deg": -118.00604758926539, "altitude_rel_ft": 96.8325, "yaw_deg": 24.0404, "pitch_deg": 1.8928, "roll_deg": 10.7523, "ground_speed_ft_s": 43.415, "vel_north_m_s": -7.8553, "vel_east_m_s": -3.3021, "vel_down_m_s": -0.1854, "usable_for_triangulation": true}
{"run_id": "SIM_TEST", "kraken_seq": 175, "telemetry_seq": 98, "t_rx_ms": 1774641675985, "dt_ms": 13, "doa_deg": 110.0, "confidence_0_1": 0.4214905307934964, "lat_deg": 33.99288420420618, "lon_deg": -118.00892897589183, "altitude_rel_ft": 21.0175, "yaw_deg": 219.2618, "pitch_deg": -3.2473, "roll_deg": 14.9188, "ground_speed_ft_s": 30.2996, "vel_north_m_s": -4.5271, "vel_east_m_s": 4.609, "vel_down_m_s": 0.3432, "usable_for_triangulation": false}
{"run_id": "SIM_TEST", "kraken_seq": 176, "telemetry_seq": 99, "t_rx_ms": 1774641676085, "dt_ms": 14, "doa_deg": 114.0, "confidence_0_1": 0.6137792832509518, "lat_deg": 33.99768854441828, "lon_deg": -117.99653482671539, "altitude_rel_ft": 35.3516, "yaw_deg": 325.5949, "pitch_deg": -8.6655, "roll_deg": 11.2054, "ground_speed_ft_s": 20.4678, "vel_north_m_s": 8.3685, "vel_east_m_s": 2.2482, "vel_down_m_s": -0.6035, "usable_for_triangulation": true}
{"run_id": "SIM_TEST", "kraken_seq": 177, "telemetry_seq": 100, "t_rx_ms": 1774641676185, "dt_ms": 14, "doa_deg": 227.0, "confidence_0_1": 0.6321267753598958, "lat_deg": 34.0068123412361, "lon_deg": -118.00698207753403, "altitude_rel_ft": 69.8671, "yaw_deg": 119.1428, "pitch_deg": 8.545, "roll_deg": 1.1639, "ground_speed_ft_s": 18.4553, "vel_north_m_s": 4.2653, "vel_east_m_s": 3.8751, "vel_down_m_s": 0.2167, "usable_for_triangulation": true}
{"run_id": "SIM_TEST", "kraken_seq": 178, "telemetry_seq": 101, "t_rx_ms": 1774641676286, "dt_ms": 14, "doa_deg": 85.0, "confidence_0_1": 0.18223109705841178, "lat_deg": 34.0070744328966, "lon_deg": -118.00605110346129, "altitude_rel_ft": 67.6229, "yaw_deg": 130.7199, "pitch_deg": -9.3752, "roll_deg": 7.7814, "ground_speed_ft_s": 30.3905, "vel_north_m_s": -5.06, "vel_east_m_s": -7.1126, "vel_down_m_s": 0.6245, "usable_for_triangulation": false}
{"run_id": "SIM_TEST", "kraken_seq": 179, "telemetry_seq": 102, "t_rx_ms": 1774641676386, "dt_ms": 14, "doa_deg": 76.0, "confidence_0_1": 0.8992135143188473, "lat_deg": 33.99783444096817, "lon_deg": -118.00590656263617, "altitude_rel_ft": 87.5682, "yaw_deg": 249.9459, "pitch_deg": -9.8512, "roll_deg": -1.8967, "ground_speed_ft_s": 19.3694, "vel_north_m_s": 0.8722, "vel_east_m_s": -6.5907, "vel_down_m_s": -0.8974, "usable_for_triangulation": true}
{"run_id": "SIM_TEST", "kraken_seq": 180, "telemetry_seq": 103, "t_rx_ms": 1774641676487, "dt_ms": 14, "doa_deg": 111.0, "confidence_0_1": 0.14726775268140435, "lat_deg": 33.99131117622989, "lon_deg": -118.00326104594022, "altitude_rel_ft": 84.1352, "yaw_deg": 260.4872, "pitch_deg": 0.6398, "roll_deg": -5.2921, "ground_speed_ft_s": 48.3101, "vel_north_m_s": 2.5085, "vel_east_m_s": 9.0128, "vel_down_m_s": -0.1136, "usable_for_triangulation": false}
{"run_id": "SIM_TEST", "kraken_seq": 181, "telemetry_seq": 104, "t_rx_ms": 1774641676587, "dt_ms": 14, "doa_deg": 249.0, "confidence_0_1": 0.22397898570006558, "lat_deg": 33.99153279552427, "lon_deg": -117.99654598176022, "altitude_rel_ft": 28.8664, "yaw_deg": 297.1514, "pitch_deg": 8.7997, "roll_deg": -6.4321, "ground_speed_ft_s": 54.0926, "vel_north_m_s": 9.4416, "vel_east_m_s": -3.2524, "vel_down_m_s": 0.4381, "usable_for_triangulation": false}
{"run_id": "SIM_TEST", "kraken_seq": 182, "telemetry_seq": 105, "t_rx_ms": 1774641676688, "dt_ms": 14, "doa_deg": 262.0, "confidence_0_1": 0.029043340452804878, "lat_deg": 33.997497656331305, "lon_deg": -118.00084693476109, "altitude_rel_ft": 55.635, "yaw_deg": 7.0615, "pitch_deg": 9.0802, "roll_deg": -14.4622, "ground_speed_ft_s": 18.5247, "vel_north_m_s": -1.7996, "vel_east_m_s": -4.5842, "vel_down_m_s": 0.494, "usable_for_triangulation": false}
{"run_id": "SIM_TEST", "kraken_seq": 183, "telemetry_seq": 106, "t_rx_ms": 1774641676789, "dt_ms": 13, "doa_deg": 231.0, "confidence_0_1": 0.4747023409016652, "lat_deg": 33.99925240823614, "lon_deg": -117.99664269283663, "altitude_rel_ft": 92.8611, "yaw_deg": 275.8388, "pitch_deg": 2.5705, "roll_deg": -8.7974, "ground_speed_ft_s": 15.9061, "vel_north_m_s": -3.9957, "vel_east_m_s": 9.4137, "vel_down_m_s": -0.4928, "usable_for_triangulation": false}
{"run_id": "SIM_TEST", "kraken_seq": 184, "telemetry_seq": 107, "t_rx_ms": 1774641676889, "dt_ms": 14, "doa_deg": 135.0, "confidence_0_1": 0.4847102888013033, "lat_deg": 34.0076255041971, "lon_deg": -117.99973616580301, "altitude_rel_ft": 27.4842, "yaw_deg": 37.7603, "pitch_deg": 0.2874, "roll_deg": 1.8825, "ground_speed_ft_s": 54.8001, "vel_north_m_s": -3.17, "vel_east_m_s": 7.5513, "vel_down_m_s": 0.2295, "usable_for_triangulation": false}
{"run_id": "SIM_TEST", "kraken_seq": 185, "telemetry_seq": 108, "t_rx_ms": 1774641676990, "dt_ms": 13, "doa_deg": 191.0, "confidence_0_1": 0.903010833385713, "lat_deg": 34.007560480183756, "lon_deg": -117.99313849970052, "altitude_rel_ft": 55.3144, "yaw_deg": 235.1736, "pitch_deg": 7.6327, "roll_deg": -8.796, "ground_speed_ft_s": 20.3758, "vel_north_m_s": 4.5924, "vel_east_m_s": -7.1207, "vel_down_m_s": -0.7547, "usable_for_triangulation": true}
{"run_id": "SIM_TEST", "kraken_seq": 186, "telemetry_seq": 109, "t_rx_ms": 1774641677090, "dt_ms": 14, "doa_deg": 117.0, "confidence_0_1": 0.15107591362583006, "lat_deg": 34.009499704181685, "lon_deg": -118.00490004200063, "altitude_rel_ft": 67.5887, "yaw_deg": 352.11, "pitch_deg": 3.37, "roll_deg": 1.7544, "ground_speed_ft_s": 34.3702, "vel_north_m_s": 1.1835, "vel_east_m_s": -3.7221, "vel_down_m_s": 0.9518, "usable_for_triangulation": false}
{"run_id": "SIM_TEST", "kraken_seq": 187, "telemetry_seq": 110, "t_rx_ms": 1774641677191, "dt_ms": 14, "doa_deg": 159.0, "confidence_0_1": 0.4223852651067739, "lat_deg": 34.00895423685967, "lon_deg": -118.00867422852595, "altitude_rel_ft": 64.2614, "yaw_deg": 162.9771, "pitch_deg": -9.5698, "roll_deg": 12.1081, "ground_speed_ft_s": 8.1964, "vel_north_m_s": -9.7816, "vel_east_m_s": 5.6684, "vel_down_m_s": 0.5582, "usable_for_triangulation": false}
{"run_id": "SIM_TEST", "kraken_seq": 188, "telemetry_seq": 111, "t_rx_ms": 1774641677291, "dt_ms": 14, "doa_deg": 182.0, "confidence_0_1": 0.2176349975162758, "lat_deg": 33.99445344310766, "lon_deg": -118.00402296065305, "altitude_rel_ft": 36.8844, "yaw_deg": 87.3402, "pitch_deg": -0.4928, "roll_deg": -14.1782, "ground_speed_ft_s": 6.9771, "vel_north_m_s": -7.9829, "vel_east_m_s": 0.1608, "vel_down_m_s": -0.538, "usable_for_triangulation": false}
{"run_id": "SIM_TEST", "kraken_seq": 189, "telemetry_seq": 112, "t_rx_ms": 1774641677392, "dt_ms": 14, "doa_deg": 199.0, "confidence_0_1": 0.36074439112407974, "lat_deg": 33.99080591307015, "lon_deg": -117.99902656732613, "altitude_rel_ft": 48.3185, "yaw_deg": 60.9012, "pitch_deg": 8.5892, "roll_deg": -11.6916, "ground_speed_ft_s": 20.8454, "vel_north_m_s": -6.9707, "vel_east_m_s": -0.3758, "vel_down_m_s": -0.2061, "usable_for_triangulation": false}
{"run_id": "SIM_TEST", "kraken_seq": 190, "telemetry_seq": 113, "t_rx_ms": 1774641677493, "dt_ms": 14, "doa_deg": 145.0, "confidence_0_1": 0.8533577706824121, "lat_deg": 33.99323161905383, "lon_deg": -117.9928499052643, "altitude_rel_ft": 76.1062, "yaw_deg": 132.4621, "pitch_deg": 4.7362, "roll_deg": 3.9156, "ground_speed_ft_s": 18.7123, "vel_north_m_s": -3.2686, "vel_east_m_s": -0.3842, "vel_down_m_s": -0.827, "usable_for_triangulation": true}
{"run_id": "SIM_TEST", "kraken_seq": 191, "telemetry_seq": 114, "t_rx_ms": 1774641677593, "dt_ms": 14, "doa_deg": 13.0, "confidence_0_1": 0.8211142915765606, "lat_deg": 34.00002694201731, "lon_deg": -117.99308980633853, "altitude_rel_ft": 25.5955, "yaw_deg": 257.0499, "pitch_deg": 6.9053, "roll_deg": 0.222, "ground_speed_ft_s": 9.8107, "vel_north_m_s": -5.8203, "vel_east_m_s": 1.5628, "vel_down_m_s": -0.4865, "usable_for_triangulation": true}
{"run_id": "SIM_TEST", "kraken_seq": 192, "telemetry_seq": 115, "t_rx_ms": 1774641677693, "dt_ms": 14, "doa_deg": 222.0, "confidence_0_1": 0.9425894299344554, "lat_deg": 34.00706389133557, "lon_deg": -118.00563785319305, "altitude_rel_ft": 49.8396, "yaw_deg": 250.5209, "pitch_deg": 9.6446, "roll_deg": -8.3761, "ground_speed_ft_s": 49.5067, "vel_north_m_s": -4.1432, "vel_east_m_s": -6.4436, "vel_down_m_s": -0.224, "usable_for_triangulation": true}
{"run_id": "SIM_TEST", "kraken_seq": 193, "telemetry_seq": 116, "t_rx_ms": 1774641677794, "dt_ms": 14, "doa_deg": 43.0, "confidence_0_1": 0.45901164708977693, "lat_deg": 33.99064794794828, "lon_deg": -118.00636265643553, "altitude_rel_ft": 60.3455, "yaw_deg": 262.0549, "pitch_deg": 8.1883, "roll_deg": 12.8611, "ground_speed_ft_s": 14.1863, "vel_north_m_s": -8.1935, "vel_east_m_s": 1.4851, "vel_down_m_s": 0.6268, "usable_for_triangulation": false}
{"run_id": "SIM_TEST", "kraken_seq": 194, "telemetry_seq": 117, "t_rx_ms": 1774641677894, "dt_ms": 15, "doa_deg": 250.0, "confidence_0_1": 0.21606618449876136, "lat_deg": 34.00889389544335, "lon_deg": -118.0052794478189, "altitude_rel_ft": 51.9175, "yaw_deg": 238.1589, "pitch_deg": -4.2224, "roll_deg": 6.3621, "ground_speed_ft_s": 21.8436, "vel_north_m_s": 5.1689, "vel_east_m_s": -8.101, "vel_down_m_s": 0.7545, "usable_for_triangulation": false}
{"run_id": "SIM_TEST", "kraken_seq": 195, "telemetry_seq": 118, "t_rx_ms": 1774641677994, "dt_ms": 16, "doa_deg": 135.0, "confidence_0_1": 0.6346693367962214, "lat_deg": 33.9982708225792, "lon_deg": -118.00357238639462, "altitude_rel_ft": 74.8633, "yaw_deg": 98.5642, "pitch_deg": 8.2692, "roll_deg": 2.3129, "ground_speed_ft_s": 53.1638, "vel_north_m_s": -2.5964, "vel_east_m_s": -2.9726, "vel_down_m_s": 0.7208, "usable_for_triangulation": true}
{"run_id": "SIM_TEST", "kraken_seq": 196, "telemetry_seq": 119, "t_rx_ms": 1774641678095, "dt_ms": 16, "doa_deg": 189.0, "confidence_0_1": 0.38422958544968167, "lat_deg": 33.99822521207527, "lon_deg": -118.0012876545811, "altitude_rel_ft": 23.8219, "yaw_deg": 23.6966, "pitch_deg": 8.0197, "roll_deg": 7.2024, "ground_speed_ft_s": 29.683, "vel_north_m_s": -0.5561, "vel_east_m_s": 1.7399, "vel_down_m_s": -0.2348, "usable_for_triangulation": false}
{"run_id": "SIM_TEST", "kraken_seq": 197, "telemetry_seq": 120, "t_rx_ms": 1774641678196, "dt_ms": 15, "doa_deg": 157.0, "confidence_0_1": 0.8276408474184784, "lat_deg": 34.00809193604156, "lon_deg": -117.99186473983521, "altitude_rel_ft": 59.247, "yaw_deg": 285.5935, "pitch_deg": 6.3124, "roll_deg": -4.4925, "ground_speed_ft_s": 27.0867, "vel_north_m_s": 5.1008, "vel_east_m_s": 4.4652, "vel_down_m_s": 0.8029, "usable_for_triangulation": true}
{"run_id": "SIM_TEST", "kraken_seq": 198, "telemetry_seq": 121, "t_rx_ms": 1774641678296, "dt_ms": 16, "doa_deg": 159.0, "confidence_0_1": 0.2434363949210936, "lat_deg": 33.99473741289015, "lon_deg": -118.00669242779028, "altitude_rel_ft": 50.5325, "yaw_deg": 311.5122, "pitch_deg": 2.6355, "roll_deg": 0.7334, "ground_speed_ft_s": 38.5219, "vel_north_m_s": -9.8531, "vel_east_m_s": -8.9666, "vel_down_m_s": 0.6281, "usable_for_triangulation": false}
{"run_id": "SIM_TEST", "kraken_seq": 199, "telemetry_seq": 122, "t_rx_ms": 1774641678397, "dt_ms": 15, "doa_deg": 32.0, "confidence_0_1": 0.5068250117547379, "lat_deg": 33.996079930878295, "lon_deg": -118.00309201099685, "altitude_rel_ft": 43.6053, "yaw_deg": 108.4711, "pitch_deg": 1.1622, "roll_deg": -11.6458, "ground_speed_ft_s": 13.0888, "vel_north_m_s": -7.0345, "vel_east_m_s": -3.9466, "vel_down_m_s": -0.2801, "usable_for_triangulation": true}
{"run_id": "SIM_TEST", "kraken_seq": 200, "telemetry_seq": 123, "t_rx_ms": 1774641678497, "dt_ms": 16, "doa_deg": 321.0, "confidence_0_1": 0.5157772187866734, "lat_deg": 34.0099040949716, "lon_deg": -118.0043187824023, "altitude_rel_ft": 54.5388, "yaw_deg": 271.2211, "pitch_deg": 8.9738, "roll_deg": -6.8772, "ground_speed_ft_s": 40.1708, "vel_north_m_s": 5.1318, "vel_east_m_s": -2.9352, "vel_down_m_s": 0.4204, "usable_for_triangulation": true}
{"run_id": "SIM_TEST", "kraken_seq": 201, "telemetry_seq": 124, "t_rx_ms": 1774641678598, "dt_ms": 16, "doa_deg": 246.0, "confidence_0_1": 0.3313833395102235, "lat_deg": 33.996690493489005, "lon_deg": -117.99524509969586, "altitude_rel_ft": 30.9089, "yaw_deg": 67.209, "pitch_deg": -3.8051, "roll_deg": 3.3582, "ground_speed_ft_s": 10.798, "vel_north_m_s": 0.7993, "vel_east_m_s": 8.1004, "vel_down_m_s": -0.7977, "usable_for_triangulation": false}
{"run_id": "SIM_TEST", "kraken_seq": 202, "telemetry_seq": 125, "t_rx_ms": 1774641678698, "dt_ms": 16, "doa_deg": 178.0, "confidence_0_1": 0.589543806945814, "lat_deg": 34.002677346115654, "lon_deg": -117.99822363977798, "altitude_rel_ft": 24.5126, "yaw_deg": 208.0736, "pitch_deg": -1.2653, "roll_deg": -0.6663, "ground_speed_ft_s": 49.8922, "vel_north_m_s": -2.1696, "vel_east_m_s": 5.3792, "vel_down_m_s": 0.3923, "usable_for_triangulation": true}
{"run_id": "SIM_TEST", "kraken_seq": 203, "telemetry_seq": 126, "t_rx_ms": 1774641678799, "dt_ms": 16, "doa_deg": 284.0, "confidence_0_1": 0.28067521195893685, "lat_deg": 34.0025732179649, "lon_deg": -118.00343418056107, "altitude_rel_ft": 63.8782, "yaw_deg": 74.9285, "pitch_deg": -3.2703, "roll_deg": -2.396, "ground_speed_ft_s": 15.9943, "vel_north_m_s": 5.5922, "vel_east_m_s": -9.842, "vel_down_m_s": 0.303, "usable_for_triangulation": false}
{"run_id": "SIM_TEST", "kraken_seq": 204, "telemetry_seq": 127, "t_rx_ms": 1774641678900, "dt_ms": 15, "doa_deg": 351.0, "confidence_0_1": 0.9822993028567846, "lat_deg": 33.99447462105368, "lon_deg": -118.00402053818088, "altitude_rel_ft": 84.5651, "yaw_deg": 62.7327, "pitch_deg": -6.7774, "roll_deg": 7.0272, "ground_speed_ft_s": 18.6737, "vel_north_m_s": 2.4761, "vel_east_m_s": 9.3504, "vel_down_m_s": -0.5948, "usable_for_triangulation": true}
{"run_id": "SIM_TEST", "kraken_seq": 205, "telemetry_seq": 128, "t_rx_ms": 1774641679000, "dt_ms": 16, "doa_deg": 227.0, "confidence_0_1": 0.20067843961266407, "lat_deg": 33.99115863643269, "lon_deg": -118.00355066036039, "altitude_rel_ft": 51.3837, "yaw_deg": 142.6159, "pitch_deg": -3.8586, "roll_deg": -6.9093, "ground_speed_ft_s": 39.3009, "vel_north_m_s": 5.3006, "vel_east_m_s": 4.674, "vel_down_m_s": 0.2597, "usable_for_triangulation": false}
{"run_id": "SIM_TEST", "kraken_seq": 206, "telemetry_seq": 129, "t_rx_ms": 1774641679101, "dt_ms": 15, "doa_deg": 95.0, "confidence_0_1": 0.8325251054667168, "lat_deg": 34.002969290776136, "lon_deg": -118.00875841807144, "altitude_rel_ft": 28.3653, "yaw_deg": 33.7209, "pitch_deg": 8.4673, "roll_deg": 1.9382, "ground_speed_ft_s": 23.8059, "vel_north_m_s": -6.5776, "vel_east_m_s": 0.8639, "vel_down_m_s": -0.5324, "usable_for_triangulation": true}
{"run_id": "SIM_TEST", "kraken_seq": 207, "telemetry_seq": 130, "t_rx_ms": 1774641679201, "dt_ms": 15, "doa_deg": 301.0, "confidence_0_1": 0.990672931131298, "lat_deg": 34.009059029656235, "lon_deg": -117.99404227288657, "altitude_rel_ft": 51.2611, "yaw_deg": 343.2692, "pitch_deg": 7.896, "roll_deg": -4.7759, "ground_speed_ft_s": 20.8111, "vel_north_m_s": 8.5074, "vel_east_m_s": -1.9672, "vel_down_m_s": 0.941, "usable_for_triangulation": true}
