{"run_id": "SIM_TEST", "kraken_seq": 137, "telemetry_seq": 0, "t_rx_ms": 1775685327732, "dt_ms": 179, "doa_deg": 86.0, "confidence_0_1": 0.5739028923117014, "lat_deg": 34.007533369131146, "lon_deg": -117.9904121545765, "altitude_rel_ft": 71.6074, "yaw_deg": 266.7508, "pitch_deg": -6.2841, "roll_deg": 3.6997, "ground_speed_ft_s": 10.9473, "vel_north_m_s": 0.1331, "vel_east_m_s": 8.6789, "vel_down_m_s": -0.1757, "usable_for_triangulation": true}
{"run_id": "SIM_TEST", "kraken_seq": 138, "telemetry_seq": 0, "t_rx_ms": 1775685327833, "dt_ms": 78, "doa_deg": 268.0, "confidence_0_1": 0.11805743319324924, "lat_deg": 34.007533369131146, "lon_deg": -117.9904121545765, "altitude_rel_ft": 71.6074, "yaw_deg": 266.7508, "pitch_deg": -6.2841, "roll_deg": 3.6997, "ground_speed_ft_s": 10.9473, "vel_north_m_s": 0.1331, "vel_east_m_s": 8.6789, "vel_down_m_s": -0.1757, "usable_for_triangulation": false}
{"run_id": "SIM_TEST", "kraken_seq": 139, "telemetry_seq": 0, "t_rx_ms": 1775685327934, "dt_ms": -23, "doa_deg": 255.0, "confidence_0_1": 0.8209337368283276, "lat_deg": 34.007533369131146, "lon_deg": -117.9904121545765, "altitude_rel_ft": 71.6074, "yaw_deg": 266.7508, "pitch_deg": -6.2841, "roll_deg": 3.6997, "ground_speed_ft_s": 10.9473, "vel_north_m_s": 0.1331, "vel_east_m_s": 8.6789, "vel_down_m_s": -0.1757, "usable_for_triangulation": true}
{"run_id": "SIM_TEST", "kraken_seq": 140, "telemetry_seq": 1, "t_rx_ms": 1775685328034, "dt_ms": -22, "doa_deg": 37.0, "confidence_0_1": 0.8597330741666815, "lat_deg": 34.00592917548967, "lon_deg": -118.0029580449935, "altitude_rel_ft": 21.6183, "yaw_deg": 354.502, "pitch_deg": 9.6614, "roll_deg": -14.3666, "ground_speed_ft_s": 9.2487, "vel_north_m_s": -6.2673, "vel_east_m_s": -2.4233, "vel_down_m_s": 0.8439, "usable_for_triangulation": true}
{"run_id": "SIM_TEST", "kraken_seq": 141, "telemetry_seq": 2, "t_rx_ms": 1775685328135, "dt_ms": -19, "doa_deg": 69.0, "confidence_0_1": 0.568125039198818, "lat_deg": 34.000443156123886, "lon_deg": -118.00795150449106, "altitude_rel_ft": 70.0586, "yaw_deg": 134.8158, "pitch_deg": 8.4029, "roll_deg": -12.8345, "ground_speed_ft_s": 57.6271, "vel_north_m_s": -9.883, "vel_east_m_s": -7.0176, "vel_down_m_s": -0.1006, "usable_for_triangulation": true}
{"run_id": "SIM_TEST", "kraken_seq": 142, "telemetry_seq": 3, "t_rx_ms": 1775685328236, "dt_ms": -19, "doa_deg": 48.0, "confidence_0_1": 0.32314513612097173, "lat_deg": 34.00086638430693, "lon_deg": -118.00825336152735, "altitude_rel_ft": 40.9345, "yaw_deg": 263.4391, "pitch_deg": 4.3217, "roll_deg": -6.8367, "ground_speed_ft_s": 36.4668, "vel_north_m_s": -7.5822, "vel_east_m_s": -3.0545, "vel_down_m_s": -0.7562, "usable_for_triangulation": true}
{"run_id": "SIM_TEST", "kraken_seq": 143, "telemetry_seq": 4, "t_rx_ms": 1775685328338, "dt_ms": -19, "doa_deg": 146.0, "confidence_0_1": 0.5980034832099916, "lat_deg": 33.99712185556841, "lon_deg": -118.0011815927155, "altitude_rel_ft": 32.2621, "yaw_deg": 257.6817, "pitch_deg": -1.2834, "roll_deg": 12.5551, "ground_speed_ft_s": 56.1972, "vel_north_m_s": 2.1315, "vel_east_m_s": 2.2751, "vel_down_m_s": -0.034, "usable_for_triangulation": true}
{"run_id": "SIM_TEST", "kraken_seq": 144, "telemetry_seq": 5, "t_rx_ms": 1775685328439, "dt_ms": -19, "doa_deg": 101.0, "confidence_0_1": 0.3296883853431579, "lat_deg": 33.9908289612824, "lon_deg": -117.99797069978753, "altitude_rel_ft": 67.2338, "yaw_deg": 191.9863, "pitch_deg": 5.3863, "roll_deg": -13.3218, "ground_speed_ft_s": 54.0554, "vel_north_m_s": 7.2834, "vel_east_m_s": 1.0848, "vel_down_m_s": -0.7215, "usable_for_triangulation": true}
{"run_id": "SIM_TEST", "kraken_seq": 145, "telemetry_seq": 6, "t_rx_ms": 1775685328541, "dt_ms": -20, "doa_deg": 80.0, "confidence_0_1": 0.30766991188338555, "lat_deg": 34.00731224215719, "lon_deg": -118.00057057090059, "altitude_rel_ft": 68.7658, "yaw_deg": 347.7563, "pitch_deg": 7.2611, "roll_deg": 7.469, "ground_speed_ft_s": 8.8916, "vel_north_m_s": 9.233, "vel_east_m_s": 2.6247, "vel_down_m_s": 0.8846, "usable_for_triangulation": true}
{"run_id": "SIM_TEST", "kraken_seq": 146, "telemetry_seq": 7, "t_rx_ms": 1775685328641, "dt_ms": -20, "doa_deg": 31.0, "confidence_0_1": 0.4072106479578601, "lat_deg": 34.00861335143716, "lon_deg": -117.99048321430364, "altitude_rel_ft": 86.6775, "yaw_deg": 302.8205, "pitch_deg": 1.9889, "roll_deg": -3.8333, "ground_speed_ft_s": 29.1779, "vel_north_m_s": 8.8752, "vel_east_m_s": -7.0845, "vel_down_m_s": -0.1893, "usable_for_triangulation": true}
{"run_id": "SIM_TEST", "kraken_seq": 147, "telemetry_seq": 8, "t_rx_ms": 1775685328742, "dt_ms": -20, "doa_deg": 217.0, "confidence_0_1": 0.9091378672125129, "lat_deg": 33.99777328743428, "lon_deg": -118.00474807397313, "altitude_rel_ft": 74.4282, "yaw_deg": 229.3057, "pitch_deg": 4.5042, "roll_deg": -6.3151, "ground_speed_ft_s": 25.0712, "vel_north_m_s": 1.907, "vel_east_m_s": 7.8408, "vel_down_m_s": 0.4845, "usable_for_triangulation": true}
{"run_id": "SIM_TEST", "kraken_seq": 148, "telemetry_seq": 9, "t_rx_ms": 1775685328843, "dt_ms": -20, "doa_deg": 184.0, "confidence_0_1": 0.5469086083151239, "lat_deg": 34.00697056781263, "lon_deg": -117.99987326545052, "altitude_rel_ft": 35.3669, "yaw_deg": 332.8816, "pitch_deg": 8.619, "roll_deg": -3.2396, "ground_speed_ft_s": 10.2767, "vel_north_m_s": -9.9021, "vel_east_m_s": 8.5139, "vel_down_m_s": 0.6946, "usable_for_triangulation": true}
{"run_id": "SIM_TEST", "kraken_seq": 149, "telemetry_seq": 10, "t_rx_ms": 1775685328943, "dt_ms": -19, "doa_deg": 161.0, "confidence_0_1": 0.9804936287715603, "lat_deg": 33.9958938257532, "lon_deg": -118.00478535466418, "altitude_rel_ft": 55.6664, "yaw_deg": 166.1959, "pitch_deg": 1.2011, "roll_deg": 7.2256, "ground_speed_ft_s": 33.6197, "vel_north_m_s": 7.2629, "vel_east_m_s": -2.56, "vel_down_m_s": -0.3694, "usable_for_triangulation": true}
{"run_id": "SIM_TEST", "kraken_seq": 150, "telemetry_seq": 11, "t_rx_ms": 1775685329044, "dt_ms": -20, "doa_deg": 66.0, "confidence_0_1": 0.268811163524295, "lat_deg": 33.99810783672947, "lon_deg": -117.99668856725758, "altitude_rel_ft": 25.0606, "yaw_deg": 237.2301, "pitch_deg": -4.998, "roll_deg": -0.423, "ground_speed_ft_s": 15.5904, "vel_north_m_s": 6.3418, "vel_east_m_s": -2.8126, "vel_down_m_s": -0.1467, "usable_for_triangulation": false}
{"run_id": "SIM_TEST", "kraken_seq": 151, "telemetry_seq": 12, "t_rx_ms": 1775685329145, "dt_ms": -20, "doa_deg": 121.0, "confidence_0_1": 0.9940958461121263, "lat_deg": 34.00468686669806, "lon_deg": -117.99710822744241, "altitude_rel_ft": 90.373, "yaw_deg": 269.55, "pitch_deg": -5.9992, "roll_deg": -8.6708, "ground_speed_ft_s": 35.9117, "vel_north_m_s": -5.8744, "vel_east_m_s": 0.5729, "vel_down_m_s": -0.3576, "usable_for_triangulation": true}
{"run_id": "SIM_TEST", "kraken_seq": 152, "telemetry_seq": 13, "t_rx_ms": 1775685329245, "dt_ms": -19, "doa_deg": 154.0, "confidence_0_1": 0.051940869677030266, "lat_deg": 34.00355950355004, "lon_deg": -118.00973443051993, "altitude_rel_ft": 99.7347, "yaw_deg": 276.1338, "pitch_deg": -7.623, "roll_deg": 9.5879, "ground_speed_ft_s": 30.8633, "vel_north_m_s": 5.2984, "vel_east_m_s": -6.5254, "vel_down_m_s": -0.6677, "usable_for_triangulation": false}
{"run_id": "SIM_TEST", "kraken_seq": 153, "telemetry_seq": 14, "t_rx_ms": 1775685329346, "dt_ms": -19, "doa_deg": 75.0, "confidence_0_1": 0.8227940081034693, "lat_deg": 33.99327883312229, "lon_deg": -117.993129935493, "altitude_rel_ft": 53.1925, "yaw_deg": 27.4342, "pitch_deg": -3.2035, "roll_deg": 9.1757, "ground_speed_ft_s": 7.1015, "vel_north_m_s": -8.7017, "vel_east_m_s": -5.612, "vel_down_m_s": -0.8163, "usable_for_triangulation": true}
{"run_id": "SIM_TEST", "kraken_seq": 154, "telemetry_seq": 15, "t_rx_ms": 1775685329447, "dt_ms": -20, "doa_deg": 270.0, "confidence_0_1": 0.6384214418476979, "lat_deg": 34.006976954127786, "lon_deg": -117.99727053170132, "altitude_rel_ft": 26.9049, "yaw_deg": 347.4822, "pitch_deg": -7.8339, "roll_deg": 2.7964, "ground_speed_ft_s": 30.0078, "vel_north_m_s": -7.0861, "vel_east_m_s": 8.8902, "vel_down_m_s": -0.0389, "usable_for_triangulation": true}
{"run_id": "SIM_TEST", "kraken_seq": 155, "telemetry_seq": 16, "t_rx_ms": 1775685329548, "dt_ms": -20, "doa_deg": 40.0, "confidence_0_1": 0.9217509989737446, "lat_deg": 33.990660816253175, "lon_deg": -118.00467842168902, "altitude_rel_ft": 44.8095, "yaw_deg": 306.2244, "pitch_deg": 9.768, "roll_deg": 0.7897, "ground_speed_ft_s": 11.3001, "vel_north_m_s": 9.8482, "vel_east_m_s": 9.6433, "vel_down_m_s": 0.1418, "usable_for_triangulation": true}
{"run_id": "SIM_TEST", "kraken_seq": 156, "telemetry_seq": 17, "t_rx_ms": 1775685329649, "dt_ms": -20, "doa_deg": 114.0, "confidence_0_1": 0.13110123200562984, "lat_deg": 33.99009347088045, "lon_deg": -118.00062044381616, "altitude_rel_ft": 90.6013, "yaw_deg": 296.7381, "pitch_deg": -7.7817, "roll_deg": 3.4444, "ground_speed_ft_s": 26.2179, "vel_north_m_s": 3.816, "vel_east_m_s": 8.7699, "vel_down_m_s": -0.5466, "usable_for_triangulation": false}
{"run_id": "SIM_TEST", "kraken_seq": 157, "telemetry_seq": 18, "t_rx_ms": 1775685329750, "dt_ms": -20, "doa_deg": 203.0, "confidence_0_1": 0.7208334235229015, "lat_deg": 33.99232801769298, "lon_deg": -118.00869992006727, "altitude_rel_ft": 52.2457, "yaw_deg": 161.4677, "pitch_deg": -8.5998, "roll_deg": 3.0183, "ground_speed_ft_s": 24.2832, "vel_north_m_s": -3.6287, "vel_east_m_s": -3.4094, "vel_down_m_s": 0.535, "usable_for_triangulation": true}
{"run_id": "SIM_TEST", "kraken_seq": 158, "telemetry_seq": 19, "t_rx_ms": 1775685329851, "dt_ms": -21, "doa_deg": 352.0, "confidence_0_1": 0.4835840896327984, "lat_deg": 34.00936122137411, "lon_deg": -118.00185081924566, "altitude_rel_ft": 74.7804, "yaw_deg": 229.0635, "pitch_deg": 8.389, "roll_deg": -8.9574, "ground_speed_ft_s": 38.5985, "vel_north_m_s": 3.9961, "vel_east_m_s": -9.4767, "vel_down_m_s": -0.798, "usable_for_triangulation": true}
{"run_id": "SIM_TEST", "kraken_seq": 159, "telemetry_seq": 20, "t_rx_ms": 1775685329952, "dt_ms": -21, "doa_deg": 100.0, "confidence_0_1": 0.6539694863279404, "lat_deg": 34.00618240710911, "lon_deg": -117.99334038617911, "altitude_rel_ft": 79.6821, "yaw_deg": 171.6408, "pitch_deg": -5.8331, "roll_deg": -12.5734, "ground_speed_ft_s": 26.9617, "vel_north_m_s": 8.3648, "vel_east_m_s": 6.0692, "vel_down_m_s": 0.4562, "usable_for_triangulation": true}
{"run_id": "SIM_TEST", "kraken_seq": 160, "telemetry_seq": 21, "t_rx_ms": 1775685330052, "dt_ms": -21, "doa_deg": 269.0, "confidence_0_1": 0.4490320000277971, "lat_deg": 34.00357637563428, "lon_deg": -118.00097266265061, "altitude_rel_ft": 88.057, "yaw_deg": 267.1792, "pitch_deg": -4.2349, "roll_deg": 9.914, "ground_speed_ft_s": 10.1305, "vel_north_m_s": -4.8694, "vel_east_m_s": 0.8511, "vel_down_m_s": 0.1319, "usable_for_triangulation": true}
{"run_id": "SIM_TEST", "kraken_seq": 161, "telemetry_seq": 22, "t_rx_ms": 1775685330153, "dt_ms": -21, "doa_deg": 121.0, "confidence_0_1": 0.9623335449222649, "lat_deg": 34.002147703796446, "lon_deg": -117.99489234530942, "altitude_rel_ft": 28.2916, "yaw_deg": 297.5371, "pitch_deg": -1.4008, "roll_deg": 14.0046, "ground_speed_ft_s": 55.6492, "vel_north_m_s": -7.6057, "vel_east_m_s": -5.5241, "vel_down_m_s": 0.3547, "usable_for_triangulation": true}
{"run_id": "SIM_TEST", "kraken_seq": 162, "telemetry_seq": 23, "t_rx_ms": 1775685330253, "dt_ms": -20, "doa_deg": 201.0, "confidence_0_1": 0.10276157337536806, "lat_deg": 33.99832761104851, "lon_deg": -118.00795661464879, "altitude_rel_ft": 85.3103, "yaw_deg": 86.4856, "pitch_deg": -4.4071, "roll_deg": -11.2309, "ground_speed_ft_s": 43.0085, "vel_north_m_s": -3.3597, "vel_east_m_s": 8.4977, "vel_down_m_s": -0.9824, "usable_for_triangulation": false}
{"run_id": "SIM_TEST", "kraken_seq": 163, "telemetry_seq": 24, "t_rx_ms": 1775685330354, "dt_ms": -21, "doa_deg": 112.0, "confidence_0_1": 0.24494331690194315, "lat_deg": 34.00362916657489, "lon_deg": -117.99680283412701, "altitude_rel_ft": 53.9911, "yaw_deg": 149.4938, "pitch_deg": -6.4503, "roll_deg": 7.6117, "ground_speed_ft_s": 6.8117, "vel_north_m_s": 8.4453, "vel_east_m_s": 4.009, "vel_down_m_s": -0.7032, "usable_for_triangulation": false}
{"run_id": "SIM_TEST", "kraken_seq": 164, "telemetry_seq": 25, "t_rx_ms": 1775685330455, "dt_ms": -21, "doa_deg": 80.0, "confidence_0_1": 0.8088897615902501, "lat_deg": 34.00223859131527, "lon_deg": -118.00879285896671, "altitude_rel_ft": 49.2563, "yaw_deg": 311.4706, "pitch_deg": -3.0275, "roll_deg": -4.0557, "ground_speed_ft_s": 45.8634, "vel_north_m_s": -0.7999, "vel_east_m_s": -8.573, "vel_down_m_s": 0.0598, "usable_for_triangulation": true}
{"run_id": "SIM_TEST", "kraken_seq": 165, "telemetry_seq": 26, "t_rx_ms": 1775685330556, "dt_ms": -21, "doa_deg": 356.0, "confidence_0_1": 0.5346336034545064, "lat_deg": 34.00797592909589, "lon_deg": -118.00521583083477, "altitude_rel_ft": 93.9474, "yaw_deg": 178.0321, "pitch_deg": 9.5518, "roll_deg": 5.4621, "ground_speed_ft_s": 5.8938, "vel_north_m_s": 0.5873, "vel_east_m_s": -1.4146, "vel_down_m_s": -0.1493, "usable_for_triangulation": true}
{"run_id": "SIM_TEST", "kraken_seq": 166, "telemetry_seq": 27, "t_rx_ms": 1775685330657, "dt_ms": -21, "doa_deg": 276.0, "confidence_0_1": 0.5232946070796307, "lat_deg": 34.00488497922937, "lon_deg": -118.00345803308932, "altitude_rel_ft": 49.1619, "yaw_deg": 214.0769, "pitch_deg": -9.716, "roll_deg": -8.0272, "ground_speed_ft_s": 21.7016, "vel_north_m_s": 2.2914, "vel_east_m_s": -9.3696, "vel_down_m_s": 0.0486, "usable_for_triangulation": true}
{"run_id": "SIM_TEST", "kraken_seq": 167, "telemetry_seq": 28, "t_rx_ms": 1775685330758, "dt_ms": -21, "doa_deg": 270.0, "confidence_0_1": 0.4638287522334512, "lat_deg": 33.99462989471238, "lon_deg": -118.00916505806427, "altitude_rel_ft": 84.9032, "yaw_deg": 12.5741, "pitch_deg": -3.5789, "roll_deg": 12.5103, "ground_speed_ft_s": 50.7756, "vel_north_m_s": 4.6814, "vel_east_m_s": -9.1313, "vel_down_m_s": 0.6993, "usable_for_triangulation": true}
{"run_id": "SIM_TEST", "kraken_seq": 168, "telemetry_seq": 29, "t_rx_ms": 1775685330859, "dt_ms": -20, "doa_deg": 280.0, "confidence_0_1": 0.4330743314210226, "lat_deg": 33.993685221127656, "lon_deg": -118.00097245988849, "altitude_rel_ft": 81.202, "yaw_deg": 274.3083, "pitch_deg": 4.9596, "roll_deg": -8.7512, "ground_speed_ft_s": 11.8805, "vel_north_m_s": 7.591, "vel_east_m_s": -8.8526, "vel_down_m_s": 0.5285, "usable_for_triangulation": true}
{"run_id": "SIM_TEST", "kraken_seq": 169, "telemetry_seq": 30, "t_rx_ms": 1775685330961, "dt_ms": -22, "doa_deg": 170.0, "confidence_0_1": 0.694497106161961, "lat_deg": 33.99672150226529, "lon_deg": -117.9985337397409, "altitude_rel_ft": 52.806, "yaw_deg": 54.1271, "pitch_deg": -4.8254, "roll_deg": 9.6428, "ground_speed_ft_s": 53.3374, "vel_north_m_s": -7.9661, "vel_east_m_s": 1.9598, "vel_down_m_s": 0.2661, "usable_for_triangulation": true}
{"run_id": "SIM_TEST", "kraken_seq": 170, "telemetry_seq": 31, "t_rx_ms": 1775685331061, "dt_ms": -20, "doa_deg": 329.0, "confidence_0_1": 0.044981196815419566, "lat_deg": 33.99121122431475, "lon_deg": -117.99016845649689, "altitude_rel_ft": 41.2902, "yaw_deg": 89.626, "pitch_deg": -8.4893, "roll_deg": -14.1862, "ground_speed_ft_s": 44.5412, "vel_north_m_s": 2.8439, "vel_east_m_s": -1.8887, "vel_down_m_s": 0.5704, "usable_for_triangulation": false}
{"run_id": "SIM_TEST", "kraken_seq": 171, "telemetry_seq": 32, "t_rx_ms": 1775685331163, "dt_ms": -22, "doa_deg": 15.0, "confidence_0_1": 0.3513793703927187, "lat_deg": 34.00299390336454, "lon_deg": -118.00111962636544, "altitude_rel_ft": 88.7472, "yaw_deg": 231.2752, "pitch_deg": -3.8073, "roll_deg": 3.8672, "ground_speed_ft_s": 45.1881, "vel_north_m_s": 3.7139, "vel_east_m_s": -9.6031, "vel_down_m_s": 0.1908, "usable_for_triangulation": true}
{"run_id": "SIM_TEST", "kraken_seq": 172, "telemetry_seq": 33, "t_rx_ms": 1775685331263, "dt_ms": -21, "doa_deg": 244.0, "confidence_0_1": 0.748777239269159, "lat_deg": 33.99680840221323, "lon_deg": -118.00686388801596, "altitude_rel_ft": 36.1719, "yaw_deg": 140.9402, "pitch_deg": 0.6307, "roll_deg": -8.9314, "ground_speed_ft_s": 32.3339, "vel_north_m_s": 0.6626, "vel_east_m_s": -5.9536, "vel_down_m_s": -0.927, "usable_for_triangulation": true}
{"run_id": "SIM_TEST", "kraken_seq": 173, "telemetry_seq": 34, "t_rx_ms": 1775685331364, "dt_ms": -22, "doa_deg": 256.0, "confidence_0_1": 0.2587589426707737, "lat_deg": 33.99025759495618, "lon_deg": -118.0029900197196, "altitude_rel_ft": 70.3704, "yaw_deg": 259.732, "pitch_deg": 4.7321, "roll_deg": -6.7582, "ground_speed_ft_s": 37.75, "vel_north_m_s": -1.1121, "vel_east_m_s": -3.9536, "vel_down_m_s": -0.312, "usable_for_triangulation": false}
{"run_id": "SIM_TEST", "kraken_seq": 174, "telemetry_seq": 35, "t_rx_ms": 1775685331465, "dt_ms": -22, "doa_deg": 52.0, "confidence_0_1": 0.27282524523217855, "lat_deg": 34.00339249135496, "lon_deg": -118.00548888874272, "altitude_rel_ft": 78.8821, "yaw_deg": 84.1621, "pitch_deg": -3.6601, "roll_deg": -7.22, "ground_speed_ft_s": 24.3904, "vel_north_m_s": -9.0107, "vel_east_m_s": -7.2839, "vel_down_m_s": 0.1263, "usable_for_triangulation": false}
{"run_id": "SIM_TEST", "kraken_seq": 175, "telemetry_seq": 36, "t_rx_ms": 1775685331566, "dt_ms": -22, "doa_deg": 283.0, "confidence_0_1": 0.6376534312388965, "lat_deg": 34.00076655673318, "lon_deg": -118.0035479860782, "altitude_rel_ft": 91.1023, "yaw_deg": 203.4022, "pitch_deg": -6.6527, "roll_deg": 9.2439, "ground_speed_ft_s": 48.6595, "vel_north_m_s": -0.6333, "vel_east_m_s": 3.0305, "vel_down_m_s": 0.1517, "usable_for_triangulation": true}
{"run_id": "SIM_TEST", "kraken_seq": 176, "telemetry_seq": 37, "t_rx_ms": 1775685331667, "dt_ms": -22, "doa_deg": 25.0, "confidence_0_1": 0.4280896665254602, "lat_deg": 34.004756675360724, "lon_deg": -117.99352535161239, "altitude_rel_ft": 72.5535, "yaw_deg": 173.1097, "pitch_deg": 6.6987, "roll_deg": -8.6588, "ground_speed_ft_s": 14.5275, "vel_north_m_s": -3.9344, "vel_east_m_s": 3.7152, "vel_down_m_s": -0.6785, "usable_for_triangulation": true}
{"run_id": "SIM_TEST", "kraken_seq": 177, "telemetry_seq": 38, "t_rx_ms": 1775685331768, "dt_ms": -22, "doa_deg": 227.0, "confidence_0_1": 0.6387283529227108, "lat_deg": 33.99332424974256, "lon_deg": -117.99629212882168, "altitude_rel_ft": 90.6352, "yaw_deg": 101.2838, "pitch_deg": -3.4672, "roll_deg": 8.8849, "ground_speed_ft_s": 11.3933, "vel_north_m_s": -6.1926, "vel_east_m_s": -2.534, "vel_down_m_s": 0.3546, "usable_for_triangulation": true}
{"run_id": "SIM_TEST", "kraken_seq": 178, "telemetry_seq": 39, "t_rx_ms": 1775685331869, "dt_ms": -22, "doa_deg": 317.0, "confidence_0_1": 0.7399039287128786, "lat_deg": 33.996276849471414, "lon_deg": -118.00870038954278, "altitude_rel_ft": 29.1231, "yaw_deg": 2.8304, "pitch_deg": 7.4445, "roll_deg": -11.1153, "ground_speed_ft_s": 13.9555, "vel_north_m_s": -5.5668, "vel_east_m_s": -1.4008, "vel_down_m_s": -0.5853, "usable_for_triangulation": true}
{"run_id": "SIM_TEST", "kraken_seq": 179, "telemetry_seq": 40, "t_rx_ms": 1775685331970, "dt_ms": -22, "doa_deg": 13.0, "confidence_0_1": 0.8896000621506764, "lat_deg": 34.00411736106358, "lon_deg": -118.00733177709468, "altitude_rel_ft": 21.9934, "yaw_deg": 200.4946, "pitch_deg": -3.1255, "roll_deg": -12.562, "ground_speed_ft_s": 51.0829, "vel_north_m_s": -7.6099, "vel_east_m_s": -9.6374, "vel_down_m_s": 0.3374, "usable_for_triangulation": true}
{"run_id": "SIM_TEST", "kraken_seq": 180, "telemetry_seq": 41, "t_rx_ms": 1775685332071, "dt_ms": -22, "doa_deg": 280.0, "confidence_0_1": 0.012684207791331836, "lat_deg": 33.995432521940884, "lon_deg": -118.00745162661163, "altitude_rel_ft": 89.447, "yaw_deg": 124.9627, "pitch_deg": 3.014, "roll_deg": 6.0208, "ground_speed_ft_s": 13.8843, "vel_north_m_s": 8.2383, "vel_east_m_s": 5.289, "vel_down_m_s": -0.9691, "usable_for_triangulation": false}
{"run_id": "SIM_TEST", "kraken_seq": 181, "telemetry_seq": 42, "t_rx_ms": 1775685332172, "dt_ms": -22, "doa_deg": 237.0, "confidence_0_1": 0.48079029898575043, "lat_deg": 33.990946152976, "lon_deg": -117.99920304115021, "altitude_rel_ft": 83.1564, "yaw_deg": 311.7396, "pitch_deg": 1.962, "roll_deg": -1.7852, "ground_speed_ft_s": 24.1091, "vel_north_m_s": -4.5639, "vel_east_m_s": -7.7802, "vel_down_m_s": 0.8187, "usable_for_triangulation": true}
{"run_id": "SIM_TEST", "kraken_seq": 182, "telemetry_seq": 43, "t_rx_ms": 1775685332273, "dt_ms": -22, "doa_deg": 212.0, "confidence_0_1": 0.1553512329824729, "lat_deg": 33.995226354570235, "lon_deg": -118.00088544803945, "altitude_rel_ft": 47.5926, "yaw_deg": 219.5943, "pitch_deg": 4.2433, "roll_deg": -11.3939, "ground_speed_ft_s": 36.9333, "vel_north_m_s": 3.3199, "vel_east_m_s": 4.1888, "vel_down_m_s": 0.6195, "usable_for_triangulation": false}
{"run_id": "SIM_TEST", "kraken_seq": 183, "telemetry_seq": 44, "t_rx_ms": 1775685332375, "dt_ms": -24, "doa_deg": 160.0, "confidence_0_1": 0.9786204148287994, "lat_deg": 34.00575644269476, "lon_deg": -117.9967957802106, "altitude_rel_ft": 52.541, "yaw_deg": 201.8242, "pitch_deg": 9.1384, "roll_deg": 7.7833, "ground_speed_ft_s": 59.4116, "vel_north_m_s": 0.7052, "vel_east_m_s": 2.6805, "vel_down_m_s": 0.8632, "usable_for_triangulation": true}
{"run_id": "SIM_TEST", "kraken_seq": 184, "telemetry_seq": 45, "t_rx_ms": 1775685332476, "dt_ms": -23, "doa_deg": 91.0, "confidence_0_1": 0.33391268873326296, "lat_deg": 34.00332203472366, "lon_deg": -117.991284427709, "altitude_rel_ft": 36.1472, "yaw_deg": 226.1, "pitch_deg": -2.1531, "roll_deg": -10.8269, "ground_speed_ft_s": 18.8237, "vel_north_m_s": -1.8354, "vel_east_m_s": -0.9722, "vel_down_m_s": 0.3214, "usable_for_triangulation": true}
{"run_id": "SIM_TEST", "kraken_seq": 185, "telemetry_seq": 46, "t_rx_ms": 1775685332577, "dt_ms": -23, "doa_deg": 122.0, "confidence_0_1": 0.7822743901302945, "lat_deg": 34.00369056018456, "lon_deg": -117.99612356403597, "altitude_rel_ft": 35.5008, "yaw_deg": 337.3962, "pitch_deg": -6.887, "roll_deg": 6.2105, "ground_speed_ft_s": 33.1668, "vel_north_m_s": 6.9951, "vel_east_m_s": -3.6582, "vel_down_m_s": -0.4649, "usable_for_triangulation": true}
{"run_id": "SIM_TEST", "kraken_seq": 186, "telemetry_seq": 47, "t_rx_ms": 1775685332679, "dt_ms": -24, "doa_deg": 182.0, "confidence_0_1": 0.1979369260757059, "lat_deg": 34.00934125692032, "lon_deg": -117.99976102870444, "altitude_rel_ft": 70.9848, "yaw_deg": 130.8648, "pitch_deg": 1.9353, "roll_deg": -8.1284, "ground_speed_ft_s": 22.97, "vel_north_m_s": 7.9568, "vel_east_m_s": -5.7388, "vel_down_m_s": 0.4726, "usable_for_triangulation": false}
{"run_id": "SIM_TEST", "kraken_seq": 187, "telemetry_seq": 48, "t_rx_ms": 1775685332780, "dt_ms": -25, "doa_deg": 151.0, "confidence_0_1": 0.7477029214876634, "lat_deg": 33.999497238625096, "lon_deg": -117.9904205953914, "altitude_rel_ft": 32.8866, "yaw_deg": 338.8422, "pitch_deg": 0.3389, "roll_deg": 9.5893, "ground_speed_ft_s": 5.5932, "vel_north_m_s": -0.3106, "vel_east_m_s": 4.8832, "vel_down_m_s": 0.5895, "usable_for_triangulation": true}
{"run_id": "SIM_TEST", "kraken_seq": 188, "telemetry_seq": 49, "t_rx_ms": 1775685332880, "dt_ms": -24, "doa_deg": 26.0, "confidence_0_1": 0.38152084497913186, "lat_deg": 33.99854165001106, "lon_deg": -118.00156244584909, "altitude_rel_ft": 77.4108, "yaw_deg": 143.3123, "pitch_deg": -5.5855, "roll_deg": 11.9808, "ground_speed_ft_s": 13.2896, "vel_north_m_s": 1.9021, "vel_east_m_s": -8.7991, "vel_down_m_s": 0.3199, "usable_for_triangulation": true}
{"run_id": "SIM_TEST", "kraken_seq": 189, "telemetry_seq": 50, "t_rx_ms": 1775685332981, "dt_ms": -24, "doa_deg": 67.0, "confidence_0_1": 0.28679565958015474, "lat_deg": 33.99341174506504, "lon_deg": -117.99367860270955, "altitude_rel_ft": 52.1463, "yaw_deg": 258.9329, "pitch_deg": -1.3803, "roll_deg": 0.0387, "ground_speed_ft_s": 56.2368, "vel_north_m_s": -3.0761, "vel_east_m_s": -9.7688, "vel_down_m_s": -0.3015, "usable_for_triangulation": false}
{"run_id": "SIM_TEST", "kraken_seq": 190, "telemetry_seq": 51, "t_rx_ms": 1775685333082, "dt_ms": -23, "doa_deg": 40.0, "confidence_0_1": 0.38106449689885646, "lat_deg": 34.00130800740475, "lon_deg": -118.00018693031782, "altitude_rel_ft": 98.6785, "yaw_deg": 70.7891, "pitch_deg": 0.4958, "roll_deg": -13.0205, "ground_speed_ft_s": 21.5574, "vel_north_m_s": 7.6978, "vel_east_m_s": 0.1031, "vel_down_m_s": 0.9987, "usable_for_triangulation": true}
{"run_id": "SIM_TEST", "kraken_seq": 191, "telemetry_seq": 52, "t_rx_ms": 1775685333183, "dt_ms": -24, "doa_deg": 114.0, "confidence_0_1": 0.8483700272488243, "lat_deg": 34.000003320671766, "lon_deg": -117.99364941084865, "altitude_rel_ft": 77.0456, "yaw_deg": 217.8969, "pitch_deg": -1.2292, "roll_deg": 4.8426, "ground_speed_ft_s": 37.6659, "vel_north_m_s": 0.3628, "vel_east_m_s": -5.2128, "vel_down_m_s": 0.292, "usable_for_triangulation": true}
{"run_id": "SIM_TEST", "kraken_seq": 192, "telemetry_seq": 53, "t_rx_ms": 1775685333283, "dt_ms": -23, "doa_deg": 18.0, "confidence_0_1": 0.08815132503693723, "lat_deg": 34.008632918880316, "lon_deg": -117.99939718672184, "altitude_rel_ft": 71.2484, "yaw_deg": 100.7613, "pitch_deg": -3.4966, "roll_deg": -2.7249, "ground_speed_ft_s": 18.8811, "vel_north_m_s": 2.133, "vel_east_m_s": -4.0718, "vel_down_m_s": 0.8472, "usable_for_triangulation": false}
{"run_id": "SIM_TEST", "kraken_seq": 193, "telemetry_seq": 54, "t_rx_ms": 1775685333384, "dt_ms": -23, "doa_deg": 227.0, "confidence_0_1": 0.39609647097380374, "lat_deg": 33.995950026591714, "lon_deg": -118.00701998528693, "altitude_rel_ft": 47.2626, "yaw_deg": 184.4009, "pitch_deg": -1.3587, "roll_deg": -7.0578, "ground_speed_ft_s": 41.9332, "vel_north_m_s": 1.573, "vel_east_m_s": 3.0724, "vel_down_m_s": 0.4966, "usable_for_triangulation": true}
{"run_id": "SIM_TEST", "kraken_seq": 194, "telemetry_seq": 55, "t_rx_ms": 1775685333485, "dt_ms": -23, "doa_deg": 204.0, "confidence_0_1": 0.347502838720131, "lat_deg": 33.99275470038212, "lon_deg": -117.9926836453562, "altitude_rel_ft": 92.8522, "yaw_deg": 219.1583, "pitch_deg": -9.0458, "roll_deg": 2.3813, "ground_speed_ft_s": 34.4495, "vel_north_m_s": 9.8074, "vel_east_m_s": -0.8254, "vel_down_m_s": -0.1788, "usable_for_triangulation": true}
{"run_id": "SIM_TEST", "kraken_seq": 195, "telemetry_seq": 56, "t_rx_ms": 1775685333586, "dt_ms": -23, "doa_deg": 124.0, "confidence_0_1": 0.9117185648294247, "lat_deg": 33.99829407729424, "lon_deg": -117.99056514784948, "altitude_rel_ft": 27.2528, "yaw_deg": 352.5246, "pitch_deg": -8.2306, "roll_deg": 7.4949, "ground_speed_ft_s": 34.5514, "vel_north_m_s": 9.6901, "vel_east_m_s": 6.4019, "vel_down_m_s": -0.7917, "usable_for_triangulation": true}
{"run_id": "SIM_TEST", "kraken_seq": 196, "telemetry_seq": 57, "t_rx_ms": 1775685333687, "dt_ms": -23, "doa_deg": 124.0, "confidence_0_1": 0.1455651638780301, "lat_deg": 33.993745350141104, "lon_deg": -117.99687839977767, "altitude_rel_ft": 33.6372, "yaw_deg": 334.1817, "pitch_deg": -0.8095, "roll_deg": -10.1244, "ground_speed_ft_s": 33.0902, "vel_north_m_s": 5.8072, "vel_east_m_s": 1.2879, "vel_down_m_s": 0.4652, "usable_for_triangulation": false}
{"run_id": "SIM_TEST", "kraken_seq": 197, "telemetry_seq": 58, "t_rx_ms": 1775685333787, "dt_ms": -22, "doa_deg": 138.0, "confidence_0_1": 0.7685952678798491, "lat_deg": 33.997272856717515, "lon_deg": -118.00808619929896, "altitude_rel_ft": 84.9157, "yaw_deg": 34.4237, "pitch_deg": 4.2195, "roll_deg": -0.2201, "ground_speed_ft_s": 24.2731, "vel_north_m_s": 2.1557, "vel_east_m_s": 4.0817, "vel_down_m_s": -0.4065, "usable_for_triangulation": true}
{"run_id": "SIM_TEST", "kraken_seq": 198, "telemetry_seq": 59, "t_rx_ms": 1775685333888, "dt_ms": -22, "doa_deg": 48.0, "confidence_0_1": 0.004932159103213429, "lat_deg": 33.99471157243868, "lon_deg": -118.00278011864047, "altitude_rel_ft": 24.5932, "yaw_deg": 337.7596, "pitch_deg": -2.0479, "roll_deg": 6.1238, "ground_speed_ft_s": 56.9824, "vel_north_m_s": 4.0375, "vel_east_m_s": 7.9491, "vel_down_m_s": -0.581, "usable_for_triangulation": false}
{"run_id": "SIM_TEST", "kraken_seq": 199, "telemetry_seq": 60, "t_rx_ms": 1775685333989, "dt_ms": -21, "doa_deg": 23.0, "confidence_0_1": 0.4824812012890618, "lat_deg": 33.99418180157059, "lon_deg": -117.99522708361854, "altitude_rel_ft": 55.6472, "yaw_deg": 244.1487, "pitch_deg": 9.1904, "roll_deg": -1.747, "ground_speed_ft_s": 51.1023, "vel_north_m_s": -9.0527, "vel_east_m_s": 0.1739, "vel_down_m_s": 0.0921, "usable_for_triangulation": true}
{"run_id": "SIM_TEST", "kraken_seq": 200, "telemetry_seq": 61, "t_rx_ms": 1775685334090, "dt_ms": -21, "doa_deg": 274.0, "confidence_0_1": 0.9499989601696999, "lat_deg": 33.993688528027256, "lon_deg": -118.00353496535098, "altitude_rel_ft": 74.685, "yaw_deg": 263.7203, "pitch_deg": -7.7496, "roll_deg": 7.5009, "ground_speed_ft_s": 48.3918, "vel_north_m_s": -9.3443, "vel_east_m_s": 7.8422, "vel_down_m_s": -0.494, "usable_for_triangulation": true}
{"run_id": "SIM_TEST", "kraken_seq": 201, "telemetry_seq": 62, "t_rx_ms": 1775685334191, "dt_ms": -21, "doa_deg": 121.0, "confidence_0_1": 0.618439537496799, "lat_deg": 33.99859005099579, "lon_deg": -117.9924710895388, "altitude_rel_ft": 24.4494, "yaw_deg": 110.4262, "pitch_deg": 5.9701, "roll_deg": -0.5077, "ground_speed_ft_s": 37.0022, "vel_north_m_s": -9.4394, "vel_east_m_s": 2.1957, "vel_down_m_s": -0.2633, "usable_for_triangulation": true}
{"run_id": "SIM_TEST", "kraken_seq": 202, "telemetry_seq": 63, "t_rx_ms": 1775685334292, "dt_ms": -21, "doa_deg": 107.0, "confidence_0_1": 0.4679331121314765, "lat_deg": 34.00309871840598, "lon_deg": -117.99188988389746, "altitude_rel_ft": 40.7555, "yaw_deg": 250.3751, "pitch_deg": -7.9754, "roll_deg": 4.9031, "ground_speed_ft_s": 49.8796, "vel_north_m_s": 0.406, "vel_east_m_s": 7.2434, "vel_down_m_s": 0.2004, "usable_for_triangulation": true}
{"run_id": "SIM_TEST", "kraken_seq": 203, "telemetry_seq": 64, "t_rx_ms": 1775685334393, "dt_ms": -21, "doa_deg": 194.0, "confidence_0_1": 0.3794583979749794, "lat_deg": 34.00157226098942, "lon_deg": -117.99631254855234, "altitude_rel_ft": 64.7489, "yaw_deg": 190.9654, "pitch_deg": 7.5931, "roll_deg": -14.7991, "ground_speed_ft_s": 12.3004, "vel_north_m_s": -0.1022, "vel_east_m_s": 9.3995, "vel_down_m_s": 0.0731, "usable_for_triangulation": true}
{"run_id": "SIM_TEST", "kraken_seq": 204, "telemetry_seq": 65, "t_rx_ms": 1775685334494, "dt_ms": -21, "doa_deg": 157.0, "confidence_0_1": 0.5444305076567663, "lat_deg": 34.00149285340991, "lon_deg": -117.99673533796813, "altitude_rel_ft": 26.7067, "yaw_deg": 110.4014, "pitch_deg": 6.1638, "roll_deg": 10.5217, "ground_speed_ft_s": 57.3043, "vel_north_m_s": 2.2259, "vel_east_m_s": -5.9155, "vel_down_m_s": 0.9442, "usable_for_triangulation": true}
{"run_id": "SIM_TEST", "kraken_seq": 205, "telemetry_seq": 66, "t_rx_ms": 1775685334595, "dt_ms": -21, "doa_deg": 180.0, "confidence_0_1": 0.14431657956365773, "lat_deg": 34.000775621282834, "lon_deg": -117.99943532568106, "altitude_rel_ft": 45.4991, "yaw_deg": 170.057, "pitch_deg": -1.2127, "roll_deg": 9.2875, "ground_speed_ft_s": 15.4364, "vel_north_m_s": -8.392, "vel_east_m_s": -6.0011, "vel_down_m_s": 0.2466, "usable_for_triangulation": false}
{"run_id": "SIM_TEST", "kraken_seq": 206, "telemetry_seq": 67, "t_rx_ms": 1775685334696, "dt_ms": -21, "doa_deg": 232.0, "confidence_0_1": 0.624249825619714, "lat_deg": 34.00531932408608, "lon_deg": -118.00857350591059, "altitude_rel_ft": 27.6201, "yaw_deg": 254.9407, "pitch_deg": -3.0913, "roll_deg": -8.983, "ground_speed_ft_s": 53.3864, "vel_north_m_s": 0.6685, "vel_east_m_s": 2.9265, "vel_down_m_s": -0.2592, "usable_for_triangulation": true}
{"run_id": "SIM_TEST", "kraken_seq": 207, "telemetry_seq": 68, "t_rx_ms": 1775685334797, "dt_ms": -21, "doa_deg": 276.0, "confidence_0_1": 0.29152670173011996, "lat_deg": 33.99579559404863, "lon_deg": -118.00718655943379, "altitude_rel_ft": 96.7926, "yaw_deg": 210.5447, "pitch_deg": -3.2643, "roll_deg": -0.6573, "ground_speed_ft_s": 22.5811, "vel_north_m_s": 5.3833, "vel_east_m_s": -7.2152, "vel_down_m_s": 0.3077, "usable_for_triangulation": false}
{"run_id": "SIM_TEST", "kraken_seq": 208, "telemetry_seq": 69, "t_rx_ms": 1775685334898, "dt_ms": -21, "doa_deg": 25.0, "confidence_0_1": 0.7911802362918776, "lat_deg": 33.99126256487021, "lon_deg": -118.00296402300657, "altitude_rel_ft": 91.0237, "yaw_deg": 45.1698, "pitch_deg": -2.1524, "roll_deg": -10.774, "ground_speed_ft_s": 46.74, "vel_north_m_s": 9.8262, "vel_east_m_s": -5.7938, "vel_down_m_s": -0.4542, "usable_for_triangulation": true}
{"run_id": "SIM_TEST", "kraken_seq": 209, "telemetry_seq": 70, "t_rx_ms": 1775685334999, "dt_ms": -21, "doa_deg": 269.0, "confidence_0_1": 0.6162842389680562, "lat_deg": 33.992456688285664, "lon_deg": -117.9931038718603, "altitude_rel_ft": 82.0236, "yaw_deg": 268.6831, "pitch_deg": -6.6684, "roll_deg": 0.0782, "ground_speed_ft_s": 51.6594, "vel_north_m_s": -1.6219, "vel_east_m_s": -5.1418, "vel_down_m_s": -0.6571, "usable_for_triangulation": true}
{"run_id": "SIM_TEST", "kraken_seq": 210, "telemetry_seq": 71, "t_rx_ms": 1775685335100, "dt_ms": -21, "doa_deg": 137.0, "confidence_0_1": 0.06826608333017714, "lat_deg": 34.00512497852107, "lon_deg": -118.0001860971242, "altitude_rel_ft": 61.4745, "yaw_deg": 267.9381, "pitch_deg": 8.9186, "roll_deg": 13.0739, "ground_speed_ft_s": 45.6633, "vel_north_m_s": 6.0985, "vel_east_m_s": 7.4994, "vel_down_m_s": -0.7999, "usable_for_triangulation": false}
{"run_id": "SIM_TEST", "kraken_seq": 211, "telemetry_seq": 72, "t_rx_ms": 1775685335201, "dt_ms": -20, "doa_deg": 292.0, "confidence_0_1": 0.33229749964337807, "lat_deg": 34.00113633699842, "lon_deg": -117.99276466103912, "altitude_rel_ft": 39.535, "yaw_deg": 108.2147, "pitch_deg": 1.0759, "roll_deg": -13.6796, "ground_speed_ft_s": 31.232, "vel_north_m_s": -1.0261, "vel_east_m_s": -3.4294, "vel_down_m_s": -0.2521, "usable_for_triangulation": true}
{"run_id": "SIM_TEST", "kraken_seq": 212, "telemetry_seq": 73, "t_rx_ms": 1775685335302, "dt_ms": -20, "doa_deg": 9.0, "confidence_0_1": 0.42696790694991116, "lat_deg": 33.99433564648876, "lon_deg": -118.00102109781366, "altitude_rel_ft": 84.8954, "yaw_deg": 351.6301, "pitch_deg": -1.0448, "roll_deg": -11.1483, "ground_speed_ft_s": 37.9092, "vel_north_m_s": 3.1462, "vel_east_m_s": 0.9766, "vel_down_m_s": -0.4018, "usable_for_triangulation": true}
{"run_id": "SIM_TEST", "kraken_seq": 213, "telemetry_seq": 74, "t_rx_ms": 1775685335404, "dt_ms": -21, "doa_deg": 227.0, "confidence_0_1": 0.9871205405722331, "lat_deg": 34.00818977134221, "lon_deg": -118.00517749167922, "altitude_rel_ft": 95.2193, "yaw_deg": 344.8607, "pitch_deg": -3.1408, "roll_deg": 6.3183, "ground_speed_ft_s": 25.6843, "vel_north_m_s": -0.1583, "vel_east_m_s": -7.7769, "vel_down_m_s": -0.8838, "usable_for_triangulation": true}
{"run_id": "SIM_TEST", "kraken_seq": 214, "telemetry_seq": 75, "t_rx_ms": 1775685335506, "dt_ms": -22, "doa_deg": 314.0, "confidence_0_1": 0.37553386081457063, "lat_deg": 33.99210896297977, "lon_deg": -117.99192799011571, "altitude_rel_ft": 63.454, "yaw_deg": 1.4863, "pitch_deg": -3.2306, "roll_deg": -0.5995, "ground_speed_ft_s": 27.6816, "vel_north_m_s": 4.9163, "vel_east_m_s": 7.1667, "vel_down_m_s": 0.622, "usable_for_triangulation": true}
{"run_id": "SIM_TEST", "kraken_seq": 215, "telemetry_seq": 76, "t_rx_ms": 1775685335606, "dt_ms": -21, "doa_deg": 288.0, "confidence_0_1": 0.6413078448723936, "lat_deg": 34.00439121048517, "lon_deg": -118.00129362870318, "altitude_rel_ft": 76.5317, "yaw_deg": 24.1915, "pitch_deg": 1.3914, "roll_deg": -13.4931, "ground_speed_ft_s": 10.2905, "vel_north_m_s": -8.0155, "vel_east_m_s": 9.5501, "vel_down_m_s": 0.4764, "usable_for_triangulation": true}
{"run_id": "SIM_TEST", "kraken_seq": 216, "telemetry_seq": 77, "t_rx_ms": 1775685335708, "dt_ms": -22, "doa_deg": 177.0, "confidence_0_1": 0.9436424647170347, "lat_deg": 33.99366952660565, "lon_deg": -117.99275059885494, "altitude_rel_ft": 29.1218, "yaw_deg": 161.4615, "pitch_deg": -3.2619, "roll_deg": 0.7949, "ground_speed_ft_s": 17.5057, "vel_north_m_s": 9.5297, "vel_east_m_s": 8.976, "vel_down_m_s": 0.1998, "usable_for_triangulation": true}
{"run_id": "SIM_TEST", "kraken_seq": 217, "telemetry_seq": 78, "t_rx_ms": 1775685335808, "dt_ms": -22, "doa_deg": 74.0, "confidence_0_1": 0.19986081533093736, "lat_deg": 34.00524792431518, "lon_deg": -117.99601989628124, "altitude_rel_ft": 22.9793, "yaw_deg": 220.9417, "pitch_deg": 8.089, "roll_deg": 5.9462, "ground_speed_ft_s": 52.0973, "vel_north_m_s": -5.2138, "vel_east_m_s": -5.7568, "vel_down_m_s": -0.3579, "usable_for_triangulation": false}
{"run_id": "SIM_TEST", "kraken_seq": 218, "telemetry_seq": 79, "t_rx_ms": 1775685335909, "dt_ms": -21, "doa_deg": 68.0, "confidence_0_1": 0.7854567035408059, "lat_deg": 33.991253861469254, "lon_deg": -118.00930050906845, "altitude_rel_ft": 28.1826, "yaw_deg": 275.9294, "pitch_deg": -0.413, "roll_deg": -5.6005, "ground_speed_ft_s": 34.6853, "vel_north_m_s": 7.1674, "vel_east_m_s": -5.0417, "vel_down_m_s": 0.5289, "usable_for_triangulation": true}
{"run_id": "SIM_TEST", "kraken_seq": 219, "telemetry_seq": 80, "t_rx_ms": 1775685336010, "dt_ms": -21, "doa_deg": 14.0, "confidence_0_1": 0.5089886700367225, "lat_deg": 33.996121463153045, "lon_deg": -117.9913199255434, "altitude_rel_ft": 76.6983, "yaw_deg": 190.6037, "pitch_deg": 2.0726, "roll_deg": -2.4338, "ground_speed_ft_s": 45.8707, "vel_north_m_s": -6.3917, "vel_east_m_s": 0.8805, "vel_down_m_s": 0.7051, "usable_for_triangulation": true}
{"run_id": "SIM_TEST", "kraken_seq": 220, "telemetry_seq": 81, "t_rx_ms": 1775685336111, "dt_ms": -21, "doa_deg": 130.0, "confidence_0_1": 0.442412447764415, "lat_deg": 34.00773092131147, "lon_deg": -118.00838653159043, "altitude_rel_ft": 59.7166, "yaw_deg": 16.0888, "pitch_deg": -7.5263, "roll_deg": -13.7062, "ground_speed_ft_s": 28.5494, "vel_north_m_s": -7.1807, "vel_east_m_s": 3.1786, "vel_down_m_s": 0.882, "usable_for_triangulation": true}
{"run_id": "SIM_TEST", "kraken_seq": 221, "telemetry_seq": 82, "t_rx_ms": 1775685336211, "dt_ms": -20, "doa_deg": 256.0, "confidence_0_1": 0.9038219524417256, "lat_deg": 33.99939348618534, "lon_deg": -118.0055711076091, "altitude_rel_ft": 46.8795, "yaw_deg": 199.5731, "pitch_deg": 8.0668, "roll_deg": -9.175, "ground_speed_ft_s": 24.0089, "vel_north_m_s": -0.2864, "vel_east_m_s": -5.2342, "vel_down_m_s": -0.6022, "usable_for_triangulation": true}
{"run_id": "SIM_TEST", "kraken_seq": 222, "telemetry_seq": 83, "t_rx_ms": 1775685336312, "dt_ms": -21, "doa_deg": 119.0, "confidence_0_1": 0.4562715785049035, "lat_deg": 34.004105726244234, "lon_deg": -118.00977027018082, "altitude_rel_ft": 81.5758, "yaw_deg": 321.7527, "pitch_deg": -8.7068, "roll_deg": -8.8042, "ground_speed_ft_s": 34.928, "vel_north_m_s": 7.005, "vel_east_m_s": -7.1546, "vel_down_m_s": -0.4993, "usable_for_triangulation": true}
{"run_id": "SIM_TEST", "kraken_seq": 223, "telemetry_seq": 84, "t_rx_ms": 1775685336412, "dt_ms": -20, "doa_deg": 110.0, "confidence_0_1": 0.12016735153921976, "lat_deg": 33.990585010913996, "lon_deg": -117.99869807935302, "altitude_rel_ft": 26.3647, "yaw_deg": 85.1896, "pitch_deg": -7.8855, "roll_deg": 0.6795, "ground_speed_ft_s": 40.8972, "vel_north_m_s": -8.0323, "vel_east_m_s": -1.4526, "vel_down_m_s": 0.883, "usable_for_triangulation": false}
{"run_id": "SIM_TEST", "kraken_seq": 224, "telemetry_seq": 85, "t_rx_ms": 1775685336513, "dt_ms": -20, "doa_deg": 124.0, "confidence_0_1": 0.07466322476060283, "lat_deg": 34.009590601894246, "lon_deg": -118.00619083883325, "altitude_rel_ft": 42.4739, "yaw_deg": 172.2437, "pitch_deg": -2.3981, "roll_deg": 4.7479, "ground_speed_ft_s": 12.6627, "vel_north_m_s": -5.5776, "vel_east_m_s": 7.8454, "vel_down_m_s": -0.3917, "usable_for_triangulation": false}
{"run_id": "SIM_TEST", "kraken_seq": 225, "telemetry_seq": 86, "t_rx_ms": 1775685336613, "dt_ms": -19, "doa_deg": 274.0, "confidence_0_1": 0.2735902530790185, "lat_deg": 33.99778976186757, "lon_deg": -117.99833509477534, "altitude_rel_ft": 80.2837, "yaw_deg": 333.6395, "pitch_deg": 5.8449, "roll_deg": -13.2446, "ground_speed_ft_s": 58.974, "vel_north_m_s": 9.7755, "vel_east_m_s": -3.0417, "vel_down_m_s": 0.0591, "usable_for_triangulation": false}
{"run_id": "SIM_TEST", "kraken_seq": 226, "telemetry_seq": 87, "t_rx_ms": 1775685336714, "dt_ms": -19, "doa_deg": 163.0, "confidence_0_1": 0.7976509226983287, "lat_deg": 33.99812063224597, "lon_deg": -118.00903771566882, "altitude_rel_ft": 82.2502, "yaw_deg": 165.7359, "pitch_deg": 2.0032, "roll_deg": -7.6476, "ground_speed_ft_s": 41.2466, "vel_north_m_s": 4.351, "vel_east_m_s": 0.6666, "vel_down_m_s": -0.3507, "usable_for_triangulation": true}
{"run_id": "SIM_TEST", "kraken_seq": 227, "telemetry_seq": 88, "t_rx_ms": 1775685336815, "dt_ms": -19, "doa_deg": 172.0, "confidence_0_1": 0.8879364686260024, "lat_deg": 33.998700260635765, "lon_deg": -117.99604253779746, "altitude_rel_ft": 32.5295, "yaw_deg": 51.6905, "pitch_deg": 0.1713, "roll_deg": 14.0894, "ground_speed_ft_s": 20.9916, "vel_north_m_s": 2.4525, "vel_east_m_s": 5.2116, "vel_down_m_s": -0.9125, "usable_for_triangulation": true}
{"run_id": "SIM_TEST", "kraken_seq": 228, "telemetry_seq": 89, "t_rx_ms": 1775685336916, "dt_ms": -19, "doa_deg": 351.0, "confidence_0_1": 0.046793094925527634, "lat_deg": 34.00823349605989, "lon_deg": -118.00103405299492, "altitude_rel_ft": 53.0021, "yaw_deg": 180.3006, "pitch_deg": 5.6028, "roll_deg": 0.6446, "ground_speed_ft_s": 10.2131, "vel_north_m_s": 9.1197, "vel_east_m_s": -8.0396, "vel_down_m_s": 0.2141, "usable_for_triangulation": false}
{"run_id": "SIM_TEST", "kraken_seq": 229, "telemetry_seq": 90, "t_rx_ms": 1775685337017, "dt_ms": -19, "doa_deg": 282.0, "confidence_0_1": 0.8026565312949885, "lat_deg": 33.99639560922013, "lon_deg": -117.99007843543417, "altitude_rel_ft": 57.4959, "yaw_deg": 302.9544, "pitch_deg": 0.3728, "roll_deg": -6.4673, "ground_speed_ft_s": 38.8513, "vel_north_m_s": -5.856, "vel_east_m_s": 4.2655, "vel_down_m_s": 0.453, "usable_for_triangulation": true}
{"run_id": "SIM_TEST", "kraken_seq": 230, "telemetry_seq": 91, "t_rx_ms": 1775685337119, "dt_ms": -20, "doa_deg": 119.0, "confidence_0_1": 0.42656375008493275, "lat_deg": 33.99082448273737, "lon_deg": -117.99653091670929, "altitude_rel_ft": 95.9704, "yaw_deg": 85.5077, "pitch_deg": 7.1412, "roll_deg": -12.9994, "ground_speed_ft_s": 51.1619, "vel_north_m_s": -9.2621, "vel_east_m_s": -1.6684, "vel_down_m_s": 0.6818, "usable_for_triangulation": true}
{"run_id": "SIM_TEST", "kraken_seq": 231, "telemetry_seq": 92, "t_rx_ms": 1775685337219, "dt_ms": -19, "doa_deg": 109.0, "confidence_0_1": 0.19826751151305233, "lat_deg": 33.990922534473874, "lon_deg": -117.99643431423378, "altitude_rel_ft": 71.4143, "yaw_deg": 222.7324, "pitch_deg": 0.0848, "roll_deg": -4.2597, "ground_speed_ft_s": 21.6944, "vel_north_m_s": 1.4381, "vel_east_m_s": 2.0715, "vel_down_m_s": 0.9303, "usable_for_triangulation": false}
{"run_id": "SIM_TEST", "kraken_seq": 232, "telemetry_seq": 93, "t_rx_ms": 1775685337320, "dt_ms": -19, "doa_deg": 322.0, "confidence_0_1": 0.9200657339990795, "lat_deg": 33.99618709302607, "lon_deg": -117.99008841210477, "altitude_rel_ft": 97.0502, "yaw_deg": 34.3548, "pitch_deg": -0.3259, "roll_deg": -7.2469, "ground_speed_ft_s": 55.1157, "vel_north_m_s": 2.1972, "vel_east_m_s": 0.3879, "vel_down_m_s": 0.9104, "usable_for_triangulation": true}
{"run_id": "SIM_TEST", "kraken_seq": 233, "telemetry_seq": 94, "t_rx_ms": 1775685337421, "dt_ms": -19, "doa_deg": 259.0, "confidence_0_1": 0.2569349370588022, "lat_deg": 33.99791702475706, "lon_deg": -117.99650692645714, "altitude_rel_ft": 38.2461, "yaw_deg": 71.9201, "pitch_deg": -7.1451, "roll_deg": -7.7409, "ground_speed_ft_s": 15.4645, "vel_north_m_s": -8.8021, "vel_east_m_s": -2.953, "vel_down_m_s": 0.0865, "usable_for_triangulation": false}
{"run_id": "SIM_TEST", "kraken_seq": 234, "telemetry_seq": 95, "t_rx_ms": 1775685337522, "dt_ms": -19, "doa_deg": 97.0, "confidence_0_1": 0.9119309698467561, "lat_deg": 34.00444381800305, "lon_deg": -117.99705872249106, "altitude_rel_ft": 76.7791, "yaw_deg": 204.7498, "pitch_deg": 3.2077, "roll_deg": 11.8561, "ground_speed_ft_s": 16.9235, "vel_north_m_s": 1.9596, "vel_east_m_s": 0.2289, "vel_down_m_s": -0.2647, "usable_for_triangulation": true}
{"run_id": "SIM_TEST", "kraken_seq": 235, "telemetry_seq": 96, "t_rx_ms": 1775685337623, "dt_ms": -19, "doa_deg": 211.0, "confidence_0_1": 0.5805381192575871, "lat_deg": 33.99783364496483, "lon_deg": -117.99777084461668, "altitude_rel_ft": 54.9691, "yaw_deg": 334.167, "pitch_deg": 9.4827, "roll_deg": -3.2096, "ground_speed_ft_s": 44.1254, "vel_north_m_s": -6.5869, "vel_east_m_s": -5.411, "vel_down_m_s": -0.858, "usable_for_triangulation": true}
{"run_id": "SIM_TEST", "kraken_seq": 236, "telemetry_seq": 97, "t_rx_ms": 1775685337724, "dt_ms": -18, "doa_deg": 244.0, "confidence_0_1": 0.9871844804056544, "lat_deg": 34.008300931636846, "lon_deg": -117.99011080156767, "altitude_rel_ft": 21.2408, "yaw_deg": 1.9917, "pitch_deg": 9.2242, "roll_deg": 6.2752, "ground_speed_ft_s": 6.4559, "vel_north_m_s": -7.4978, "vel_east_m_s": 2.3995, "vel_down_m_s": 0.0601, "usable_for_triangulation": true}
{"run_id": "SIM_TEST", "kraken_seq": 237, "telemetry_seq": 98, "t_rx_ms": 1775685337825, "dt_ms": -18, "doa_deg": 339.0, "confidence_0_1": 0.6729208119458089, "lat_deg": 33.993256200459626, "lon_deg": -118.00721404203328, "altitude_rel_ft": 60.6689, "yaw_deg": 258.1767, "pitch_deg": 0.3241, "roll_deg": -10.6675, "ground_speed_ft_s": 49.1564, "vel_north_m_s": 7.4102, "vel_east_m_s": 9.456, "vel_down_m_s": -0.5826, "usable_for_triangulation": true}
{"run_id": "SIM_TEST", "kraken_seq": 238, "telemetry_seq": 99, "t_rx_ms": 1775685337926, "dt_ms": -18, "doa_deg": 43.0, "confidence_0_1": 0.2408252657547134, "lat_deg": 34.008676460622524, "lon_deg": -117.99558564812541, "altitude_rel_ft": 71.2691, "yaw_deg": 329.9333, "pitch_deg": 5.5421, "roll_deg": 0.2677, "ground_speed_ft_s": 20.74, "vel_north_m_s": 3.263, "vel_east_m_s": 4.0734, "vel_down_m_s": -0.6195, "usable_for_triangulation": false}
{"run_id": "SIM_TEST", "kraken_seq": 239, "telemetry_seq": 100, "t_rx_ms": 1775685338027, "dt_ms": -17, "doa_deg": 236.0, "confidence_0_1": 0.38276695261211113, "lat_deg": 34.00874352452425, "lon_deg": -118.00373107168289, "altitude_rel_ft": 38.2917, "yaw_deg": 13.3789, "pitch_deg": 7.8601, "roll_deg": 1.7931, "ground_speed_ft_s": 55.5724, "vel_north_m_s": 0.2357, "vel_east_m_s": -1.5635, "vel_down_m_s": 0.3977, "usable_for_triangulation": true}
{"run_id": "SIM_TEST", "kraken_seq": 240, "telemetry_seq": 101, "t_rx_ms": 1775685338128, "dt_ms": -17, "doa_deg": 111.0, "confidence_0_1": 0.8470170883227122, "lat_deg": 33.99648225402432, "lon_deg": -118.00410332660421, "altitude_rel_ft": 39.4092, "yaw_deg": 94.6371, "pitch_deg": -9.169, "roll_deg": -6.8628, "ground_speed_ft_s": 48.4618, "vel_north_m_s": 4.7723, "vel_east_m_s": -9.6586, "vel_down_m_s": 0.4529, "usable_for_triangulation": true}
{"run_id": "SIM_TEST", "kraken_seq": 241, "telemetry_seq": 102, "t_rx_ms": 1775685338229, "dt_ms": -17, "doa_deg": 206.0, "confidence_0_1": 0.9779603951469905, "lat_deg": 33.995718544001505, "lon_deg": -117.99676770421938, "altitude_rel_ft": 57.4809, "yaw_deg": 134.1127, "pitch_deg": 7.3833, "roll_deg": 2.1268, "ground_speed_ft_s": 13.4988, "vel_north_m_s": 5.2815, "vel_east_m_s": -9.6015, "vel_down_m_s": 0.6342, "usable_for_triangulation": true}
{"run_id": "SIM_TEST", "kraken_seq": 242, "telemetry_seq": 103, "t_rx_ms": 1775685338330, "dt_ms": -16, "doa_deg": 97.0, "confidence_0_1": 0.22051912034460985, "lat_deg": 33.990731632247865, "lon_deg": -118.00562896671246, "altitude_rel_ft": 77.5339, "yaw_deg": 142.4815, "pitch_deg": -2.2976, "roll_deg": 3.7347, "ground_speed_ft_s": 31.0037, "vel_north_m_s": 1.6511, "vel_east_m_s": -4.4576, "vel_down_m_s": -0.9812, "usable_for_triangulation": false}
{"run_id": "SIM_TEST", "kraken_seq": 243, "telemetry_seq": 104, "t_rx_ms": 1775685338431, "dt_ms": -16, "doa_deg": 179.0, "confidence_0_1": 0.20132559412082773, "lat_deg": 34.00762092342849, "lon_deg": -117.99202621202686, "altitude_rel_ft": 46.4606, "yaw_deg": 329.7523, "pitch_deg": 3.2229, "roll_deg": -2.1172, "ground_speed_ft_s": 18.6914, "vel_north_m_s": -5.8573, "vel_east_m_s": -4.2466, "vel_down_m_s": -0.8899, "usable_for_triangulation": false}
{"run_id": "SIM_TEST", "kraken_seq": 244, "telemetry_seq": 105, "t_rx_ms": 1775685338533, "dt_ms": -17, "doa_deg": 223.0, "confidence_0_1": 0.7073525232736593, "lat_deg": 34.00763167715042, "lon_deg": -118.00200961414667, "altitude_rel_ft": 38.5047, "yaw_deg": 298.7798, "pitch_deg": 8.8671, "roll_deg": 2.078, "ground_speed_ft_s": 41.5237, "vel_north_m_s": 6.2694, "vel_east_m_s": -5.0676, "vel_down_m_s": -0.9677, "usable_for_triangulation": true}
{"run_id": "SIM_TEST", "kraken_seq": 245, "telemetry_seq": 106, "t_rx_ms": 1775685338633, "dt_ms": -17, "doa_deg": 329.0, "confidence_0_1": 0.9732153680161764, "lat_deg": 33.99024439526934, "lon_deg": -118.00074871932922, "altitude_rel_ft": 21.4286, "yaw_deg": 134.4601, "pitch_deg": 5.932, "roll_deg": -9.502, "ground_speed_ft_s": 13.9796, "vel_north_m_s": -5.7266, "vel_east_m_s": 8.3386, "vel_down_m_s": 0.068, "usable_for_triangulation": true}
{"run_id": "SIM_TEST", "kraken_seq": 246, "telemetry_seq": 107, "t_rx_ms": 1775685338734, "dt_ms": -16, "doa_deg": 253.0, "confidence_0_1": 0.8092934150675868, "lat_deg": 33.99822519389607, "lon_deg": -117.99347403034561, "altitude_rel_ft": 47.6719, "yaw_deg": 13.0475, "pitch_deg": -3.2516, "roll_deg": -7.2964, "ground_speed_ft_s": 41.9458, "vel_north_m_s": 6.5407, "vel_east_m_s": -4.6328, "vel_down_m_s": -0.5617, "usable_for_triangulation": true}
{"run_id": "SIM_TEST", "kraken_seq": 247, "telemetry_seq": 108, "t_rx_ms": 1775685338836, "dt_ms": -17, "doa_deg": 91.0, "confidence_0_1": 0.090138268457156, "lat_deg": 33.99941266639168, "lon_deg": -117.99142151759037, "altitude_rel_ft": 43.0425, "yaw_deg": 162.5717, "pitch_deg": -2.8806, "roll_deg": 1.6987, "ground_speed_ft_s": 22.3886, "vel_north_m_s": 3.8193, "vel_east_m_s": 7.8585, "vel_down_m_s": -0.7576, "usable_for_triangulation": false}
{"run_id": "SIM_TEST", "kraken_seq": 248, "telemetry_seq": 109, "t_rx_ms": 1775685338937, "dt_ms": -17, "doa_deg": 40.0, "confidence_0_1": 0.1610163118836383, "lat_deg": 34.0012594902126, "lon_deg": -118.0070978812343, "altitude_rel_ft": 98.4913, "yaw_deg": 112.489, "pitch_deg": 4.566, "roll_deg": -9.7794, "ground_speed_ft_s": 5.7251, "vel_north_m_s": 1.7871, "vel_east_m_s": -8.8454, "vel_down_m_s": 0.6343, "usable_for_triangulation": false}
{"run_id": "SIM_TEST", "kraken_seq": 249, "telemetry_seq": 110, "t_rx_ms": 1775685339038, "dt_ms": -17, "doa_deg": 121.0, "confidence_0_1": 0.9397493428660525, "lat_deg": 34.00894463557267, "lon_deg": -117.99791311806388, "altitude_rel_ft": 77.196, "yaw_deg": 34.6106, "pitch_deg": 2.0077, "roll_deg": -7.5861, "ground_speed_ft_s": 53.2347, "vel_north_m_s": -2.4944, "vel_east_m_s": 8.3898, "vel_down_m_s": -0.6019, "usable_for_triangulation": true}
{"run_id": "SIM_TEST", "kraken_seq": 250, "telemetry_seq": 111, "t_rx_ms": 1775685339139, "dt_ms": -16, "doa_deg": 286.0, "confidence_0_1": 0.936029831456737, "lat_deg": 33.99131301053519, "lon_deg": -117.99613788336772, "altitude_rel_ft": 54.2754, "yaw_deg": 20.0427, "pitch_deg": 4.3884, "roll_deg": -7.1546, "ground_speed_ft_s": 17.9688, "vel_north_m_s": 6.9242, "vel_east_m_s": -8.7297, "vel_down_m_s": -0.722, "usable_for_triangulation": true}
{"run_id": "SIM_TEST", "kraken_seq": 251, "telemetry_seq": 112, "t_rx_ms": 1775685339240, "dt_ms": -16, "doa_deg": 322.0, "confidence_0_1": 0.4629528507205981, "lat_deg": 33.99171560316824, "lon_deg": -118.00899641993513, "altitude_rel_ft": 60.1773, "yaw_deg": 238.8483, "pitch_deg": 6.1433, "roll_deg": 13.603, "ground_speed_ft_s": 46.2608, "vel_north_m_s": 4.417, "vel_east_m_s": -6.2953, "vel_down_m_s": 0.5043, "usable_for_triangulation": true}
{"run_id": "SIM_TEST", "kraken_seq": 252, "telemetry_seq": 113, "t_rx_ms": 1775685339341, "dt_ms": -16, "doa_deg": 239.0, "confidence_0_1": 0.16491428603537928, "lat_deg": 33.99937865686879, "lon_deg": -118.00622101693627, "altitude_rel_ft": 44.8483, "yaw_deg": 251.7278, "pitch_deg": 1.0736, "roll_deg": 12.8906, "ground_speed_ft_s": 32.5842, "vel_north_m_s": -9.5151, "vel_east_m_s": 0.2719, "vel_down_m_s": 0.7355, "usable_for_triangulation": false}
{"run_id": "SIM_TEST", "kraken_seq": 253, "telemetry_seq": 114, "t_rx_ms": 1775685339442, "dt_ms": -16, "doa_deg": 219.0, "confidence_0_1": 0.2194808219566141, "lat_deg": 33.992016705938525, "lon_deg": -118.0041357771782, "altitude_rel_ft": 97.1319, "yaw_deg": 239.665, "pitch_deg": 9.5447, "roll_deg": -2.6316, "ground_speed_ft_s": 54.677, "vel_north_m_s": -5.0848, "vel_east_m_s": 0.3834, "vel_down_m_s": -0.0035, "usable_for_triangulation": false}
{"run_id": "SIM_TEST", "kraken_seq": 254, "telemetry_seq": 115, "t_rx_ms": 1775685339542, "dt_ms": -15, "doa_deg": 232.0, "confidence_0_1": 0.9843050641868978, "lat_deg": 33.99465546347071, "lon_deg": -118.00259370375856, "altitude_rel_ft": 23.7869, "yaw_deg": 339.1325, "pitch_deg": -9.6353, "roll_deg": 9.7373, "ground_speed_ft_s": 10.6417, "vel_north_m_s": -0.0712, "vel_east_m_s": 2.1221, "vel_down_m_s": -0.6007, "usable_for_triangulation": true}
{"run_id": "SIM_TEST", "kraken_seq": 255, "telemetry_seq": 116, "t_rx_ms": 1775685339643, "dt_ms": -15, "doa_deg": 202.0, "confidence_0_1": 0.009833068054001748, "lat_deg": 34.005590875974825, "lon_deg": -118.00312550933626, "altitude_rel_ft": 61.7509, "yaw_deg": 173.277, "pitch_deg": 4.5404, "roll_deg": -1.9501, "ground_speed_ft_s": 15.5872, "vel_north_m_s": 1.8909, "vel_east_m_s": -0.7909, "vel_down_m_s": -0.6518, "usable_for_triangulation": false}
{"run_id": "SIM_TEST", "kraken_seq": 256, "telemetry_seq": 117, "t_rx_ms": 1775685339744, "dt_ms": -14, "doa_deg": 235.0, "confidence_0_1": 0.7213533705656895, "lat_deg": 34.00239970197288, "lon_deg": -117.9935050765927, "altitude_rel_ft": 21.7265, "yaw_deg": 316.4807, "pitch_deg": 1.5643, "roll_deg": 12.8075, "ground_speed_ft_s": 12.3458, "vel_north_m_s": -9.4554, "vel_east_m_s": -0.5351, "vel_down_m_s": 0.4577, "usable_for_triangulation": true}
{"run_id": "SIM_TEST", "kraken_seq": 257, "telemetry_seq": 118, "t_rx_ms": 1775685339845, "dt_ms": -14, "doa_deg": 271.0, "confidence_0_1": 0.9353817078953421, "lat_deg": 34.002029260994476, "lon_deg": -118.00669850811083, "altitude_rel_ft": 40.9242, "yaw_deg": 26.504, "pitch_deg": -3.3453, "roll_deg": 12.3445, "ground_speed_ft_s": 8.2105, "vel_north_m_s": -7.6569, "vel_east_m_s": -7.7963, "vel_down_m_s": 0.6323, "usable_for_triangulation": true}
{"run_id": "SIM_TEST", "kraken_seq": 258, "telemetry_seq": 119, "t_rx_ms": 1775685339946, "dt_ms": -14, "doa_deg": 232.0, "confidence_0_1": 0.72421724318699, "lat_deg": 33.99658406493119, "lon_deg": -118.0086721721616, "altitude_rel_ft": 35.9463, "yaw_deg": 56.7933, "pitch_deg": -1.9052, "roll_deg": 0.0722, "ground_speed_ft_s": 41.1778, "vel_north_m_s": -1.6685, "vel_east_m_s": -4.8605, "vel_down_m_s": 0.6887, "usable_for_triangulation": true}
{"run_id": "SIM_TEST", "kraken_seq": 259, "telemetry_seq": 120, "t_rx_ms": 1775685340047, "dt_ms": -14, "doa_deg": 147.0, "confidence_0_1": 0.1361503170965469, "lat_deg": 34.00725593981925, "lon_deg": -118.00462611078105, "altitude_rel_ft": 51.9489, "yaw_deg": 294.1435, "pitch_deg": 7.0882, "roll_deg": 7.761, "ground_speed_ft_s": 14.3973, "vel_north_m_s": -8.9874, "vel_east_m_s": -7.6452, "vel_down_m_s": 0.5239, "usable_for_triangulation": false}
{"run_id": "SIM_TEST", "kraken_seq": 260, "telemetry_seq": 121, "t_rx_ms": 1775685340147, "dt_ms": -13, "doa_deg": 77.0, "confidence_0_1": 0.3935946093035946, "lat_deg": 34.00719231045147, "lon_deg": -118.0021893976769, "altitude_rel_ft": 78.1893, "yaw_deg": 256.5504, "pitch_deg": -2.9235, "roll_deg": 10.9953, "ground_speed_ft_s": 10.2167, "vel_north_m_s": -0.592, "vel_east_m_s": 3.2632, "vel_down_m_s": 0.3227, "usable_for_triangulation": true}
{"run_id": "SIM_TEST", "kraken_seq": 261, "telemetry_seq": 122, "t_rx_ms": 1775685340249, "dt_ms": -13, "doa_deg": 298.0, "confidence_0_1": 0.09860506325067397, "lat_deg": 33.99455864818628, "lon_deg": -118.00120812397316, "altitude_rel_ft": 58.0902, "yaw_deg": 204.2931, "pitch_deg": 8.1227, "roll_deg": 14.4068, "ground_speed_ft_s": 51.7482, "vel_north_m_s": 0.3243, "vel_east_m_s": 7.412, "vel_down_m_s": 0.7243, "usable_for_triangulation": false}
{"run_id": "SIM_TEST", "kraken_seq": 262, "telemetry_seq": 123, "t_rx_ms": 1775685340350, "dt_ms": -13, "doa_deg": 280.0, "confidence_0_1": 0.41403979855836504, "lat_deg": 33.997947672345674, "lon_deg": -118.00507244407689, "altitude_rel_ft": 59.0829, "yaw_deg": 1.748, "pitch_deg": 3.0194, "roll_deg": 4.1094, "ground_speed_ft_s": 10.1912, "vel_north_m_s": -9.5222, "vel_east_m_s": -0.7219, "vel_down_m_s": -0.9515, "usable_for_triangulation": true}
{"run_id": "SIM_TEST", "kraken_seq": 263, "telemetry_seq": 124, "t_rx_ms": 1775685340451, "dt_ms": -12, "doa_deg": 115.0, "confidence_0_1": 0.8821803447215413, "lat_deg": 33.99841676932291, "lon_deg": -117.9906703238601, "altitude_rel_ft": 63.3167, "yaw_deg": 77.8395, "pitch_deg": -6.6891, "roll_deg": -6.9708, "ground_speed_ft_s": 21.3096, "vel_north_m_s": 0.4257, "vel_east_m_s": -1.6673, "vel_down_m_s": 0.4912, "usable_for_triangulation": true}
{"run_id": "SIM_TEST", "kraken_seq": 264, "telemetry_seq": 125, "t_rx_ms": 1775685340552, "dt_ms": -13, "doa_deg": 53.0, "confidence_0_1": 0.22738720486095465, "lat_deg": 33.99984326316268, "lon_deg": -117.99746870709697, "altitude_rel_ft": 36.4674, "yaw_deg": 119.8643, "pitch_deg": -6.6612, "roll_deg": 0.0031, "ground_speed_ft_s": 43.9046, "vel_north_m_s": -5.4616, "vel_east_m_s": 1.492, "vel_down_m_s": -0.6283, "usable_for_triangulation": false}
{"run_id": "SIM_TEST", "kraken_seq": 265, "telemetry_seq": 126, "t_rx_ms": 1775685340653, "dt_ms": -13, "doa_deg": 60.0, "confidence_0_1": 0.8845466178224386, "lat_deg": 33.99554689645861, "lon_deg": -117.99300142269551, "altitude_rel_ft": 22.9633, "yaw_deg": 207.4776, "pitch_deg": -1.4188, "roll_deg": -5.2024, "ground_speed_ft_s": 12.7992, "vel_north_m_s": -6.5555, "vel_east_m_s": 0.1182, "vel_down_m_s": -0.0205, "usable_for_triangulation": true}
{"run_id": "SIM_TEST", "kraken_seq": 266, "telemetry_seq": 127, "t_rx_ms": 1775685340754, "dt_ms": -13, "doa_deg": 69.0, "confidence_0_1": 0.25717950719742955, "lat_deg": 33.998270215048414, "lon_deg": -118.00694604777509, "altitude_rel_ft": 84.4273, "yaw_deg": 278.8681, "pitch_deg": -6.3387, "roll_deg": -5.7208, "ground_speed_ft_s": 16.1839, "vel_north_m_s": -8.529, "vel_east_m_s": 2.6676, "vel_down_m_s": 0.2154, "usable_for_triangulation": false}
{"run_id": "SIM_TEST", "kraken_seq": 267, "telemetry_seq": 128, "t_rx_ms": 1775685340855, "dt_ms": -13, "doa_deg": 195.0, "confidence_0_1": 0.355060579929648, "lat_deg": 33.99845795927934, "lon_deg": -118.00233574824453, "altitude_rel_ft": 41.5325, "yaw_deg": 199.1918, "pitch_deg": -8.6961, "roll_deg": -10.1598, "ground_speed_ft_s": 22.5897, "vel_north_m_s": -8.8366, "vel_east_m_s": -7.6107, "vel_down_m_s": 0.6466, "usable_for_triangulation": true}
{"run_id": "SIM_TEST", "kraken_seq": 268, "telemetry_seq": 129, "t_rx_ms": 1775685340956, "dt_ms": -13, "doa_deg": 331.0, "confidence_0_1": 0.91883729760004, "lat_deg": 34.00334045633981, "lon_deg": -117.99463985805308, "altitude_rel_ft": 79.5116, "yaw_deg": 227.4484, "pitch_deg": -6.7761, "roll_deg": 1.3987, "ground_speed_ft_s": 42.8667, "vel_north_m_s": 2.9267, "vel_east_m_s": 0.6918, "vel_down_m_s": -0.6332, "usable_for_triangulation": true}
{"run_id": "SIM_TEST", "kraken_seq": 269, "telemetry_seq": 130, "t_rx_ms": 1775685341058, "dt_ms": -14, "doa_deg": 149.0, "confidence_0_1": 0.8730057515883025, "lat_deg": 33.99154491946562, "lon_deg": -117.9916975000036, "altitude_rel_ft": 56.8711, "yaw_deg": 190.3368, "pitch_deg": -7.7825, "roll_deg": -14.4656, "ground_speed_ft_s": 25.2792, "vel_north_m_s": 9.0632, "vel_east_m_s": 6.9696, "vel_down_m_s": -0.2885, "usable_for_triangulation": true}
