{"run_id": "SIM_TEST", "kraken_seq": 27, "telemetry_seq": 0, "t_rx_ms": 1774568613140, "dt_ms": 216, "doa_deg": 29.0, "confidence_0_1": 0.8193285852302891, "lat_deg": 33.99054360118059, "lon_deg": -117.99466599805413, "altitude_rel_ft": 87.6982, "yaw_deg": 168.3863, "pitch_deg": -3.9524, "roll_deg": 3.8494, "ground_speed_ft_s": 54.8432, "vel_north_m_s": -9.622, "vel_east_m_s": -1.1126, "vel_down_m_s": -0.7978, "usable_for_triangulation": true}
{"run_id": "SIM_TEST", "kraken_seq": 28, "telemetry_seq": 0, "t_rx_ms": 1774568613242, "dt_ms": 114, "doa_deg": 54.0, "confidence_0_1": 0.11580129634697378, "lat_deg": 33.99054360118059, "lon_deg": -117.99466599805413, "altitude_rel_ft": 87.6982, "yaw_deg": 168.3863, "pitch_deg": -3.9524, "roll_deg": 3.8494, "ground_speed_ft_s": 54.8432, "vel_north_m_s": -9.622, "vel_east_m_s": -1.1126, "vel_down_m_s": -0.7978, "usable_for_triangulation": false}
{"run_id": "SIM_TEST", "kraken_seq": 29, "telemetry_seq": 0, "t_rx_ms": 1774568613342, "dt_ms": 14, "doa_deg": 209.0, "confidence_0_1": 0.21443090177089463, "lat_deg": 33.99054360118059, "lon_deg": -117.99466599805413, "altitude_rel_ft": 87.6982, "yaw_deg": 168.3863, "pitch_deg": -3.9524, "roll_deg": 3.8494, "ground_speed_ft_s": 54.8432, "vel_north_m_s": -9.622, "vel_east_m_s": -1.1126, "vel_down_m_s": -0.7978, "usable_for_triangulation": false}
{"run_id": "SIM_TEST", "kraken_seq": 30, "telemetry_seq": 1, "t_rx_ms": 1774568613443, "dt_ms": 14, "doa_deg": 41.0, "confidence_0_1": 0.3766965535374627, "lat_deg": 33.99355042678575, "lon_deg": -118.00334800254282, "altitude_rel_ft": 20.3706, "yaw_deg": 327.2153, "pitch_deg": -2.0654, "roll_deg": -6.1838, "ground_speed_ft_s": 25.9848, "vel_north_m_s": -9.1053, "vel_east_m_s": 0.0067, "vel_down_m_s": 0.548, "usable_for_triangulation": false}
{"run_id": "SIM_TEST", "kraken_seq": 31, "telemetry_seq": 2, "t_rx_ms": 1774568613544, "dt_ms": 18, "doa_deg": 330.0, "confidence_0_1": 0.24170600969104905, "lat_deg": 34.00560390748305, "lon_deg": -117.99950767021265, "altitude_rel_ft": 31.422, "yaw_deg": 85.42, "pitch_deg": -8.5127, "roll_deg": -14.0265, "ground_speed_ft_s": 49.3515, "vel_north_m_s": 5.8111, "vel_east_m_s": 5.8316, "vel_down_m_s": 0.2999, "usable_for_triangulation": false}
{"run_id": "SIM_TEST", "kraken_seq": 32, "telemetry_seq": 3, "t_rx_ms": 1774568613644, "dt_ms": 18, "doa_deg": 204.0, "confidence_0_1": 0.9286175774948795, "lat_deg": 33.99806507554604, "lon_deg": -117.99711423841275, "altitude_rel_ft": 67.2024, "yaw_deg": 228.4921, "pitch_deg": 4.0162, "roll_deg": 14.099, "ground_speed_ft_s": 38.1869, "vel_north_m_s": -3.8433, "vel_east_m_s": -6.9085, "vel_down_m_s": 0.4648, "usable_for_triangulation": true}
{"run_id": "SIM_TEST", "kraken_seq": 33, "telemetry_seq": 4, "t_rx_ms": 1774568613745, "dt_ms": 19, "doa_deg": 100.0, "confidence_0_1": 0.8917652500330153, "lat_deg": 34.000097067282844, "lon_deg": -117.99576906295533, "altitude_rel_ft": 39.1333, "yaw_deg": 170.6617, "pitch_deg": 3.4156, "roll_deg": 12.5544, "ground_speed_ft_s": 33.2091, "vel_north_m_s": -1.7846, "vel_east_m_s": -7.0008, "vel_down_m_s": -0.1413, "usable_for_triangulation": true}
{"run_id": "SIM_TEST", "kraken_seq": 34, "telemetry_seq": 5, "t_rx_ms": 1774568613846, "dt_ms": 19, "doa_deg": 114.0, "confidence_0_1": 0.6271828373122378, "lat_deg": 34.000647449653606, "lon_deg": -118.00601981409356, "altitude_rel_ft": 62.1762, "yaw_deg": 326.1275, "pitch_deg": -0.6766, "roll_deg": 4.2276, "ground_speed_ft_s": 43.3223, "vel_north_m_s": 3.0739, "vel_east_m_s": 0.6944, "vel_down_m_s": -0.4142, "usable_for_triangulation": true}
{"run_id": "SIM_TEST", "kraken_seq": 35, "telemetry_seq": 6, "t_rx_ms": 1774568613947, "dt_ms": 18, "doa_deg": 350.0, "confidence_0_1": 0.40037213289704265, "lat_deg": 33.99157080051448, "lon_deg": -118.00339860319656, "altitude_rel_ft": 37.4478, "yaw_deg": 231.9515, "pitch_deg": -4.7282, "roll_deg": -6.7092, "ground_speed_ft_s": 15.3046, "vel_north_m_s": 2.3062, "vel_east_m_s": -1.9165, "vel_down_m_s": 0.4982, "usable_for_triangulation": false}
{"run_id": "SIM_TEST", "kraken_seq": 36, "telemetry_seq": 7, "t_rx_ms": 1774568614048, "dt_ms": 18, "doa_deg": 337.0, "confidence_0_1": 0.8825311437578665, "lat_deg": 34.00439801211576, "lon_deg": -117.99706285491496, "altitude_rel_ft": 20.9692, "yaw_deg": 104.1222, "pitch_deg": -2.8967, "roll_deg": 11.7566, "ground_speed_ft_s": 48.8406, "vel_north_m_s": -2.0435, "vel_east_m_s": 2.74, "vel_down_m_s": -0.3175, "usable_for_triangulation": true}
{"run_id": "SIM_TEST", "kraken_seq": 37, "telemetry_seq": 8, "t_rx_ms": 1774568614149, "dt_ms": 18, "doa_deg": 5.0, "confidence_0_1": 0.8720153403682767, "lat_deg": 34.007135803390625, "lon_deg": -118.00572554312309, "altitude_rel_ft": 50.726, "yaw_deg": 33.8172, "pitch_deg": -7.4655, "roll_deg": 0.7572, "ground_speed_ft_s": 18.9005, "vel_north_m_s": 0.376, "vel_east_m_s": 2.3778, "vel_down_m_s": -0.781, "usable_for_triangulation": true}
{"run_id": "SIM_TEST", "kraken_seq": 38, "telemetry_seq": 9, "t_rx_ms": 1774568614249, "dt_ms": 18, "doa_deg": 183.0, "confidence_0_1": 0.0257319177066353, "lat_deg": 34.00527936710959, "lon_deg": -118.00484070328531, "altitude_rel_ft": 28.1066, "yaw_deg": 112.1455, "pitch_deg": -3.6621, "roll_deg": -5.0413, "ground_speed_ft_s": 53.623, "vel_north_m_s": 7.431, "vel_east_m_s": 0.1797, "vel_down_m_s": -0.8694, "usable_for_triangulation": false}
{"run_id": "SIM_TEST", "kraken_seq": 39, "telemetry_seq": 10, "t_rx_ms": 1774568614349, "dt_ms": 19, "doa_deg": 326.0, "confidence_0_1": 0.47710908569132127, "lat_deg": 34.00528501289202, "lon_deg": -117.99248811136583, "altitude_rel_ft": 71.4305, "yaw_deg": 286.6558, "pitch_deg": -1.6657, "roll_deg": 14.4934, "ground_speed_ft_s": 48.6804, "vel_north_m_s": 1.7667, "vel_east_m_s": 0.5117, "vel_down_m_s": -0.4391, "usable_for_triangulation": false}
{"run_id": "SIM_TEST", "kraken_seq": 40, "telemetry_seq": 11, "t_rx_ms": 1774568614450, "dt_ms": 18, "doa_deg": 111.0, "confidence_0_1": 0.6785161704256941, "lat_deg": 33.99246336519383, "lon_deg": -117.99249195599978, "altitude_rel_ft": 43.9061, "yaw_deg": 82.2485, "pitch_deg": 2.5934, "roll_deg": -9.8427, "ground_speed_ft_s": 16.0675, "vel_north_m_s": 8.0911, "vel_east_m_s": 0.3227, "vel_down_m_s": -0.484, "usable_for_triangulation": true}
{"run_id": "SIM_TEST", "kraken_seq": 41, "telemetry_seq": 12, "t_rx_ms": 1774568614550, "dt_ms": 19, "doa_deg": 254.0, "confidence_0_1": 0.6973802302422255, "lat_deg": 34.00736270712445, "lon_deg": -118.00410381747398, "altitude_rel_ft": 49.485, "yaw_deg": 277.0618, "pitch_deg": 6.004, "roll_deg": -2.0987, "ground_speed_ft_s": 51.0394, "vel_north_m_s": 0.4328, "vel_east_m_s": -6.8881, "vel_down_m_s": 0.696, "usable_for_triangulation": true}
{"run_id": "SIM_TEST", "kraken_seq": 42, "telemetry_seq": 13, "t_rx_ms": 1774568614651, "dt_ms": 18, "doa_deg": 21.0, "confidence_0_1": 0.9962337446804002, "lat_deg": 34.00843318242981, "lon_deg": -118.00935173128521, "altitude_rel_ft": 28.8907, "yaw_deg": 169.1772, "pitch_deg": -8.2077, "roll_deg": -2.7601, "ground_speed_ft_s": 47.7924, "vel_north_m_s": -5.9102, "vel_east_m_s": 9.3893, "vel_down_m_s": 0.0874, "usable_for_triangulation": true}
{"run_id": "SIM_TEST", "kraken_seq": 43, "telemetry_seq": 14, "t_rx_ms": 1774568614752, "dt_ms": 18, "doa_deg": 182.0, "confidence_0_1": 0.7305930456325309, "lat_deg": 34.009745280930304, "lon_deg": -117.99994367587213, "altitude_rel_ft": 70.6218, "yaw_deg": 97.648, "pitch_deg": 5.8237, "roll_deg": -2.0255, "ground_speed_ft_s": 29.4922, "vel_north_m_s": 8.6442, "vel_east_m_s": -0.6168, "vel_down_m_s": 0.8258, "usable_for_triangulation": true}
{"run_id": "SIM_TEST", "kraken_seq": 44, "telemetry_seq": 15, "t_rx_ms": 1774568614853, "dt_ms": 18, "doa_deg": 134.0, "confidence_0_1": 0.6959585220228091, "lat_deg": 34.00518874127968, "lon_deg": -118.00421837013275, "altitude_rel_ft": 40.8065, "yaw_deg": 342.6406, "pitch_deg": 2.3639, "roll_deg": -2.9548, "ground_speed_ft_s": 41.8043, "vel_north_m_s": -8.8392, "vel_east_m_s": 1.0033, "vel_down_m_s": 0.2619, "usable_for_triangulation": true}
{"run_id": "SIM_TEST", "kraken_seq": 45, "telemetry_seq": 16, "t_rx_ms": 1774568614953, "dt_ms": 18, "doa_deg": 256.0, "confidence_0_1": 0.7971023764155326, "lat_deg": 34.00580731133176, "lon_deg": -117.99176051546661, "altitude_rel_ft": 43.1415, "yaw_deg": 123.3369, "pitch_deg": 5.1988, "roll_deg": -9.0507, "ground_speed_ft_s": 47.6598, "vel_north_m_s": 2.7107, "vel_east_m_s": -4.442, "vel_down_m_s": 0.656, "usable_for_triangulation": true}
{"run_id": "SIM_TEST", "kraken_seq": 46, "telemetry_seq": 17, "t_rx_ms": 1774568615053, "dt_ms": 19, "doa_deg": 41.0, "confidence_0_1": 0.7937271977632286, "lat_deg": 34.0022863105995, "lon_deg": -118.00735573682314, "altitude_rel_ft": 32.8195, "yaw_deg": 282.8172, "pitch_deg": -3.2838, "roll_deg": 9.6063, "ground_speed_ft_s": 42.3477, "vel_north_m_s": -9.9937, "vel_east_m_s": 8.111, "vel_down_m_s": 0.2136, "usable_for_triangulation": true}
{"run_id": "SIM_TEST", "kraken_seq": 47, "telemetry_seq": 18, "t_rx_ms": 1774568615154, "dt_ms": 18, "doa_deg": 148.0, "confidence_0_1": 0.2225738760638205, "lat_deg": 34.004827214134885, "lon_deg": -117.99477626771056, "altitude_rel_ft": 38.642, "yaw_deg": 5.5141, "pitch_deg": -1.7765, "roll_deg": 13.959, "ground_speed_ft_s": 21.1515, "vel_north_m_s": 9.853, "vel_east_m_s": 0.4196, "vel_down_m_s": 0.5626, "usable_for_triangulation": false}
{"run_id": "SIM_TEST", "kraken_seq": 48, "telemetry_seq": 19, "t_rx_ms": 1774568615254, "dt_ms": 19, "doa_deg": 59.0, "confidence_0_1": 0.8561868051270147, "lat_deg": 33.99336229509955, "lon_deg": -117.99012983234492, "altitude_rel_ft": 98.4627, "yaw_deg": 323.8733, "pitch_deg": -4.4493, "roll_deg": -2.162, "ground_speed_ft_s": 56.2902, "vel_north_m_s": 8.1645, "vel_east_m_s": 6.5887, "vel_down_m_s": -0.8332, "usable_for_triangulation": true}
{"run_id": "SIM_TEST", "kraken_seq": 49, "telemetry_seq": 20, "t_rx_ms": 1774568615355, "dt_ms": 18, "doa_deg": 289.0, "confidence_0_1": 0.5059767202262953, "lat_deg": 34.00747882201437, "lon_deg": -118.0066566590868, "altitude_rel_ft": 76.8135, "yaw_deg": 31.7959, "pitch_deg": -9.0399, "roll_deg": 6.1652, "ground_speed_ft_s": 37.4647, "vel_north_m_s": 4.0095, "vel_east_m_s": 3.9523, "vel_down_m_s": -0.4606, "usable_for_triangulation": true}
{"run_id": "SIM_TEST", "kraken_seq": 50, "telemetry_seq": 21, "t_rx_ms": 1774568615456, "dt_ms": 18, "doa_deg": 317.0, "confidence_0_1": 0.5099295290074906, "lat_deg": 34.00591454966203, "lon_deg": -117.99929468779519, "altitude_rel_ft": 77.8413, "yaw_deg": 71.898, "pitch_deg": -9.7191, "roll_deg": -7.3834, "ground_speed_ft_s": 13.131, "vel_north_m_s": 1.5581, "vel_east_m_s": -1.2925, "vel_down_m_s": -0.6523, "usable_for_triangulation": true}
{"run_id": "SIM_TEST", "kraken_seq": 51, "telemetry_seq": 22, "t_rx_ms": 1774568615556, "dt_ms": 18, "doa_deg": 331.0, "confidence_0_1": 0.5204094875001188, "lat_deg": 34.00378810925687, "lon_deg": -117.99178436151692, "altitude_rel_ft": 70.9498, "yaw_deg": 178.1897, "pitch_deg": -5.5908, "roll_deg": 13.9875, "ground_speed_ft_s": 31.169, "vel_north_m_s": -9.9989, "vel_east_m_s": -0.7232, "vel_down_m_s": -0.3814, "usable_for_triangulation": true}
{"run_id": "SIM_TEST", "kraken_seq": 52, "telemetry_seq": 23, "t_rx_ms": 1774568615657, "dt_ms": 18, "doa_deg": 229.0, "confidence_0_1": 0.5712089063230289, "lat_deg": 34.00938490345465, "lon_deg": -118.00555503700762, "altitude_rel_ft": 96.201, "yaw_deg": 89.1915, "pitch_deg": 3.775, "roll_deg": 2.8834, "ground_speed_ft_s": 25.2109, "vel_north_m_s": -8.2214, "vel_east_m_s": 9.5696, "vel_down_m_s": -0.733, "usable_for_triangulation": true}
{"run_id": "SIM_TEST", "kraken_seq": 53, "telemetry_seq": 24, "t_rx_ms": 1774568615757, "dt_ms": 19, "doa_deg": 304.0, "confidence_0_1": 0.6852008716508016, "lat_deg": 33.996347571725615, "lon_deg": -117.99809658329657, "altitude_rel_ft": 91.9151, "yaw_deg": 324.1832, "pitch_deg": -2.6931, "roll_deg": -8.6723, "ground_speed_ft_s": 45.456, "vel_north_m_s": -2.8516, "vel_east_m_s": -6.2092, "vel_down_m_s": -0.6127, "usable_for_triangulation": true}
{"run_id": "SIM_TEST", "kraken_seq": 54, "telemetry_seq": 25, "t_rx_ms": 1774568615858, "dt_ms": 19, "doa_deg": 139.0, "confidence_0_1": 0.21344878524456656, "lat_deg": 34.00810018484383, "lon_deg": -117.99873310525695, "altitude_rel_ft": 93.5375, "yaw_deg": 299.9304, "pitch_deg": 2.5119, "roll_deg": -2.0664, "ground_speed_ft_s": 13.1059, "vel_north_m_s": -0.8118, "vel_east_m_s": 9.6368, "vel_down_m_s": 0.2798, "usable_for_triangulation": false}
{"run_id": "SIM_TEST", "kraken_seq": 55, "telemetry_seq": 26, "t_rx_ms": 1774568615959, "dt_ms": 19, "doa_deg": 332.0, "confidence_0_1": 0.584113560402042, "lat_deg": 33.991756469074765, "lon_deg": -118.00357465349327, "altitude_rel_ft": 40.9173, "yaw_deg": 31.0673, "pitch_deg": 5.4486, "roll_deg": 9.2697, "ground_speed_ft_s": 16.4992, "vel_north_m_s": -8.9766, "vel_east_m_s": -2.5409, "vel_down_m_s": 0.9059, "usable_for_triangulation": true}
{"run_id": "SIM_TEST", "kraken_seq": 56, "telemetry_seq": 27, "t_rx_ms": 1774568616060, "dt_ms": 19, "doa_deg": 4.0, "confidence_0_1": 0.6800593205261225, "lat_deg": 34.00595732205658, "lon_deg": -117.99767896718417, "altitude_rel_ft": 35.9966, "yaw_deg": 132.3271, "pitch_deg": -0.2307, "roll_deg": -9.8538, "ground_speed_ft_s": 33.3917, "vel_north_m_s": 5.431, "vel_east_m_s": 7.5759, "vel_down_m_s": -0.9997, "usable_for_triangulation": true}
{"run_id": "SIM_TEST", "kraken_seq": 57, "telemetry_seq": 28, "t_rx_ms": 1774568616161, "dt_ms": 18, "doa_deg": 242.0, "confidence_0_1": 0.6680789798724368, "lat_deg": 33.99337873464972, "lon_deg": -117.99254460515539, "altitude_rel_ft": 96.2558, "yaw_deg": 57.4314, "pitch_deg": 0.3399, "roll_deg": 5.2155, "ground_speed_ft_s": 10.1766, "vel_north_m_s": 9.7549, "vel_east_m_s": -4.6937, "vel_down_m_s": -0.4867, "usable_for_triangulation": true}
{"run_id": "SIM_TEST", "kraken_seq": 58, "telemetry_seq": 29, "t_rx_ms": 1774568616261, "dt_ms": 19, "doa_deg": 266.0, "confidence_0_1": 0.7194966624459187, "lat_deg": 33.998243060368914, "lon_deg": -118.00400020713445, "altitude_rel_ft": 28.7199, "yaw_deg": 36.5841, "pitch_deg": -7.4444, "roll_deg": -3.5038, "ground_speed_ft_s": 58.7607, "vel_north_m_s": -1.6591, "vel_east_m_s": 4.7377, "vel_down_m_s": -0.4873, "usable_for_triangulation": true}
{"run_id": "SIM_TEST", "kraken_seq": 59, "telemetry_seq": 30, "t_rx_ms": 1774568616362, "dt_ms": 18, "doa_deg": 214.0, "confidence_0_1": 0.7480843938043267, "lat_deg": 34.00581347086771, "lon_deg": -117.99995918685799, "altitude_rel_ft": 38.8396, "yaw_deg": 309.484, "pitch_deg": -6.3192, "roll_deg": 14.8714, "ground_speed_ft_s": 47.9904, "vel_north_m_s": 7.0204, "vel_east_m_s": -7.9938, "vel_down_m_s": 0.5253, "usable_for_triangulation": true}
{"run_id": "SIM_TEST", "kraken_seq": 60, "telemetry_seq": 31, "t_rx_ms": 1774568616463, "dt_ms": 18, "doa_deg": 259.0, "confidence_0_1": 0.49266127691325745, "lat_deg": 33.99623357047786, "lon_deg": -117.99112278209056, "altitude_rel_ft": 57.6713, "yaw_deg": 290.0759, "pitch_deg": -4.2311, "roll_deg": -0.2553, "ground_speed_ft_s": 50.0419, "vel_north_m_s": 1.5633, "vel_east_m_s": 8.2428, "vel_down_m_s": 0.9879, "usable_for_triangulation": false}
{"run_id": "SIM_TEST", "kraken_seq": 61, "telemetry_seq": 32, "t_rx_ms": 1774568616564, "dt_ms": 18, "doa_deg": 309.0, "confidence_0_1": 0.4618627085291551, "lat_deg": 34.00103755615453, "lon_deg": -117.99999238559198, "altitude_rel_ft": 39.4962, "yaw_deg": 40.6465, "pitch_deg": -6.6826, "roll_deg": 1.9926, "ground_speed_ft_s": 13.2659, "vel_north_m_s": -5.5972, "vel_east_m_s": 7.658, "vel_down_m_s": 0.5432, "usable_for_triangulation": false}
{"run_id": "SIM_TEST", "kraken_seq": 62, "telemetry_seq": 33, "t_rx_ms": 1774568616665, "dt_ms": 18, "doa_deg": 288.0, "confidence_0_1": 0.008052028555947888, "lat_deg": 33.99434003243824, "lon_deg": -118.00851807840648, "altitude_rel_ft": 71.684, "yaw_deg": 154.9676, "pitch_deg": 5.7837, "roll_deg": 14.8471, "ground_speed_ft_s": 11.4698, "vel_north_m_s": -0.9293, "vel_east_m_s": 3.2072, "vel_down_m_s": 0.7965, "usable_for_triangulation": false}
{"run_id": "SIM_TEST", "kraken_seq": 63, "telemetry_seq": 34, "t_rx_ms": 1774568616766, "dt_ms": 18, "doa_deg": 202.0, "confidence_0_1": 0.33397789070738515, "lat_deg": 33.99000128826335, "lon_deg": -118.00303585900944, "altitude_rel_ft": 95.7898, "yaw_deg": 229.1276, "pitch_deg": 8.5266, "roll_deg": 14.8719, "ground_speed_ft_s": 49.749, "vel_north_m_s": -7.5377, "vel_east_m_s": 7.9021, "vel_down_m_s": -0.5499, "usable_for_triangulation": false}
{"run_id": "SIM_TEST", "kraken_seq": 64, "telemetry_seq": 35, "t_rx_ms": 1774568616867, "dt_ms": 19, "doa_deg": 155.0, "confidence_0_1": 0.9422407391846951, "lat_deg": 34.00835889468656, "lon_deg": -118.00402521273992, "altitude_rel_ft": 82.4453, "yaw_deg": 249.4684, "pitch_deg": -5.8854, "roll_deg": 10.4731, "ground_speed_ft_s": 45.0215, "vel_north_m_s": 8.0637, "vel_east_m_s": 9.6333, "vel_down_m_s": -0.0579, "usable_for_triangulation": true}
{"run_id": "SIM_TEST", "kraken_seq": 65, "telemetry_seq": 36, "t_rx_ms": 1774568616968, "dt_ms": 19, "doa_deg": 328.0, "confidence_0_1": 0.37048466132403235, "lat_deg": 33.990220622834656, "lon_deg": -117.99415007402337, "altitude_rel_ft": 73.5462, "yaw_deg": 274.1995, "pitch_deg": 4.4392, "roll_deg": 8.5153, "ground_speed_ft_s": 20.7959, "vel_north_m_s": 8.2437, "vel_east_m_s": -6.0959, "vel_down_m_s": 0.8545, "usable_for_triangulation": false}
{"run_id": "SIM_TEST", "kraken_seq": 66, "telemetry_seq": 37, "t_rx_ms": 1774568617069, "dt_ms": 19, "doa_deg": 197.0, "confidence_0_1": 0.20940418720708032, "lat_deg": 33.990333808614245, "lon_deg": -118.00671943130202, "altitude_rel_ft": 28.2707, "yaw_deg": 41.5822, "pitch_deg": 2.5023, "roll_deg": -4.7537, "ground_speed_ft_s": 28.2863, "vel_north_m_s": 5.7628, "vel_east_m_s": -7.7851, "vel_down_m_s": -0.3349, "usable_for_triangulation": false}
{"run_id": "SIM_TEST", "kraken_seq": 67, "telemetry_seq": 38, "t_rx_ms": 1774568617171, "dt_ms": 18, "doa_deg": 78.0, "confidence_0_1": 0.6951709340702941, "lat_deg": 33.99764843217617, "lon_deg": -118.00369966464088, "altitude_rel_ft": 91.1919, "yaw_deg": 342.6799, "pitch_deg": 9.5175, "roll_deg": -2.999, "ground_speed_ft_s": 43.1374, "vel_north_m_s": -2.6088, "vel_east_m_s": -0.4751, "vel_down_m_s": -0.7317, "usable_for_triangulation": true}
{"run_id": "SIM_TEST", "kraken_seq": 68, "telemetry_seq": 39, "t_rx_ms": 1774568617272, "dt_ms": 18, "doa_deg": 89.0, "confidence_0_1": 0.7686227091957873, "lat_deg": 34.00643845212328, "lon_deg": -118.00506202174238, "altitude_rel_ft": 62.0891, "yaw_deg": 96.7027, "pitch_deg": -7.508, "roll_deg": -7.2326, "ground_speed_ft_s": 49.3035, "vel_north_m_s": 5.216, "vel_east_m_s": 4.9891, "vel_down_m_s": 0.5468, "usable_for_triangulation": true}
{"run_id": "SIM_TEST", "kraken_seq": 69, "telemetry_seq": 40, "t_rx_ms": 1774568617373, "dt_ms": 18, "doa_deg": 20.0, "confidence_0_1": 0.827048940432968, "lat_deg": 33.99546810115952, "lon_deg": -118.00312545666075, "altitude_rel_ft": 20.7915, "yaw_deg": 165.2658, "pitch_deg": -4.3319, "roll_deg": -12.1156, "ground_speed_ft_s": 27.7515, "vel_north_m_s": 1.9145, "vel_east_m_s": 8.9808, "vel_down_m_s": 0.8716, "usable_for_triangulation": true}
{"run_id": "SIM_TEST", "kraken_seq": 70, "telemetry_seq": 41, "t_rx_ms": 1774568617474, "dt_ms": 18, "doa_deg": 88.0, "confidence_0_1": 0.6637279470509553, "lat_deg": 33.99015689774766, "lon_deg": -118.007781921025, "altitude_rel_ft": 79.4339, "yaw_deg": 175.5438, "pitch_deg": -0.5908, "roll_deg": 11.4769, "ground_speed_ft_s": 5.4818, "vel_north_m_s": -7.4296, "vel_east_m_s": 1.9111, "vel_down_m_s": 0.7864, "usable_for_triangulation": true}
{"run_id": "SIM_TEST", "kraken_seq": 71, "telemetry_seq": 42, "t_rx_ms": 1774568617575, "dt_ms": 18, "doa_deg": 116.0, "confidence_0_1": 0.7111359491780465, "lat_deg": 33.993567124160485, "lon_deg": -117.99637095140677, "altitude_rel_ft": 23.3323, "yaw_deg": 152.9045, "pitch_deg": 8.0435, "roll_deg": -11.8503, "ground_speed_ft_s": 33.0586, "vel_north_m_s": 0.0646, "vel_east_m_s": -2.2582, "vel_down_m_s": -0.6743, "usable_for_triangulation": true}
{"run_id": "SIM_TEST", "kraken_seq": 72, "telemetry_seq": 43, "t_rx_ms": 1774568617677, "dt_ms": 18, "doa_deg": 99.0, "confidence_0_1": 0.14957215752051722, "lat_deg": 34.001306040608014, "lon_deg": -117.9998487895909, "altitude_rel_ft": 25.2931, "yaw_deg": 314.4867, "pitch_deg": 6.0508, "roll_deg": 12.8801, "ground_speed_ft_s": 42.3144, "vel_north_m_s": 9.6484, "vel_east_m_s": -5.863, "vel_down_m_s": 0.081, "usable_for_triangulation": false}
{"run_id": "SIM_TEST", "kraken_seq": 73, "telemetry_seq": 44, "t_rx_ms": 1774568617777, "dt_ms": 18, "doa_deg": 75.0, "confidence_0_1": 0.019517967918535106, "lat_deg": 34.0027514641522, "lon_deg": -117.99137481362371, "altitude_rel_ft": 83.2039, "yaw_deg": 345.8574, "pitch_deg": -7.9415, "roll_deg": 10.3895, "ground_speed_ft_s": 40.7865, "vel_north_m_s": 6.5763, "vel_east_m_s": 6.71, "vel_down_m_s": -0.6039, "usable_for_triangulation": false}
{"run_id": "SIM_TEST", "kraken_seq": 74, "telemetry_seq": 45, "t_rx_ms": 1774568617878, "dt_ms": 18, "doa_deg": 217.0, "confidence_0_1": 0.16231347209854352, "lat_deg": 34.000431970033446, "lon_deg": -118.00376934104577, "altitude_rel_ft": 40.3218, "yaw_deg": 198.5296, "pitch_deg": 0.8073, "roll_deg": -0.7964, "ground_speed_ft_s": 35.7638, "vel_north_m_s": -3.4259, "vel_east_m_s": 8.2414, "vel_down_m_s": 0.2258, "usable_for_triangulation": false}
{"run_id": "SIM_TEST", "kraken_seq": 75, "telemetry_seq": 46, "t_rx_ms": 1774568617979, "dt_ms": 18, "doa_deg": 280.0, "confidence_0_1": 0.5623672884489576, "lat_deg": 34.00756538118704, "lon_deg": -118.00879675401812, "altitude_rel_ft": 89.1158, "yaw_deg": 175.1408, "pitch_deg": 3.2723, "roll_deg": 3.8023, "ground_speed_ft_s": 54.2072, "vel_north_m_s": -3.0673, "vel_east_m_s": 8.1661, "vel_down_m_s": 0.8593, "usable_for_triangulation": true}
{"run_id": "SIM_TEST", "kraken_seq": 76, "telemetry_seq": 47, "t_rx_ms": 1774568618079, "dt_ms": 18, "doa_deg": 20.0, "confidence_0_1": 0.3305940222146472, "lat_deg": 33.99747779475336, "lon_deg": -118.00466023042489, "altitude_rel_ft": 38.9594, "yaw_deg": 41.7487, "pitch_deg": -0.6938, "roll_deg": -4.6094, "ground_speed_ft_s": 20.4551, "vel_north_m_s": -8.7266, "vel_east_m_s": -1.7613, "vel_down_m_s": 0.7541, "usable_for_triangulation": false}
{"run_id": "SIM_TEST", "kraken_seq": 77, "telemetry_seq": 48, "t_rx_ms": 1774568618180, "dt_ms": 18, "doa_deg": 346.0, "confidence_0_1": 0.46691675883828465, "lat_deg": 34.00050755242173, "lon_deg": -118.0043691403326, "altitude_rel_ft": 82.3747, "yaw_deg": 21.2216, "pitch_deg": -2.117, "roll_deg": -4.5192, "ground_speed_ft_s": 11.2618, "vel_north_m_s": 4.5162, "vel_east_m_s": 9.4666, "vel_down_m_s": -0.2735, "usable_for_triangulation": false}
{"run_id": "SIM_TEST", "kraken_seq": 78, "telemetry_seq": 49, "t_rx_ms": 1774568618281, "dt_ms": 18, "doa_deg": 148.0, "confidence_0_1": 0.9080589876274942, "lat_deg": 34.001856573611896, "lon_deg": -118.00806823317046, "altitude_rel_ft": 64.8029, "yaw_deg": 144.5532, "pitch_deg": -9.2094, "roll_deg": -12.5207, "ground_speed_ft_s": 32.1848, "vel_north_m_s": -6.4883, "vel_east_m_s": 1.5519, "vel_down_m_s": 0.2542, "usable_for_triangulation": true}
{"run_id": "SIM_TEST", "kraken_seq": 79, "telemetry_seq": 50, "t_rx_ms": 1774568618382, "dt_ms": 18, "doa_deg": 304.0, "confidence_0_1": 0.6468276812083184, "lat_deg": 33.99865165070701, "lon_deg": -118.00970073636604, "altitude_rel_ft": 49.0757, "yaw_deg": 250.26, "pitch_deg": -3.4224, "roll_deg": -5.513, "ground_speed_ft_s": 14.4363, "vel_north_m_s": -1.5635, "vel_east_m_s": 1.0192, "vel_down_m_s": 0.4082, "usable_for_triangulation": true}
{"run_id": "SIM_TEST", "kraken_seq": 80, "telemetry_seq": 51, "t_rx_ms": 1774568618483, "dt_ms": 18, "doa_deg": 103.0, "confidence_0_1": 0.6393053495578063, "lat_deg": 34.00518484966173, "lon_deg": -117.99874363136783, "altitude_rel_ft": 77.1892, "yaw_deg": 329.7503, "pitch_deg": -6.7701, "roll_deg": -12.2751, "ground_speed_ft_s": 20.1965, "vel_north_m_s": -6.7815, "vel_east_m_s": 8.2354, "vel_down_m_s": -0.6007, "usable_for_triangulation": true}
{"run_id": "SIM_TEST", "kraken_seq": 81, "telemetry_seq": 52, "t_rx_ms": 1774568618583, "dt_ms": 18, "doa_deg": 236.0, "confidence_0_1": 0.03752371462251114, "lat_deg": 34.009059869013186, "lon_deg": -118.00223996787781, "altitude_rel_ft": 26.2613, "yaw_deg": 257.8412, "pitch_deg": -3.897, "roll_deg": -12.3612, "ground_speed_ft_s": 18.1576, "vel_north_m_s": 1.4996, "vel_east_m_s": 7.9449, "vel_down_m_s": 0.9062, "usable_for_triangulation": false}
{"run_id": "SIM_TEST", "kraken_seq": 82, "telemetry_seq": 53, "t_rx_ms": 1774568618684, "dt_ms": 18, "doa_deg": 224.0, "confidence_0_1": 0.2058419147148448, "lat_deg": 33.99258913772793, "lon_deg": -118.00177401111827, "altitude_rel_ft": 84.6657, "yaw_deg": 1.4136, "pitch_deg": 9.9587, "roll_deg": -5.8115, "ground_speed_ft_s": 52.3233, "vel_north_m_s": 4.7153, "vel_east_m_s": 6.7801, "vel_down_m_s": -0.9817, "usable_for_triangulation": false}
{"run_id": "SIM_TEST", "kraken_seq": 83, "telemetry_seq": 54, "t_rx_ms": 1774568618785, "dt_ms": 17, "doa_deg": 132.0, "confidence_0_1": 0.17470803269436497, "lat_deg": 33.991801632903524, "lon_deg": -117.99126647063244, "altitude_rel_ft": 59.8149, "yaw_deg": 84.4221, "pitch_deg": -1.2565, "roll_deg": -4.4097, "ground_speed_ft_s": 36.944, "vel_north_m_s": -5.6632, "vel_east_m_s": -5.2342, "vel_down_m_s": 0.2409, "usable_for_triangulation": false}
{"run_id": "SIM_TEST", "kraken_seq": 84, "telemetry_seq": 55, "t_rx_ms": 1774568618886, "dt_ms": 17, "doa_deg": 114.0, "confidence_0_1": 0.7674826626850194, "lat_deg": 33.99081995787118, "lon_deg": -117.99912467090144, "altitude_rel_ft": 82.6054, "yaw_deg": 97.1535, "pitch_deg": -4.5088, "roll_deg": 4.5444, "ground_speed_ft_s": 19.7475, "vel_north_m_s": -8.119, "vel_east_m_s": 3.2265, "vel_down_m_s": -0.9882, "usable_for_triangulation": true}
{"run_id": "SIM_TEST", "kraken_seq": 85, "telemetry_seq": 56, "t_rx_ms": 1774568618987, "dt_ms": 16, "doa_deg": 342.0, "confidence_0_1": 0.9465717058950147, "lat_deg": 34.00931535816641, "lon_deg": -118.00930020036826, "altitude_rel_ft": 98.213, "yaw_deg": 107.8944, "pitch_deg": 3.1034, "roll_deg": 13.0296, "ground_speed_ft_s": 49.5336, "vel_north_m_s": -8.6383, "vel_east_m_s": 9.3637, "vel_down_m_s": 0.1468, "usable_for_triangulation": true}
{"run_id": "SIM_TEST", "kraken_seq": 86, "telemetry_seq": 57, "t_rx_ms": 1774568619088, "dt_ms": 15, "doa_deg": 184.0, "confidence_0_1": 0.28887912681514305, "lat_deg": 33.99863375846774, "lon_deg": -118.00223616057066, "altitude_rel_ft": 74.0841, "yaw_deg": 277.1752, "pitch_deg": 9.0196, "roll_deg": -7.7678, "ground_speed_ft_s": 15.8554, "vel_north_m_s": -6.7186, "vel_east_m_s": -8.3006, "vel_down_m_s": -0.3, "usable_for_triangulation": false}
{"run_id": "SIM_TEST", "kraken_seq": 87, "telemetry_seq": 58, "t_rx_ms": 1774568619188, "dt_ms": 16, "doa_deg": 21.0, "confidence_0_1": 0.49241486906085774, "lat_deg": 33.991123605706285, "lon_deg": -118.00581643461845, "altitude_rel_ft": 67.0, "yaw_deg": 354.7454, "pitch_deg": 9.1722, "roll_deg": -13.4328, "ground_speed_ft_s": 32.9828, "vel_north_m_s": 2.7056, "vel_east_m_s": -6.3385, "vel_down_m_s": -0.0091, "usable_for_triangulation": false}
{"run_id": "SIM_TEST", "kraken_seq": 88, "telemetry_seq": 59, "t_rx_ms": 1774568619289, "dt_ms": 16, "doa_deg": 157.0, "confidence_0_1": 0.07043499865245206, "lat_deg": 34.0088622236109, "lon_deg": -117.99381471966748, "altitude_rel_ft": 38.2755, "yaw_deg": 307.9874, "pitch_deg": -7.4854, "roll_deg": 0.2818, "ground_speed_ft_s": 37.2521, "vel_north_m_s": 3.4173, "vel_east_m_s": -0.1787, "vel_down_m_s": -0.6343, "usable_for_triangulation": false}
{"run_id": "SIM_TEST", "kraken_seq": 89, "telemetry_seq": 60, "t_rx_ms": 1774568619390, "dt_ms": 16, "doa_deg": 47.0, "confidence_0_1": 0.3673117685049395, "lat_deg": 34.00862247935851, "lon_deg": -118.00036009582307, "altitude_rel_ft": 58.3189, "yaw_deg": 92.6191, "pitch_deg": 5.2691, "roll_deg": -14.6483, "ground_speed_ft_s": 28.3644, "vel_north_m_s": -5.6101, "vel_east_m_s": -2.2619, "vel_down_m_s": 0.4837, "usable_for_triangulation": false}
{"run_id": "SIM_TEST", "kraken_seq": 90, "telemetry_seq": 61, "t_rx_ms": 1774568619490, "dt_ms": 17, "doa_deg": 347.0, "confidence_0_1": 0.07286715145393918, "lat_deg": 33.994783056683, "lon_deg": -118.00389892681649, "altitude_rel_ft": 30.4113, "yaw_deg": 102.4534, "pitch_deg": -5.499, "roll_deg": -2.3973, "ground_speed_ft_s": 59.1159, "vel_north_m_s": 4.1681, "vel_east_m_s": 9.2774, "vel_down_m_s": 0.5821, "usable_for_triangulation": false}
{"run_id": "SIM_TEST", "kraken_seq": 91, "telemetry_seq": 62, "t_rx_ms": 1774568619591, "dt_ms": 17, "doa_deg": 60.0, "confidence_0_1": 0.4355347218008696, "lat_deg": 33.99855595908212, "lon_deg": -118.0008099266268, "altitude_rel_ft": 85.5541, "yaw_deg": 219.6317, "pitch_deg": -2.5026, "roll_deg": -14.4524, "ground_speed_ft_s": 20.9217, "vel_north_m_s": -3.126, "vel_east_m_s": 2.5009, "vel_down_m_s": 0.1288, "usable_for_triangulation": false}
{"run_id": "SIM_TEST", "kraken_seq": 92, "telemetry_seq": 63, "t_rx_ms": 1774568619692, "dt_ms": 17, "doa_deg": 48.0, "confidence_0_1": 0.7407785303243263, "lat_deg": 33.99921751440284, "lon_deg": -117.99490854710444, "altitude_rel_ft": 70.5861, "yaw_deg": 191.4075, "pitch_deg": 3.7376, "roll_deg": -2.8207, "ground_speed_ft_s": 42.7778, "vel_north_m_s": 5.619, "vel_east_m_s": -1.1708, "vel_down_m_s": 0.3231, "usable_for_triangulation": true}
{"run_id": "SIM_TEST", "kraken_seq": 93, "telemetry_seq": 64, "t_rx_ms": 1774568619793, "dt_ms": 17, "doa_deg": 170.0, "confidence_0_1": 0.22911918558460753, "lat_deg": 33.99243472245988, "lon_deg": -117.99356337483148, "altitude_rel_ft": 97.6547, "yaw_deg": 300.7294, "pitch_deg": -3.972, "roll_deg": -13.6924, "ground_speed_ft_s": 24.9293, "vel_north_m_s": 8.1044, "vel_east_m_s": 1.9679, "vel_down_m_s": -0.1657, "usable_for_triangulation": false}
{"run_id": "SIM_TEST", "kraken_seq": 94, "telemetry_seq": 65, "t_rx_ms": 1774568619893, "dt_ms": 17, "doa_deg": 287.0, "confidence_0_1": 0.0035956824873503157, "lat_deg": 33.99165404384263, "lon_deg": -117.99988146742032, "altitude_rel_ft": 52.6257, "yaw_deg": 333.205, "pitch_deg": 4.4708, "roll_deg": 0.481, "ground_speed_ft_s": 26.5706, "vel_north_m_s": -1.1963, "vel_east_m_s": 4.2781, "vel_down_m_s": -0.3677, "usable_for_triangulation": false}
{"run_id": "SIM_TEST", "kraken_seq": 95, "telemetry_seq": 66, "t_rx_ms": 1774568619994, "dt_ms": 17, "doa_deg": 240.0, "confidence_0_1": 0.4311370578414385, "lat_deg": 33.993860299520655, "lon_deg": -118.00673217034692, "altitude_rel_ft": 81.1256, "yaw_deg": 326.0436, "pitch_deg": 5.1066, "roll_deg": -11.4787, "ground_speed_ft_s": 52.6365, "vel_north_m_s": 7.0074, "vel_east_m_s": -6.8415, "vel_down_m_s": 0.7359, "usable_for_triangulation": false}
{"run_id": "SIM_TEST", "kraken_seq": 96, "telemetry_seq": 67, "t_rx_ms": 1774568620095, "dt_ms": 17, "doa_deg": 15.0, "confidence_0_1": 0.11672381608422633, "lat_deg": 34.00293294235348, "lon_deg": -117.99424784381033, "altitude_rel_ft": 27.6762, "yaw_deg": 293.831, "pitch_deg": 5.9331, "roll_deg": -6.5504, "ground_speed_ft_s": 54.8116, "vel_north_m_s": 2.9006, "vel_east_m_s": 7.6598, "vel_down_m_s": -0.7804, "usable_for_triangulation": false}
{"run_id": "SIM_TEST", "kraken_seq": 97, "telemetry_seq": 68, "t_rx_ms": 1774568620197, "dt_ms": 16, "doa_deg": 335.0, "confidence_0_1": 0.8299281887250614, "lat_deg": 34.00048609131926, "lon_deg": -117.99574190083032, "altitude_rel_ft": 37.5778, "yaw_deg": 255.7065, "pitch_deg": 6.9787, "roll_deg": -1.9596, "ground_speed_ft_s": 19.0815, "vel_north_m_s": -0.5388, "vel_east_m_s": 4.5551, "vel_down_m_s": -0.8171, "usable_for_triangulation": true}
{"run_id": "SIM_TEST", "kraken_seq": 98, "telemetry_seq": 69, "t_rx_ms": 1774568620298, "dt_ms": 16, "doa_deg": 144.0, "confidence_0_1": 0.983404287527332, "lat_deg": 34.005055158824256, "lon_deg": -117.99142689927156, "altitude_rel_ft": 27.6467, "yaw_deg": 89.0786, "pitch_deg": -4.2296, "roll_deg": 6.9212, "ground_speed_ft_s": 53.821, "vel_north_m_s": -0.4026, "vel_east_m_s": 7.3823, "vel_down_m_s": 0.3439, "usable_for_triangulation": true}
{"run_id": "SIM_TEST", "kraken_seq": 99, "telemetry_seq": 70, "t_rx_ms": 1774568620399, "dt_ms": 16, "doa_deg": 285.0, "confidence_0_1": 0.11137703359304763, "lat_deg": 33.99983510443561, "lon_deg": -117.99263760861137, "altitude_rel_ft": 69.7217, "yaw_deg": 166.8871, "pitch_deg": -9.4011, "roll_deg": -4.9078, "ground_speed_ft_s": 20.2302, "vel_north_m_s": -3.4475, "vel_east_m_s": 9.6323, "vel_down_m_s": -0.7096, "usable_for_triangulation": false}
{"run_id": "SIM_TEST", "kraken_seq": 100, "telemetry_seq": 71, "t_rx_ms": 1774568620500, "dt_ms": 16, "doa_deg": 40.0, "confidence_0_1": 0.18643094283199035, "lat_deg": 33.99024195316372, "lon_deg": -118.0068903754601, "altitude_rel_ft": 96.3461, "yaw_deg": 290.2408, "pitch_deg": 7.6522, "roll_deg": 9.7777, "ground_speed_ft_s": 48.0986, "vel_north_m_s": -1.9199, "vel_east_m_s": 3.098, "vel_down_m_s": 0.468, "usable_for_triangulation": false}
{"run_id": "SIM_TEST", "kraken_seq": 101, "telemetry_seq": 72, "t_rx_ms": 1774568620601, "dt_ms": 16, "doa_deg": 225.0, "confidence_0_1": 0.9922297720131815, "lat_deg": 34.00218449022063, "lon_deg": -117.99541975918147, "altitude_rel_ft": 31.6427, "yaw_deg": 258.1587, "pitch_deg": 9.7884, "roll_deg": -4.9454, "ground_speed_ft_s": 7.7313, "vel_north_m_s": -3.4355, "vel_east_m_s": 7.6522, "vel_down_m_s": -0.3665, "usable_for_triangulation": true}
{"run_id": "SIM_TEST", "kraken_seq": 102, "telemetry_seq": 73, "t_rx_ms": 1774568620702, "dt_ms": 16, "doa_deg": 302.0, "confidence_0_1": 0.6859129354428626, "lat_deg": 34.003879886017145, "lon_deg": -118.00199674028399, "altitude_rel_ft": 40.813, "yaw_deg": 135.3796, "pitch_deg": 5.3843, "roll_deg": 11.1451, "ground_speed_ft_s": 37.9266, "vel_north_m_s": 3.4729, "vel_east_m_s": 1.9387, "vel_down_m_s": -0.7889, "usable_for_triangulation": true}
{"run_id": "SIM_TEST", "kraken_seq": 103, "telemetry_seq": 74, "t_rx_ms": 1774568620803, "dt_ms": 16, "doa_deg": 271.0, "confidence_0_1": 0.2549258417484772, "lat_deg": 33.99547196533276, "lon_deg": -117.99912783650657, "altitude_rel_ft": 77.9799, "yaw_deg": 313.393, "pitch_deg": -0.296, "roll_deg": 1.6504, "ground_speed_ft_s": 46.3076, "vel_north_m_s": -8.9175, "vel_east_m_s": -8.9563, "vel_down_m_s": -0.6648, "usable_for_triangulation": false}
{"run_id": "SIM_TEST", "kraken_seq": 104, "telemetry_seq": 75, "t_rx_ms": 1774568620904, "dt_ms": 16, "doa_deg": 177.0, "confidence_0_1": 0.46891891282577736, "lat_deg": 34.006047529116245, "lon_deg": -118.00948382104244, "altitude_rel_ft": 85.7446, "yaw_deg": 139.7834, "pitch_deg": 9.3704, "roll_deg": 1.0975, "ground_speed_ft_s": 27.1564, "vel_north_m_s": -8.3393, "vel_east_m_s": 0.912, "vel_down_m_s": 0.0918, "usable_for_triangulation": false}
{"run_id": "SIM_TEST", "kraken_seq": 105, "telemetry_seq": 76, "t_rx_ms": 1774568621005, "dt_ms": 15, "doa_deg": 346.0, "confidence_0_1": 0.5436886875292437, "lat_deg": 34.006000240116066, "lon_deg": -118.00995127468613, "altitude_rel_ft": 37.7201, "yaw_deg": 332.358, "pitch_deg": -2.9094, "roll_deg": -0.9312, "ground_speed_ft_s": 28.5927, "vel_north_m_s": 9.1084, "vel_east_m_s": -3.3272, "vel_down_m_s": -0.481, "usable_for_triangulation": true}
{"run_id": "SIM_TEST", "kraken_seq": 106, "telemetry_seq": 77, "t_rx_ms": 1774568621106, "dt_ms": 15, "doa_deg": 303.0, "confidence_0_1": 0.5161957156535828, "lat_deg": 34.00310433518686, "lon_deg": -118.00086607269407, "altitude_rel_ft": 42.1947, "yaw_deg": 210.3688, "pitch_deg": 5.8536, "roll_deg": 14.4038, "ground_speed_ft_s": 55.8795, "vel_north_m_s": -1.6367, "vel_east_m_s": 4.624, "vel_down_m_s": -0.3751, "usable_for_triangulation": true}
{"run_id": "SIM_TEST", "kraken_seq": 107, "telemetry_seq": 78, "t_rx_ms": 1774568621207, "dt_ms": 14, "doa_deg": 239.0, "confidence_0_1": 0.9664037702569104, "lat_deg": 33.999855235658764, "lon_deg": -118.00027909801668, "altitude_rel_ft": 31.5935, "yaw_deg": 193.7349, "pitch_deg": 8.9197, "roll_deg": 12.2963, "ground_speed_ft_s": 14.3159, "vel_north_m_s": -9.8465, "vel_east_m_s": -0.2802, "vel_down_m_s": 0.3147, "usable_for_triangulation": true}
{"run_id": "SIM_TEST", "kraken_seq": 108, "telemetry_seq": 79, "t_rx_ms": 1774568621308, "dt_ms": 14, "doa_deg": 208.0, "confidence_0_1": 0.9766694851786437, "lat_deg": 34.0066132415878, "lon_deg": -117.99821522590199, "altitude_rel_ft": 72.3138, "yaw_deg": 165.0432, "pitch_deg": 4.9244, "roll_deg": -9.3568, "ground_speed_ft_s": 23.6583, "vel_north_m_s": 1.7757, "vel_east_m_s": 2.1016, "vel_down_m_s": -0.4742, "usable_for_triangulation": true}
{"run_id": "SIM_TEST", "kraken_seq": 109, "telemetry_seq": 80, "t_rx_ms": 1774568621409, "dt_ms": 14, "doa_deg": 114.0, "confidence_0_1": 0.07673683257841624, "lat_deg": 33.99763904882893, "lon_deg": -118.00786866924679, "altitude_rel_ft": 54.1332, "yaw_deg": 11.2745, "pitch_deg": 0.6984, "roll_deg": 2.7483, "ground_speed_ft_s": 17.4937, "vel_north_m_s": 1.0361, "vel_east_m_s": 1.7064, "vel_down_m_s": -0.4266, "usable_for_triangulation": false}
{"run_id": "SIM_TEST", "kraken_seq": 110, "telemetry_seq": 81, "t_rx_ms": 1774568621510, "dt_ms": 14, "doa_deg": 21.0, "confidence_0_1": 0.3387792293050996, "lat_deg": 34.00074808527771, "lon_deg": -118.008623106821, "altitude_rel_ft": 39.2851, "yaw_deg": 88.577, "pitch_deg": -8.8842, "roll_deg": -9.5272, "ground_speed_ft_s": 47.6618, "vel_north_m_s": -1.2149, "vel_east_m_s": 6.7858, "vel_down_m_s": 0.1711, "usable_for_triangulation": false}
{"run_id": "SIM_TEST", "kraken_seq": 111, "telemetry_seq": 82, "t_rx_ms": 1774568621611, "dt_ms": 14, "doa_deg": 250.0, "confidence_0_1": 0.30729970591755507, "lat_deg": 34.004123667676524, "lon_deg": -117.99174361155302, "altitude_rel_ft": 74.6361, "yaw_deg": 304.9243, "pitch_deg": 9.0456, "roll_deg": -4.6487, "ground_speed_ft_s": 27.1182, "vel_north_m_s": -4.6051, "vel_east_m_s": 8.5128, "vel_down_m_s": 0.7979, "usable_for_triangulation": false}
{"run_id": "SIM_TEST", "kraken_seq": 112, "telemetry_seq": 83, "t_rx_ms": 1774568621711, "dt_ms": 15, "doa_deg": 237.0, "confidence_0_1": 0.11317156638176162, "lat_deg": 34.00034847745682, "lon_deg": -117.99497069215585, "altitude_rel_ft": 69.1649, "yaw_deg": 153.3472, "pitch_deg": -8.3448, "roll_deg": 8.9868, "ground_speed_ft_s": 45.5624, "vel_north_m_s": -7.3552, "vel_east_m_s": 6.7678, "vel_down_m_s": -0.7759, "usable_for_triangulation": false}
{"run_id": "SIM_TEST", "kraken_seq": 113, "telemetry_seq": 84, "t_rx_ms": 1774568621812, "dt_ms": 15, "doa_deg": 249.0, "confidence_0_1": 0.3075398673871014, "lat_deg": 34.000896561951464, "lon_deg": -118.00184204407306, "altitude_rel_ft": 45.012, "yaw_deg": 239.3189, "pitch_deg": 2.3782, "roll_deg": -9.6547, "ground_speed_ft_s": 14.3822, "vel_north_m_s": -5.8498, "vel_east_m_s": 8.4942, "vel_down_m_s": 0.692, "usable_for_triangulation": false}
{"run_id": "SIM_TEST", "kraken_seq": 114, "telemetry_seq": 85, "t_rx_ms": 1774568621913, "dt_ms": 14, "doa_deg": 243.0, "confidence_0_1": 0.9351482532823333, "lat_deg": 34.0072146760849, "lon_deg": -117.99512971672875, "altitude_rel_ft": 29.5329, "yaw_deg": 170.5723, "pitch_deg": -7.3977, "roll_deg": 0.2864, "ground_speed_ft_s": 26.2309, "vel_north_m_s": 0.8715, "vel_east_m_s": -1.1414, "vel_down_m_s": 0.434, "usable_for_triangulation": true}
{"run_id": "SIM_TEST", "kraken_seq": 115, "telemetry_seq": 86, "t_rx_ms": 1774568622014, "dt_ms": 14, "doa_deg": 193.0, "confidence_0_1": 0.3800507977079588, "lat_deg": 33.99929239879797, "lon_deg": -118.00663651842838, "altitude_rel_ft": 80.091, "yaw_deg": 67.4448, "pitch_deg": -8.7464, "roll_deg": -3.1078, "ground_speed_ft_s": 45.238, "vel_north_m_s": -9.8975, "vel_east_m_s": 7.6884, "vel_down_m_s": -0.0984, "usable_for_triangulation": false}
{"run_id": "SIM_TEST", "kraken_seq": 116, "telemetry_seq": 87, "t_rx_ms": 1774568622115, "dt_ms": 15, "doa_deg": 264.0, "confidence_0_1": 0.638607810700573, "lat_deg": 34.004540340333484, "lon_deg": -118.00135473345756, "altitude_rel_ft": 93.6686, "yaw_deg": 30.3334, "pitch_deg": 5.4614, "roll_deg": -9.1633, "ground_speed_ft_s": 52.924, "vel_north_m_s": 7.2849, "vel_east_m_s": -2.0596, "vel_down_m_s": 0.3596, "usable_for_triangulation": true}
{"run_id": "SIM_TEST", "kraken_seq": 117, "telemetry_seq": 88, "t_rx_ms": 1774568622216, "dt_ms": 15, "doa_deg": 11.0, "confidence_0_1": 0.9544109342045336, "lat_deg": 34.00953742710544, "lon_deg": -118.00512268027381, "altitude_rel_ft": 37.5001, "yaw_deg": 352.9494, "pitch_deg": -6.2072, "roll_deg": -5.6814, "ground_speed_ft_s": 22.0381, "vel_north_m_s": -7.4031, "vel_east_m_s": -6.6172, "vel_down_m_s": -0.6874, "usable_for_triangulation": true}
{"run_id": "SIM_TEST", "kraken_seq": 118, "telemetry_seq": 89, "t_rx_ms": 1774568622317, "dt_ms": 15, "doa_deg": 358.0, "confidence_0_1": 0.20805643254934836, "lat_deg": 34.0097290563808, "lon_deg": -117.99339667013668, "altitude_rel_ft": 99.1316, "yaw_deg": 178.3306, "pitch_deg": 8.7108, "roll_deg": -3.8166, "ground_speed_ft_s": 10.8835, "vel_north_m_s": -5.325, "vel_east_m_s": -4.2883, "vel_down_m_s": 0.1139, "usable_for_triangulation": false}
{"run_id": "SIM_TEST", "kraken_seq": 119, "telemetry_seq": 90, "t_rx_ms": 1774568622418, "dt_ms": 15, "doa_deg": 92.0, "confidence_0_1": 0.15398441410634, "lat_deg": 33.990162630742816, "lon_deg": -117.99039034240569, "altitude_rel_ft": 75.2413, "yaw_deg": 68.7123, "pitch_deg": -8.2114, "roll_deg": -12.7754, "ground_speed_ft_s": 15.1523, "vel_north_m_s": 5.467, "vel_east_m_s": -5.9581, "vel_down_m_s": -0.6368, "usable_for_triangulation": false}
{"run_id": "SIM_TEST", "kraken_seq": 120, "telemetry_seq": 91, "t_rx_ms": 1774568622519, "dt_ms": 15, "doa_deg": 299.0, "confidence_0_1": 0.48105199035292423, "lat_deg": 33.99610496507271, "lon_deg": -117.99003332492154, "altitude_rel_ft": 61.1934, "yaw_deg": 33.8616, "pitch_deg": 0.0799, "roll_deg": 12.0002, "ground_speed_ft_s": 43.5628, "vel_north_m_s": -7.5789, "vel_east_m_s": -7.9937, "vel_down_m_s": 0.6942, "usable_for_triangulation": false}
{"run_id": "SIM_TEST", "kraken_seq": 121, "telemetry_seq": 92, "t_rx_ms": 1774568622620, "dt_ms": 15, "doa_deg": 119.0, "confidence_0_1": 0.4660373226051705, "lat_deg": 33.99704506117283, "lon_deg": -117.99576481745024, "altitude_rel_ft": 96.5792, "yaw_deg": 189.2188, "pitch_deg": 7.7051, "roll_deg": -4.2008, "ground_speed_ft_s": 47.8239, "vel_north_m_s": -4.7454, "vel_east_m_s": 4.5775, "vel_down_m_s": 0.2504, "usable_for_triangulation": false}
{"run_id": "SIM_TEST", "kraken_seq": 122, "telemetry_seq": 93, "t_rx_ms": 1774568622721, "dt_ms": 15, "doa_deg": 157.0, "confidence_0_1": 0.929519882064963, "lat_deg": 34.000958609155326, "lon_deg": -118.00645942525509, "altitude_rel_ft": 29.6026, "yaw_deg": 290.2982, "pitch_deg": -7.8294, "roll_deg": -10.7063, "ground_speed_ft_s": 21.7833, "vel_north_m_s": -0.3297, "vel_east_m_s": -0.0698, "vel_down_m_s": 0.0897, "usable_for_triangulation": true}
{"run_id": "SIM_TEST", "kraken_seq": 123, "telemetry_seq": 94, "t_rx_ms": 1774568622822, "dt_ms": 15, "doa_deg": 263.0, "confidence_0_1": 0.2503923431026579, "lat_deg": 33.99370901645289, "lon_deg": -117.99981194176755, "altitude_rel_ft": 96.5146, "yaw_deg": 310.6669, "pitch_deg": -8.1061, "roll_deg": -5.0635, "ground_speed_ft_s": 17.7538, "vel_north_m_s": 4.5241, "vel_east_m_s": -7.9284, "vel_down_m_s": -0.0675, "usable_for_triangulation": false}
{"run_id": "SIM_TEST", "kraken_seq": 124, "telemetry_seq": 95, "t_rx_ms": 1774568622923, "dt_ms": 15, "doa_deg": 80.0, "confidence_0_1": 0.46757221439435026, "lat_deg": 34.007197155784596, "lon_deg": -118.00522015526701, "altitude_rel_ft": 40.6383, "yaw_deg": 120.9539, "pitch_deg": 9.5619, "roll_deg": 11.0065, "ground_speed_ft_s": 12.7045, "vel_north_m_s": 1.9481, "vel_east_m_s": 3.8799, "vel_down_m_s": 0.4367, "usable_for_triangulation": false}
{"run_id": "SIM_TEST", "kraken_seq": 125, "telemetry_seq": 96, "t_rx_ms": 1774568623024, "dt_ms": 15, "doa_deg": 47.0, "confidence_0_1": 0.44967614306745796, "lat_deg": 33.990682163633515, "lon_deg": -117.99936575839332, "altitude_rel_ft": 54.9639, "yaw_deg": 355.6456, "pitch_deg": -8.0577, "roll_deg": 5.1076, "ground_speed_ft_s": 55.1493, "vel_north_m_s": -3.9815, "vel_east_m_s": -5.7987, "vel_down_m_s": 0.965, "usable_for_triangulation": false}
{"run_id": "SIM_TEST", "kraken_seq": 126, "telemetry_seq": 97, "t_rx_ms": 1774568623125, "dt_ms": 16, "doa_deg": 189.0, "confidence_0_1": 0.5829149216016217, "lat_deg": 33.9930265638194, "lon_deg": -117.9931549899625, "altitude_rel_ft": 68.8351, "yaw_deg": 29.6368, "pitch_deg": -5.899, "roll_deg": -11.0929, "ground_speed_ft_s": 10.7043, "vel_north_m_s": -3.7932, "vel_east_m_s": 6.667, "vel_down_m_s": 0.4404, "usable_for_triangulation": true}
{"run_id": "SIM_TEST", "kraken_seq": 127, "telemetry_seq": 98, "t_rx_ms": 1774568623226, "dt_ms": 16, "doa_deg": 21.0, "confidence_0_1": 0.13012214395845756, "lat_deg": 33.9976663062523, "lon_deg": -117.99805577551476, "altitude_rel_ft": 60.4171, "yaw_deg": 227.8549, "pitch_deg": -8.5711, "roll_deg": 1.9257, "ground_speed_ft_s": 36.1584, "vel_north_m_s": 8.4127, "vel_east_m_s": -4.2591, "vel_down_m_s": 0.9981, "usable_for_triangulation": false}
{"run_id": "SIM_TEST", "kraken_seq": 128, "telemetry_seq": 99, "t_rx_ms": 1774568623327, "dt_ms": 16, "doa_deg": 134.0, "confidence_0_1": 0.2742509140616104, "lat_deg": 34.00883705746799, "lon_deg": -118.00706754545101, "altitude_rel_ft": 39.7977, "yaw_deg": 242.6929, "pitch_deg": -0.5393, "roll_deg": 1.0512, "ground_speed_ft_s": 17.4472, "vel_north_m_s": -2.2214, "vel_east_m_s": 3.387, "vel_down_m_s": -0.7683, "usable_for_triangulation": false}
{"run_id": "SIM_TEST", "kraken_seq": 129, "telemetry_seq": 100, "t_rx_ms": 1774568623428, "dt_ms": 16, "doa_deg": 59.0, "confidence_0_1": 0.5418189125280719, "lat_deg": 33.99378181031036, "lon_deg": -117.9965344800357, "altitude_rel_ft": 20.5987, "yaw_deg": 277.513, "pitch_deg": -3.8462, "roll_deg": 10.9076, "ground_speed_ft_s": 34.6169, "vel_north_m_s": 5.6632, "vel_east_m_s": -3.0989, "vel_down_m_s": 0.3924, "usable_for_triangulation": true}
{"run_id": "SIM_TEST", "kraken_seq": 130, "telemetry_seq": 101, "t_rx_ms": 1774568623529, "dt_ms": 16, "doa_deg": 126.0, "confidence_0_1": 0.20493205642542323, "lat_deg": 33.990175572853495, "lon_deg": -118.0085564142386, "altitude_rel_ft": 24.7877, "yaw_deg": 253.5118, "pitch_deg": 7.1967, "roll_deg": 0.898, "ground_speed_ft_s": 21.8207, "vel_north_m_s": -3.4087, "vel_east_m_s": -1.7247, "vel_down_m_s": -0.4602, "usable_for_triangulation": false}
{"run_id": "SIM_TEST", "kraken_seq": 131, "telemetry_seq": 102, "t_rx_ms": 1774568623629, "dt_ms": 16, "doa_deg": 233.0, "confidence_0_1": 0.44518713652892516, "lat_deg": 34.000250978034316, "lon_deg": -117.99884861236103, "altitude_rel_ft": 73.4603, "yaw_deg": 25.2556, "pitch_deg": -1.2979, "roll_deg": -8.9129, "ground_speed_ft_s": 15.7671, "vel_north_m_s": 5.2212, "vel_east_m_s": 1.415, "vel_down_m_s": 0.405, "usable_for_triangulation": false}
{"run_id": "SIM_TEST", "kraken_seq": 132, "telemetry_seq": 103, "t_rx_ms": 1774568623730, "dt_ms": 16, "doa_deg": 341.0, "confidence_0_1": 0.28023897888255833, "lat_deg": 34.006328777384404, "lon_deg": -117.99371295784611, "altitude_rel_ft": 25.0613, "yaw_deg": 155.8143, "pitch_deg": 3.4971, "roll_deg": -4.533, "ground_speed_ft_s": 15.0311, "vel_north_m_s": 1.5293, "vel_east_m_s": 5.7569, "vel_down_m_s": -0.0132, "usable_for_triangulation": false}
{"run_id": "SIM_TEST", "kraken_seq": 133, "telemetry_seq": 104, "t_rx_ms": 1774568623830, "dt_ms": 16, "doa_deg": 307.0, "confidence_0_1": 0.06608454762817595, "lat_deg": 34.000094329094395, "lon_deg": -117.99889268433594, "altitude_rel_ft": 76.6864, "yaw_deg": 240.3913, "pitch_deg": 5.3516, "roll_deg": 0.219, "ground_speed_ft_s": 44.74, "vel_north_m_s": 3.4898, "vel_east_m_s": 0.0248, "vel_down_m_s": -0.686, "usable_for_triangulation": false}
{"run_id": "SIM_TEST", "kraken_seq": 134, "telemetry_seq": 105, "t_rx_ms": 1774568623931, "dt_ms": 16, "doa_deg": 263.0, "confidence_0_1": 0.7129012808786115, "lat_deg": 33.99150643704812, "lon_deg": -117.99718855798562, "altitude_rel_ft": 35.3202, "yaw_deg": 87.9809, "pitch_deg": -8.5162, "roll_deg": 13.3962, "ground_speed_ft_s": 37.6614, "vel_north_m_s": -8.8795, "vel_east_m_s": 0.434, "vel_down_m_s": -0.0419, "usable_for_triangulation": true}
{"run_id": "SIM_TEST", "kraken_seq": 135, "telemetry_seq": 106, "t_rx_ms": 1774568624031, "dt_ms": 16, "doa_deg": 193.0, "confidence_0_1": 0.037235898542284596, "lat_deg": 34.00060673425292, "lon_deg": -118.00564316164733, "altitude_rel_ft": 26.3987, "yaw_deg": 185.4121, "pitch_deg": -9.9023, "roll_deg": 3.8091, "ground_speed_ft_s": 41.5723, "vel_north_m_s": 4.1704, "vel_east_m_s": 6.0311, "vel_down_m_s": -0.8275, "usable_for_triangulation": false}
{"run_id": "SIM_TEST", "kraken_seq": 136, "telemetry_seq": 107, "t_rx_ms": 1774568624132, "dt_ms": 16, "doa_deg": 128.0, "confidence_0_1": 0.1935890950034055, "lat_deg": 33.99091127280364, "lon_deg": -118.00240093228204, "altitude_rel_ft": 59.9365, "yaw_deg": 283.7508, "pitch_deg": -2.539, "roll_deg": -2.8365, "ground_speed_ft_s": 5.223, "vel_north_m_s": 2.113, "vel_east_m_s": -7.2586, "vel_down_m_s": -0.0972, "usable_for_triangulation": false}
{"run_id": "SIM_TEST", "kraken_seq": 137, "telemetry_seq": 108, "t_rx_ms": 1774568624233, "dt_ms": 16, "doa_deg": 33.0, "confidence_0_1": 0.760441100465532, "lat_deg": 33.99835445610041, "lon_deg": -117.99793819829644, "altitude_rel_ft": 30.7605, "yaw_deg": 38.2327, "pitch_deg": 2.004, "roll_deg": 8.5508, "ground_speed_ft_s": 9.5991, "vel_north_m_s": 6.5436, "vel_east_m_s": 6.3901, "vel_down_m_s": -0.0298, "usable_for_triangulation": true}
{"run_id": "SIM_TEST", "kraken_seq": 138, "telemetry_seq": 109, "t_rx_ms": 1774568624334, "dt_ms": 16, "doa_deg": 217.0, "confidence_0_1": 0.5863413996302377, "lat_deg": 33.99305497172605, "lon_deg": -117.99344401052585, "altitude_rel_ft": 47.4703, "yaw_deg": 236.2066, "pitch_deg": -8.5616, "roll_deg": 0.7829, "ground_speed_ft_s": 51.7071, "vel_north_m_s": -5.4551, "vel_east_m_s": -5.1933, "vel_down_m_s": -0.2474, "usable_for_triangulation": true}
{"run_id": "SIM_TEST", "kraken_seq": 139, "telemetry_seq": 110, "t_rx_ms": 1774568624434, "dt_ms": 17, "doa_deg": 215.0, "confidence_0_1": 0.792113017146878, "lat_deg": 33.99712091891621, "lon_deg": -118.00946157230169, "altitude_rel_ft": 47.9129, "yaw_deg": 319.4441, "pitch_deg": 8.6467, "roll_deg": -12.3972, "ground_speed_ft_s": 45.3362, "vel_north_m_s": -7.1221, "vel_east_m_s": -4.6638, "vel_down_m_s": 0.2484, "usable_for_triangulation": true}
{"run_id": "SIM_TEST", "kraken_seq": 140, "telemetry_seq": 111, "t_rx_ms": 1774568624535, "dt_ms": 17, "doa_deg": 229.0, "confidence_0_1": 0.311129010347177, "lat_deg": 33.99016865841139, "lon_deg": -117.994588062676, "altitude_rel_ft": 90.0487, "yaw_deg": 163.3162, "pitch_deg": -6.2812, "roll_deg": -12.426, "ground_speed_ft_s": 56.3342, "vel_north_m_s": 2.3044, "vel_east_m_s": -1.3853, "vel_down_m_s": -0.7151, "usable_for_triangulation": false}
{"run_id": "SIM_TEST", "kraken_seq": 141, "telemetry_seq": 112, "t_rx_ms": 1774568624636, "dt_ms": 16, "doa_deg": 255.0, "confidence_0_1": 0.678878562743634, "lat_deg": 33.992194858866014, "lon_deg": -117.99760231948558, "altitude_rel_ft": 67.9963, "yaw_deg": 161.9412, "pitch_deg": 5.5976, "roll_deg": 4.1725, "ground_speed_ft_s": 39.2326, "vel_north_m_s": -6.0788, "vel_east_m_s": 3.2889, "vel_down_m_s": 0.9773, "usable_for_triangulation": true}
{"run_id": "SIM_TEST", "kraken_seq": 142, "telemetry_seq": 113, "t_rx_ms": 1774568624737, "dt_ms": 16, "doa_deg": 104.0, "confidence_0_1": 0.6905838971965685, "lat_deg": 34.00099533120728, "lon_deg": -117.99856538541411, "altitude_rel_ft": 80.5595, "yaw_deg": 30.1042, "pitch_deg": -8.8529, "roll_deg": 0.6374, "ground_speed_ft_s": 55.2499, "vel_north_m_s": -3.011, "vel_east_m_s": -9.3249, "vel_down_m_s": 0.6804, "usable_for_triangulation": true}
{"run_id": "SIM_TEST", "kraken_seq": 143, "telemetry_seq": 114, "t_rx_ms": 1774568624837, "dt_ms": 16, "doa_deg": 39.0, "confidence_0_1": 0.6596012367501136, "lat_deg": 33.996901191686106, "lon_deg": -118.00015076618999, "altitude_rel_ft": 44.4041, "yaw_deg": 40.3204, "pitch_deg": 8.5099, "roll_deg": 14.215, "ground_speed_ft_s": 33.5703, "vel_north_m_s": 9.7288, "vel_east_m_s": -6.6635, "vel_down_m_s": -0.0906, "usable_for_triangulation": true}
{"run_id": "SIM_TEST", "kraken_seq": 144, "telemetry_seq": 115, "t_rx_ms": 1774568624938, "dt_ms": 16, "doa_deg": 163.0, "confidence_0_1": 0.8376998932212467, "lat_deg": 34.00671366550142, "lon_deg": -118.00702074946857, "altitude_rel_ft": 69.2795, "yaw_deg": 6.4379, "pitch_deg": -5.8226, "roll_deg": 14.3363, "ground_speed_ft_s": 15.4804, "vel_north_m_s": 3.2031, "vel_east_m_s": -1.5741, "vel_down_m_s": -0.7231, "usable_for_triangulation": true}
{"run_id": "SIM_TEST", "kraken_seq": 145, "telemetry_seq": 116, "t_rx_ms": 1774568625039, "dt_ms": 16, "doa_deg": 69.0, "confidence_0_1": 0.4582242352913236, "lat_deg": 34.00565080870302, "lon_deg": -117.99604859266108, "altitude_rel_ft": 63.1703, "yaw_deg": 79.2401, "pitch_deg": 6.443, "roll_deg": 10.6549, "ground_speed_ft_s": 31.5714, "vel_north_m_s": 8.822, "vel_east_m_s": -1.2829, "vel_down_m_s": -0.4288, "usable_for_triangulation": false}
{"run_id": "SIM_TEST", "kraken_seq": 146, "telemetry_seq": 117, "t_rx_ms": 1774568625139, "dt_ms": 16, "doa_deg": 83.0, "confidence_0_1": 0.2954588126680544, "lat_deg": 33.99846640210837, "lon_deg": -118.00571663984563, "altitude_rel_ft": 69.2918, "yaw_deg": 134.3791, "pitch_deg": 0.7857, "roll_deg": -14.7358, "ground_speed_ft_s": 28.3567, "vel_north_m_s": -9.1516, "vel_east_m_s": -7.5521, "vel_down_m_s": 0.3405, "usable_for_triangulation": false}
{"run_id": "SIM_TEST", "kraken_seq": 147, "telemetry_seq": 118, "t_rx_ms": 1774568625240, "dt_ms": 16, "doa_deg": 203.0, "confidence_0_1": 0.44594466335374794, "lat_deg": 33.99295581637579, "lon_deg": -117.99924115530015, "altitude_rel_ft": 80.162, "yaw_deg": 165.5583, "pitch_deg": -0.1259, "roll_deg": 13.4042, "ground_speed_ft_s": 32.7477, "vel_north_m_s": 5.6526, "vel_east_m_s": -1.8254, "vel_down_m_s": -0.0619, "usable_for_triangulation": false}
{"run_id": "SIM_TEST", "kraken_seq": 148, "telemetry_seq": 119, "t_rx_ms": 1774568625341, "dt_ms": 16, "doa_deg": 215.0, "confidence_0_1": 0.03414416942394183, "lat_deg": 34.006095568053745, "lon_deg": -117.99723811098761, "altitude_rel_ft": 20.9279, "yaw_deg": 333.4311, "pitch_deg": -7.891, "roll_deg": 0.8995, "ground_speed_ft_s": 14.7385, "vel_north_m_s": -4.2743, "vel_east_m_s": 7.9252, "vel_down_m_s": -0.5195, "usable_for_triangulation": false}
{"run_id": "SIM_TEST", "kraken_seq": 149, "telemetry_seq": 120, "t_rx_ms": 1774568625442, "dt_ms": 16, "doa_deg": 41.0, "confidence_0_1": 0.9054898539024858, "lat_deg": 34.00280015406128, "lon_deg": -117.9986035429851, "altitude_rel_ft": 83.8875, "yaw_deg": 46.412, "pitch_deg": 2.9596, "roll_deg": -9.1387, "ground_speed_ft_s": 38.3317, "vel_north_m_s": 9.4846, "vel_east_m_s": 4.8194, "vel_down_m_s": -0.4004, "usable_for_triangulation": true}
{"run_id": "SIM_TEST", "kraken_seq": 150, "telemetry_seq": 121, "t_rx_ms": 1774568625543, "dt_ms": 16, "doa_deg": 180.0, "confidence_0_1": 0.9544118922549021, "lat_deg": 34.003093300191004, "lon_deg": -118.00638723160593, "altitude_rel_ft": 71.0669, "yaw_deg": 115.6201, "pitch_deg": -7.5896, "roll_deg": 6.3627, "ground_speed_ft_s": 53.2895, "vel_north_m_s": 7.8005, "vel_east_m_s": 7.3942, "vel_down_m_s": 0.3142, "usable_for_triangulation": true}
{"run_id": "SIM_TEST", "kraken_seq": 151, "telemetry_seq": 122, "t_rx_ms": 1774568625644, "dt_ms": 16, "doa_deg": 115.0, "confidence_0_1": 0.28473870720233607, "lat_deg": 34.00154299844215, "lon_deg": -117.9919233442101, "altitude_rel_ft": 74.0408, "yaw_deg": 199.3635, "pitch_deg": 2.3283, "roll_deg": 11.2298, "ground_speed_ft_s": 9.388, "vel_north_m_s": -5.5947, "vel_east_m_s": 8.734, "vel_down_m_s": 0.5029, "usable_for_triangulation": false}
{"run_id": "SIM_TEST", "kraken_seq": 152, "telemetry_seq": 123, "t_rx_ms": 1774568625745, "dt_ms": 16, "doa_deg": 291.0, "confidence_0_1": 0.889080741749784, "lat_deg": 34.00199618060607, "lon_deg": -118.00607331862885, "altitude_rel_ft": 75.4556, "yaw_deg": 11.5476, "pitch_deg": 0.3391, "roll_deg": -5.1578, "ground_speed_ft_s": 41.0247, "vel_north_m_s": -6.2425, "vel_east_m_s": 9.3601, "vel_down_m_s": 0.2095, "usable_for_triangulation": true}
{"run_id": "SIM_TEST", "kraken_seq": 153, "telemetry_seq": 124, "t_rx_ms": 1774568625846, "dt_ms": 16, "doa_deg": 247.0, "confidence_0_1": 0.896642911683794, "lat_deg": 34.00258283336042, "lon_deg": -117.99857863929381, "altitude_rel_ft": 24.6108, "yaw_deg": 116.6789, "pitch_deg": 3.0646, "roll_deg": -2.0893, "ground_speed_ft_s": 9.3242, "vel_north_m_s": 4.8424, "vel_east_m_s": 1.3217, "vel_down_m_s": 0.3279, "usable_for_triangulation": true}
{"run_id": "SIM_TEST", "kraken_seq": 154, "telemetry_seq": 125, "t_rx_ms": 1774568625947, "dt_ms": 16, "doa_deg": 122.0, "confidence_0_1": 0.2900704236395788, "lat_deg": 33.995712145114105, "lon_deg": -118.00305945938352, "altitude_rel_ft": 26.1783, "yaw_deg": 113.9278, "pitch_deg": -7.6315, "roll_deg": 3.2207, "ground_speed_ft_s": 48.855, "vel_north_m_s": 8.4808, "vel_east_m_s": -8.4003, "vel_down_m_s": 0.3437, "usable_for_triangulation": false}
{"run_id": "SIM_TEST", "kraken_seq": 155, "telemetry_seq": 126, "t_rx_ms": 1774568626048, "dt_ms": 17, "doa_deg": 253.0, "confidence_0_1": 0.20642493680746676, "lat_deg": 34.009953836831016, "lon_deg": -117.99155417198152, "altitude_rel_ft": 80.4056, "yaw_deg": 235.7662, "pitch_deg": -7.3611, "roll_deg": -6.2315, "ground_speed_ft_s": 55.4581, "vel_north_m_s": -8.1808, "vel_east_m_s": 7.4403, "vel_down_m_s": 0.2138, "usable_for_triangulation": false}
{"run_id": "SIM_TEST", "kraken_seq": 156, "telemetry_seq": 127, "t_rx_ms": 1774568626149, "dt_ms": 16, "doa_deg": 233.0, "confidence_0_1": 0.3433487717685211, "lat_deg": 34.009673795458916, "lon_deg": -118.00630378461663, "altitude_rel_ft": 36.8808, "yaw_deg": 86.0971, "pitch_deg": -8.0773, "roll_deg": 5.6298, "ground_speed_ft_s": 36.4281, "vel_north_m_s": -9.044, "vel_east_m_s": -4.2707, "vel_down_m_s": 0.5196, "usable_for_triangulation": false}
{"run_id": "SIM_TEST", "kraken_seq": 157, "telemetry_seq": 128, "t_rx_ms": 1774568626250, "dt_ms": 17, "doa_deg": 180.0, "confidence_0_1": 0.35040896682370126, "lat_deg": 33.99060034793773, "lon_deg": -118.00368895183529, "altitude_rel_ft": 22.7511, "yaw_deg": 332.5235, "pitch_deg": 8.0038, "roll_deg": 12.4597, "ground_speed_ft_s": 14.5974, "vel_north_m_s": 5.1679, "vel_east_m_s": 1.1804, "vel_down_m_s": -0.5303, "usable_for_triangulation": false}
{"run_id": "SIM_TEST", "kraken_seq": 158, "telemetry_seq": 129, "t_rx_ms": 1774568626351, "dt_ms": 16, "doa_deg": 206.0, "confidence_0_1": 0.12497561358829645, "lat_deg": 34.001614216906404, "lon_deg": -118.00060348990559, "altitude_rel_ft": 90.2333, "yaw_deg": 97.9319, "pitch_deg": 5.6093, "roll_deg": 6.9229, "ground_speed_ft_s": 57.1433, "vel_north_m_s": 8.1434, "vel_east_m_s": 0.2773, "vel_down_m_s": 0.4319, "usable_for_triangulation": false}
{"run_id": "SIM_TEST", "kraken_seq": 159, "telemetry_seq": 130, "t_rx_ms": 1774568626451, "dt_ms": 18, "doa_deg": 357.0, "confidence_0_1": 0.9898786631585106, "lat_deg": 33.99555931705532, "lon_deg": -118.00595042108198, "altitude_rel_ft": 54.5114, "yaw_deg": 171.3638, "pitch_deg": -1.6964, "roll_deg": -6.8745, "ground_speed_ft_s": 41.7754, "vel_north_m_s": -6.5662, "vel_east_m_s": -0.0098, "vel_down_m_s": -0.9865, "usable_for_triangulation": true}
