{"run_id": "SIM_TEST", "kraken_seq": 138, "telemetry_seq": 0, "t_rx_ms": 1773426445592, "dt_ms": 199, "doa_deg": 146.0, "confidence_0_1": 0.5457467328858999, "lat_deg": 34.004553777772216, "lon_deg": -118.00982848462422, "altitude_rel_ft": 78.5445, "yaw_deg": 248.0811, "pitch_deg": -9.1373, "roll_deg": 7.7539, "ground_speed_ft_s": 50.14, "vel_north_m_s": -0.357, "vel_east_m_s": -7.9588, "vel_down_m_s": 0.5542, "usable_for_triangulation": true}
{"run_id": "SIM_TEST", "kraken_seq": 139, "telemetry_seq": 0, "t_rx_ms": 1773426445692, "dt_ms": 99, "doa_deg": 330.0, "confidence_0_1": 0.9082250075218696, "lat_deg": 34.004553777772216, "lon_deg": -118.00982848462422, "altitude_rel_ft": 78.5445, "yaw_deg": 248.0811, "pitch_deg": -9.1373, "roll_deg": 7.7539, "ground_speed_ft_s": 50.14, "vel_north_m_s": -0.357, "vel_east_m_s": -7.9588, "vel_down_m_s": 0.5542, "usable_for_triangulation": true}
{"run_id": "SIM_TEST", "kraken_seq": 140, "telemetry_seq": 0, "t_rx_ms": 1773426445792, "dt_ms": -1, "doa_deg": 97.0, "confidence_0_1": 0.4095400989458369, "lat_deg": 34.004553777772216, "lon_deg": -118.00982848462422, "altitude_rel_ft": 78.5445, "yaw_deg": 248.0811, "pitch_deg": -9.1373, "roll_deg": 7.7539, "ground_speed_ft_s": 50.14, "vel_north_m_s": -0.357, "vel_east_m_s": -7.9588, "vel_down_m_s": 0.5542, "usable_for_triangulation": false}
{"run_id": "SIM_TEST", "kraken_seq": 141, "telemetry_seq": 1, "t_rx_ms": 1773426445893, "dt_ms": -2, "doa_deg": 41.0, "confidence_0_1": 0.6801086870096527, "lat_deg": 33.998650186739376, "lon_deg": -118.00850209542662, "altitude_rel_ft": 78.0333, "yaw_deg": 116.5437, "pitch_deg": -7.3599, "roll_deg": -14.0272, "ground_speed_ft_s": 35.9587, "vel_north_m_s": -6.3965, "vel_east_m_s": -0.4509, "vel_down_m_s": -0.0742, "usable_for_triangulation": true}
{"run_id": "SIM_TEST", "kraken_seq": 142, "telemetry_seq": 2, "t_rx_ms": 1773426445993, "dt_ms": -2, "doa_deg": 114.0, "confidence_0_1": 0.09996022850118891, "lat_deg": 34.009282880308845, "lon_deg": -118.00694702527944, "altitude_rel_ft": 76.3879, "yaw_deg": 234.7701, "pitch_deg": 9.7194, "roll_deg": 7.6178, "ground_speed_ft_s": 43.8441, "vel_north_m_s": -8.9025, "vel_east_m_s": 8.4991, "vel_down_m_s": -0.8898, "usable_for_triangulation": false}
{"run_id": "SIM_TEST", "kraken_seq": 143, "telemetry_seq": 3, "t_rx_ms": 1773426446093, "dt_ms": -1, "doa_deg": 243.0, "confidence_0_1": 0.49354918082524113, "lat_deg": 33.9988010871537, "lon_deg": -118.0020378348306, "altitude_rel_ft": 77.5047, "yaw_deg": 176.3859, "pitch_deg": 9.3539, "roll_deg": -2.8176, "ground_speed_ft_s": 49.7172, "vel_north_m_s": -6.8297, "vel_east_m_s": -3.6175, "vel_down_m_s": 0.9935, "usable_for_triangulation": false}
{"run_id": "SIM_TEST", "kraken_seq": 144, "telemetry_seq": 4, "t_rx_ms": 1773426446194, "dt_ms": -1, "doa_deg": 331.0, "confidence_0_1": 0.3929768297348082, "lat_deg": 33.99757612431466, "lon_deg": -118.00773127569025, "altitude_rel_ft": 73.6001, "yaw_deg": 352.0081, "pitch_deg": -1.4896, "roll_deg": -0.4916, "ground_speed_ft_s": 53.5644, "vel_north_m_s": 6.7247, "vel_east_m_s": 4.4188, "vel_down_m_s": -0.5563, "usable_for_triangulation": false}
{"run_id": "SIM_TEST", "kraken_seq": 145, "telemetry_seq": 5, "t_rx_ms": 1773426446294, "dt_ms": -1, "doa_deg": 352.0, "confidence_0_1": 0.23485034900749757, "lat_deg": 33.99225858357403, "lon_deg": -117.99286260100385, "altitude_rel_ft": 49.366, "yaw_deg": 189.8431, "pitch_deg": 8.6492, "roll_deg": -14.7383, "ground_speed_ft_s": 37.1597, "vel_north_m_s": -0.5936, "vel_east_m_s": -9.2995, "vel_down_m_s": 0.998, "usable_for_triangulation": false}
{"run_id": "SIM_TEST", "kraken_seq": 146, "telemetry_seq": 6, "t_rx_ms": 1773426446395, "dt_ms": -2, "doa_deg": 87.0, "confidence_0_1": 0.9611547777357552, "lat_deg": 34.00648995382836, "lon_deg": -117.99187252356231, "altitude_rel_ft": 97.7456, "yaw_deg": 154.1274, "pitch_deg": -7.665, "roll_deg": 0.2003, "ground_speed_ft_s": 47.4395, "vel_north_m_s": -6.5501, "vel_east_m_s": -6.5738, "vel_down_m_s": -0.7753, "usable_for_triangulation": true}
{"run_id": "SIM_TEST", "kraken_seq": 147, "telemetry_seq": 7, "t_rx_ms": 1773426446495, "dt_ms": -1, "doa_deg": 264.0, "confidence_0_1": 0.15082682409282533, "lat_deg": 34.001561582896976, "lon_deg": -118.00317569997924, "altitude_rel_ft": 33.3507, "yaw_deg": 302.3855, "pitch_deg": 1.0081, "roll_deg": -14.4958, "ground_speed_ft_s": 22.0957, "vel_north_m_s": -5.6376, "vel_east_m_s": 5.3465, "vel_down_m_s": 0.1546, "usable_for_triangulation": false}
{"run_id": "SIM_TEST", "kraken_seq": 148, "telemetry_seq": 8, "t_rx_ms": 1773426446595, "dt_ms": -1, "doa_deg": 83.0, "confidence_0_1": 0.6301301784424894, "lat_deg": 33.99103448046322, "lon_deg": -117.99981829949289, "altitude_rel_ft": 47.6847, "yaw_deg": 325.9679, "pitch_deg": 8.0492, "roll_deg": 0.849, "ground_speed_ft_s": 42.0638, "vel_north_m_s": 1.3885, "vel_east_m_s": 8.1723, "vel_down_m_s": 0.4923, "usable_for_triangulation": true}
{"run_id": "SIM_TEST", "kraken_seq": 149, "telemetry_seq": 9, "t_rx_ms": 1773426446696, "dt_ms": -2, "doa_deg": 222.0, "confidence_0_1": 0.9550193848615562, "lat_deg": 33.998493633698345, "lon_deg": -117.99615629331474, "altitude_rel_ft": 91.7441, "yaw_deg": 173.2408, "pitch_deg": 4.7894, "roll_deg": -9.6032, "ground_speed_ft_s": 12.0548, "vel_north_m_s": -8.1174, "vel_east_m_s": -2.2531, "vel_down_m_s": -0.8024, "usable_for_triangulation": true}
{"run_id": "SIM_TEST", "kraken_seq": 150, "telemetry_seq": 10, "t_rx_ms": 1773426446796, "dt_ms": -1, "doa_deg": 72.0, "confidence_0_1": 0.901074194414587, "lat_deg": 33.9937789196322, "lon_deg": -118.00426769638425, "altitude_rel_ft": 46.3258, "yaw_deg": 259.2027, "pitch_deg": 6.5058, "roll_deg": -7.4914, "ground_speed_ft_s": 38.9622, "vel_north_m_s": 7.1694, "vel_east_m_s": -0.472, "vel_down_m_s": -0.7186, "usable_for_triangulation": true}
{"run_id": "SIM_TEST", "kraken_seq": 151, "telemetry_seq": 11, "t_rx_ms": 1773426446896, "dt_ms": -1, "doa_deg": 22.0, "confidence_0_1": 0.3619661969246103, "lat_deg": 33.996888561132636, "lon_deg": -118.00460076033188, "altitude_rel_ft": 40.6733, "yaw_deg": 358.2396, "pitch_deg": 2.1139, "roll_deg": 11.7646, "ground_speed_ft_s": 38.4683, "vel_north_m_s": 3.517, "vel_east_m_s": -0.9378, "vel_down_m_s": -0.7485, "usable_for_triangulation": false}
{"run_id": "SIM_TEST", "kraken_seq": 152, "telemetry_seq": 12, "t_rx_ms": 1773426446996, "dt_ms": -1, "doa_deg": 354.0, "confidence_0_1": 0.9232365167343524, "lat_deg": 33.99541710111307, "lon_deg": -118.00807209019615, "altitude_rel_ft": 54.1567, "yaw_deg": 23.2949, "pitch_deg": 1.0448, "roll_deg": -6.4875, "ground_speed_ft_s": 44.9738, "vel_north_m_s": 6.0614, "vel_east_m_s": -6.2327, "vel_down_m_s": 0.3206, "usable_for_triangulation": true}
{"run_id": "SIM_TEST", "kraken_seq": 153, "telemetry_seq": 13, "t_rx_ms": 1773426447097, "dt_ms": -1, "doa_deg": 225.0, "confidence_0_1": 0.8353844972952242, "lat_deg": 33.996277863418925, "lon_deg": -117.99197212382578, "altitude_rel_ft": 30.4201, "yaw_deg": 354.9548, "pitch_deg": 7.4786, "roll_deg": -13.2998, "ground_speed_ft_s": 59.6405, "vel_north_m_s": -9.8914, "vel_east_m_s": 4.3539, "vel_down_m_s": -0.0034, "usable_for_triangulation": true}
{"run_id": "SIM_TEST", "kraken_seq": 154, "telemetry_seq": 14, "t_rx_ms": 1773426447197, "dt_ms": -1, "doa_deg": 67.0, "confidence_0_1": 0.6221736577579107, "lat_deg": 33.995724781843144, "lon_deg": -117.99999208530843, "altitude_rel_ft": 35.6514, "yaw_deg": 242.8758, "pitch_deg": -4.5181, "roll_deg": -0.3824, "ground_speed_ft_s": 37.7614, "vel_north_m_s": 0.0148, "vel_east_m_s": 2.2764, "vel_down_m_s": -0.8475, "usable_for_triangulation": true}
{"run_id": "SIM_TEST", "kraken_seq": 155, "telemetry_seq": 15, "t_rx_ms": 1773426447298, "dt_ms": -2, "doa_deg": 208.0, "confidence_0_1": 0.5144210083409162, "lat_deg": 34.00687344093881, "lon_deg": -118.00643248157601, "altitude_rel_ft": 25.0192, "yaw_deg": 355.5057, "pitch_deg": -9.5351, "roll_deg": -12.7987, "ground_speed_ft_s": 14.3726, "vel_north_m_s": 7.2595, "vel_east_m_s": -3.974, "vel_down_m_s": 0.2586, "usable_for_triangulation": true}
{"run_id": "SIM_TEST", "kraken_seq": 156, "telemetry_seq": 16, "t_rx_ms": 1773426447399, "dt_ms": -2, "doa_deg": 118.0, "confidence_0_1": 0.01396314518490882, "lat_deg": 34.00003976589703, "lon_deg": -118.0021232754907, "altitude_rel_ft": 90.3886, "yaw_deg": 232.4481, "pitch_deg": 9.3331, "roll_deg": -11.618, "ground_speed_ft_s": 54.0213, "vel_north_m_s": 5.4951, "vel_east_m_s": -1.0256, "vel_down_m_s": 0.5958, "usable_for_triangulation": false}
{"run_id": "SIM_TEST", "kraken_seq": 157, "telemetry_seq": 17, "t_rx_ms": 1773426447499, "dt_ms": -2, "doa_deg": 229.0, "confidence_0_1": 0.8548845067097703, "lat_deg": 33.99536762572423, "lon_deg": -117.99535858218404, "altitude_rel_ft": 26.6855, "yaw_deg": 131.0961, "pitch_deg": -0.7077, "roll_deg": -0.122, "ground_speed_ft_s": 11.1027, "vel_north_m_s": -7.8201, "vel_east_m_s": -4.441, "vel_down_m_s": -0.3593, "usable_for_triangulation": true}
{"run_id": "SIM_TEST", "kraken_seq": 158, "telemetry_seq": 18, "t_rx_ms": 1773426447599, "dt_ms": -2, "doa_deg": 103.0, "confidence_0_1": 0.02158523748193608, "lat_deg": 33.992020897011386, "lon_deg": -118.00656279914634, "altitude_rel_ft": 40.5846, "yaw_deg": 65.0775, "pitch_deg": 7.4841, "roll_deg": 10.1704, "ground_speed_ft_s": 6.0224, "vel_north_m_s": -6.4362, "vel_east_m_s": -8.0425, "vel_down_m_s": 0.9556, "usable_for_triangulation": false}
{"run_id": "SIM_TEST", "kraken_seq": 159, "telemetry_seq": 19, "t_rx_ms": 1773426447700, "dt_ms": -2, "doa_deg": 320.0, "confidence_0_1": 0.3871940419275448, "lat_deg": 34.009416558592896, "lon_deg": -117.9940991938947, "altitude_rel_ft": 81.9107, "yaw_deg": 85.7649, "pitch_deg": -6.4761, "roll_deg": 2.3587, "ground_speed_ft_s": 22.0822, "vel_north_m_s": -2.0825, "vel_east_m_s": 2.0135, "vel_down_m_s": -0.1785, "usable_for_triangulation": false}
{"run_id": "SIM_TEST", "kraken_seq": 160, "telemetry_seq": 20, "t_rx_ms": 1773426447800, "dt_ms": -2, "doa_deg": 196.0, "confidence_0_1": 0.13520039656599203, "lat_deg": 34.00751205416536, "lon_deg": -118.00505239641161, "altitude_rel_ft": 65.0339, "yaw_deg": 261.7417, "pitch_deg": 2.7895, "roll_deg": -2.5942, "ground_speed_ft_s": 22.9761, "vel_north_m_s": 6.5037, "vel_east_m_s": -9.736, "vel_down_m_s": 0.3752, "usable_for_triangulation": false}
{"run_id": "SIM_TEST", "kraken_seq": 161, "telemetry_seq": 21, "t_rx_ms": 1773426447900, "dt_ms": -1, "doa_deg": 305.0, "confidence_0_1": 0.8159622565377914, "lat_deg": 34.009250288302816, "lon_deg": -118.00770547721503, "altitude_rel_ft": 53.1455, "yaw_deg": 267.1357, "pitch_deg": 8.3231, "roll_deg": 8.8762, "ground_speed_ft_s": 37.9703, "vel_north_m_s": 0.4527, "vel_east_m_s": 8.4845, "vel_down_m_s": 0.3066, "usable_for_triangulation": true}
{"run_id": "SIM_TEST", "kraken_seq": 162, "telemetry_seq": 22, "t_rx_ms": 1773426448001, "dt_ms": -2, "doa_deg": 80.0, "confidence_0_1": 0.4311002000344396, "lat_deg": 34.00312856848177, "lon_deg": -117.99222195645474, "altitude_rel_ft": 72.63, "yaw_deg": 197.9994, "pitch_deg": 2.2251, "roll_deg": -14.5692, "ground_speed_ft_s": 12.1679, "vel_north_m_s": -0.4075, "vel_east_m_s": -0.6191, "vel_down_m_s": 0.5803, "usable_for_triangulation": false}
{"run_id": "SIM_TEST", "kraken_seq": 163, "telemetry_seq": 23, "t_rx_ms": 1773426448101, "dt_ms": -2, "doa_deg": 128.0, "confidence_0_1": 0.4391709659257581, "lat_deg": 34.007124082007394, "lon_deg": -118.00002756716329, "altitude_rel_ft": 94.5061, "yaw_deg": 257.7321, "pitch_deg": 7.6443, "roll_deg": -13.8329, "ground_speed_ft_s": 24.5656, "vel_north_m_s": 7.8174, "vel_east_m_s": -6.0923, "vel_down_m_s": -0.5606, "usable_for_triangulation": false}
{"run_id": "SIM_TEST", "kraken_seq": 164, "telemetry_seq": 24, "t_rx_ms": 1773426448202, "dt_ms": -2, "doa_deg": 328.0, "confidence_0_1": 0.6110314110809474, "lat_deg": 34.00533290150679, "lon_deg": -118.001320803432, "altitude_rel_ft": 20.5124, "yaw_deg": 12.4932, "pitch_deg": -1.6616, "roll_deg": 6.261, "ground_speed_ft_s": 26.6182, "vel_north_m_s": 6.7513, "vel_east_m_s": -8.8698, "vel_down_m_s": 0.9372, "usable_for_triangulation": true}
{"run_id": "SIM_TEST", "kraken_seq": 165, "telemetry_seq": 25, "t_rx_ms": 1773426448302, "dt_ms": -2, "doa_deg": 125.0, "confidence_0_1": 0.34677618665239296, "lat_deg": 33.99917422764152, "lon_deg": -118.00631221501945, "altitude_rel_ft": 92.8969, "yaw_deg": 143.6076, "pitch_deg": -6.7816, "roll_deg": 9.6975, "ground_speed_ft_s": 28.4494, "vel_north_m_s": -1.3574, "vel_east_m_s": 6.5095, "vel_down_m_s": 0.0099, "usable_for_triangulation": false}
{"run_id": "SIM_TEST", "kraken_seq": 166, "telemetry_seq": 26, "t_rx_ms": 1773426448402, "dt_ms": -1, "doa_deg": 164.0, "confidence_0_1": 0.9433712776604254, "lat_deg": 33.99217535671226, "lon_deg": -118.00520307907804, "altitude_rel_ft": 74.1562, "yaw_deg": 234.0107, "pitch_deg": -1.7035, "roll_deg": -11.0098, "ground_speed_ft_s": 44.7921, "vel_north_m_s": -7.4269, "vel_east_m_s": -7.4453, "vel_down_m_s": 0.7464, "usable_for_triangulation": true}
{"run_id": "SIM_TEST", "kraken_seq": 167, "telemetry_seq": 27, "t_rx_ms": 1773426448502, "dt_ms": -1, "doa_deg": 23.0, "confidence_0_1": 0.07651362559478347, "lat_deg": 34.001064450911315, "lon_deg": -118.000664043567, "altitude_rel_ft": 53.8917, "yaw_deg": 143.0849, "pitch_deg": 0.3716, "roll_deg": 6.9557, "ground_speed_ft_s": 31.1992, "vel_north_m_s": -4.0734, "vel_east_m_s": 8.8468, "vel_down_m_s": -0.6552, "usable_for_triangulation": false}
{"run_id": "SIM_TEST", "kraken_seq": 168, "telemetry_seq": 28, "t_rx_ms": 1773426448603, "dt_ms": -2, "doa_deg": 293.0, "confidence_0_1": 0.5387857999180629, "lat_deg": 33.99656347820656, "lon_deg": -117.9901551472209, "altitude_rel_ft": 34.5538, "yaw_deg": 111.6692, "pitch_deg": 7.3948, "roll_deg": 6.0049, "ground_speed_ft_s": 42.8356, "vel_north_m_s": 9.3725, "vel_east_m_s": 4.8089, "vel_down_m_s": 0.7942, "usable_for_triangulation": true}
{"run_id": "SIM_TEST", "kraken_seq": 169, "telemetry_seq": 29, "t_rx_ms": 1773426448703, "dt_ms": -1, "doa_deg": 56.0, "confidence_0_1": 0.32296718273970415, "lat_deg": 34.00943855251243, "lon_deg": -118.00797841918568, "altitude_rel_ft": 23.6537, "yaw_deg": 235.7247, "pitch_deg": 2.6954, "roll_deg": -14.8164, "ground_speed_ft_s": 11.1972, "vel_north_m_s": -1.5999, "vel_east_m_s": -1.1274, "vel_down_m_s": 0.9779, "usable_for_triangulation": false}
{"run_id": "SIM_TEST", "kraken_seq": 170, "telemetry_seq": 30, "t_rx_ms": 1773426448803, "dt_ms": -1, "doa_deg": 114.0, "confidence_0_1": 0.9901683995401593, "lat_deg": 33.99780855766641, "lon_deg": -118.00655042634064, "altitude_rel_ft": 76.4641, "yaw_deg": 85.3254, "pitch_deg": -7.0709, "roll_deg": 5.2469, "ground_speed_ft_s": 7.7773, "vel_north_m_s": 6.8114, "vel_east_m_s": -4.2903, "vel_down_m_s": -0.1167, "usable_for_triangulation": true}
{"run_id": "SIM_TEST", "kraken_seq": 171, "telemetry_seq": 31, "t_rx_ms": 1773426448904, "dt_ms": -2, "doa_deg": 329.0, "confidence_0_1": 0.990020535348051, "lat_deg": 33.99556389970305, "lon_deg": -117.99657492471411, "altitude_rel_ft": 27.2682, "yaw_deg": 62.9427, "pitch_deg": 8.6276, "roll_deg": 14.6384, "ground_speed_ft_s": 38.8413, "vel_north_m_s": 7.186, "vel_east_m_s": -1.2099, "vel_down_m_s": 0.59, "usable_for_triangulation": true}
{"run_id": "SIM_TEST", "kraken_seq": 172, "telemetry_seq": 32, "t_rx_ms": 1773426449004, "dt_ms": -1, "doa_deg": 129.0, "confidence_0_1": 0.7090799217908063, "lat_deg": 34.00938815213795, "lon_deg": -118.0051828886932, "altitude_rel_ft": 59.2219, "yaw_deg": 185.9874, "pitch_deg": -1.3211, "roll_deg": -6.6479, "ground_speed_ft_s": 23.4599, "vel_north_m_s": -0.541, "vel_east_m_s": 1.2595, "vel_down_m_s": -0.7065, "usable_for_triangulation": true}
{"run_id": "SIM_TEST", "kraken_seq": 173, "telemetry_seq": 33, "t_rx_ms": 1773426449105, "dt_ms": -2, "doa_deg": 298.0, "confidence_0_1": 0.6664044679929513, "lat_deg": 34.001490304832984, "lon_deg": -117.99111201945612, "altitude_rel_ft": 42.4573, "yaw_deg": 28.1879, "pitch_deg": -5.9613, "roll_deg": -2.3495, "ground_speed_ft_s": 51.0753, "vel_north_m_s": 1.9311, "vel_east_m_s": -5.3338, "vel_down_m_s": 0.3109, "usable_for_triangulation": true}
{"run_id": "SIM_TEST", "kraken_seq": 174, "telemetry_seq": 34, "t_rx_ms": 1773426449205, "dt_ms": -1, "doa_deg": 279.0, "confidence_0_1": 0.9777250566867272, "lat_deg": 33.993366369587264, "lon_deg": -117.99784609459445, "altitude_rel_ft": 24.7771, "yaw_deg": 136.8695, "pitch_deg": 7.5294, "roll_deg": -4.774, "ground_speed_ft_s": 38.891, "vel_north_m_s": -6.7491, "vel_east_m_s": 8.5145, "vel_down_m_s": -0.6988, "usable_for_triangulation": true}
{"run_id": "SIM_TEST", "kraken_seq": 175, "telemetry_seq": 35, "t_rx_ms": 1773426449305, "dt_ms": -1, "doa_deg": 116.0, "confidence_0_1": 0.3525638789677169, "lat_deg": 34.00077343292302, "lon_deg": -118.00657918875564, "altitude_rel_ft": 78.9013, "yaw_deg": 326.4252, "pitch_deg": 5.2533, "roll_deg": 4.7296, "ground_speed_ft_s": 48.9567, "vel_north_m_s": 2.0829, "vel_east_m_s": 6.3811, "vel_down_m_s": 0.1122, "usable_for_triangulation": false}
{"run_id": "SIM_TEST", "kraken_seq": 176, "telemetry_seq": 36, "t_rx_ms": 1773426449406, "dt_ms": -1, "doa_deg": 218.0, "confidence_0_1": 0.4416853084083324, "lat_deg": 33.99628278333386, "lon_deg": -118.00747578678354, "altitude_rel_ft": 78.9194, "yaw_deg": 94.9295, "pitch_deg": -0.8943, "roll_deg": 0.3097, "ground_speed_ft_s": 57.3518, "vel_north_m_s": 2.7841, "vel_east_m_s": 6.451, "vel_down_m_s": 0.6714, "usable_for_triangulation": false}
{"run_id": "SIM_TEST", "kraken_seq": 177, "telemetry_seq": 37, "t_rx_ms": 1773426449506, "dt_ms": -1, "doa_deg": 172.0, "confidence_0_1": 0.9062272898993514, "lat_deg": 34.00558625820962, "lon_deg": -118.00407885345551, "altitude_rel_ft": 99.763, "yaw_deg": 270.3094, "pitch_deg": 1.6496, "roll_deg": 5.9272, "ground_speed_ft_s": 12.9407, "vel_north_m_s": 5.6018, "vel_east_m_s": 6.3494, "vel_down_m_s": 0.5046, "usable_for_triangulation": true}
{"run_id": "SIM_TEST", "kraken_seq": 178, "telemetry_seq": 38, "t_rx_ms": 1773426449607, "dt_ms": -1, "doa_deg": 23.0, "confidence_0_1": 0.7268240956732674, "lat_deg": 33.99808106973337, "lon_deg": -117.99651274331939, "altitude_rel_ft": 63.3854, "yaw_deg": 176.181, "pitch_deg": 9.7833, "roll_deg": -8.2775, "ground_speed_ft_s": 49.5672, "vel_north_m_s": 3.8952, "vel_east_m_s": 0.0212, "vel_down_m_s": 0.5072, "usable_for_triangulation": true}
{"run_id": "SIM_TEST", "kraken_seq": 179, "telemetry_seq": 39, "t_rx_ms": 1773426449707, "dt_ms": -1, "doa_deg": 30.0, "confidence_0_1": 0.7961454804886946, "lat_deg": 34.00267367088155, "lon_deg": -118.00039291483635, "altitude_rel_ft": 93.3855, "yaw_deg": 313.729, "pitch_deg": 7.4106, "roll_deg": -9.8856, "ground_speed_ft_s": 11.9823, "vel_north_m_s": -1.5769, "vel_east_m_s": 2.8304, "vel_down_m_s": -0.1587, "usable_for_triangulation": true}
{"run_id": "SIM_TEST", "kraken_seq": 180, "telemetry_seq": 40, "t_rx_ms": 1773426449807, "dt_ms": 0, "doa_deg": 353.0, "confidence_0_1": 0.536224162864262, "lat_deg": 34.007570848616524, "lon_deg": -118.00006853749366, "altitude_rel_ft": 39.7579, "yaw_deg": 58.4473, "pitch_deg": 6.7731, "roll_deg": -8.1646, "ground_speed_ft_s": 47.8917, "vel_north_m_s": -3.9515, "vel_east_m_s": 7.1891, "vel_down_m_s": -0.433, "usable_for_triangulation": true}
{"run_id": "SIM_TEST", "kraken_seq": 181, "telemetry_seq": 41, "t_rx_ms": 1773426449908, "dt_ms": -1, "doa_deg": 293.0, "confidence_0_1": 0.749742299043099, "lat_deg": 34.00765478982911, "lon_deg": -118.00122574043996, "altitude_rel_ft": 21.4561, "yaw_deg": 297.1025, "pitch_deg": -4.1684, "roll_deg": -1.1171, "ground_speed_ft_s": 29.5592, "vel_north_m_s": 4.2544, "vel_east_m_s": 6.3995, "vel_down_m_s": 0.2051, "usable_for_triangulation": true}
{"run_id": "SIM_TEST", "kraken_seq": 182, "telemetry_seq": 42, "t_rx_ms": 1773426450008, "dt_ms": 0, "doa_deg": 105.0, "confidence_0_1": 0.5278824749409794, "lat_deg": 34.00422309762727, "lon_deg": -118.00636976937925, "altitude_rel_ft": 50.4418, "yaw_deg": 216.1188, "pitch_deg": 0.0542, "roll_deg": -9.8354, "ground_speed_ft_s": 54.7192, "vel_north_m_s": -3.4372, "vel_east_m_s": 6.2396, "vel_down_m_s": 0.2347, "usable_for_triangulation": true}
{"run_id": "SIM_TEST", "kraken_seq": 183, "telemetry_seq": 43, "t_rx_ms": 1773426450108, "dt_ms": 0, "doa_deg": 217.0, "confidence_0_1": 0.3798823670418855, "lat_deg": 34.00386669973559, "lon_deg": -117.99324987382971, "altitude_rel_ft": 31.4271, "yaw_deg": 190.3282, "pitch_deg": 4.6837, "roll_deg": 7.0171, "ground_speed_ft_s": 16.0848, "vel_north_m_s": 2.4412, "vel_east_m_s": 8.0011, "vel_down_m_s": -0.6966, "usable_for_triangulation": false}
{"run_id": "SIM_TEST", "kraken_seq": 184, "telemetry_seq": 44, "t_rx_ms": 1773426450209, "dt_ms": 1, "doa_deg": 268.0, "confidence_0_1": 0.905825689877322, "lat_deg": 33.9985181213772, "lon_deg": -117.99250326534914, "altitude_rel_ft": 70.1981, "yaw_deg": 89.4161, "pitch_deg": 0.5771, "roll_deg": 4.4075, "ground_speed_ft_s": 30.2476, "vel_north_m_s": -7.4721, "vel_east_m_s": 2.1835, "vel_down_m_s": 0.886, "usable_for_triangulation": true}
{"run_id": "SIM_TEST", "kraken_seq": 185, "telemetry_seq": 45, "t_rx_ms": 1773426450309, "dt_ms": 1, "doa_deg": 32.0, "confidence_0_1": 0.7849048613603374, "lat_deg": 34.00369704816902, "lon_deg": -118.00182738165441, "altitude_rel_ft": 28.893, "yaw_deg": 15.7676, "pitch_deg": 8.6604, "roll_deg": -9.2241, "ground_speed_ft_s": 48.1658, "vel_north_m_s": 9.3608, "vel_east_m_s": -4.1588, "vel_down_m_s": 0.0975, "usable_for_triangulation": true}
{"run_id": "SIM_TEST", "kraken_seq": 186, "telemetry_seq": 46, "t_rx_ms": 1773426450410, "dt_ms": 0, "doa_deg": 181.0, "confidence_0_1": 0.9184677794476409, "lat_deg": 33.996828200906045, "lon_deg": -117.99944542200275, "altitude_rel_ft": 72.2518, "yaw_deg": 335.1469, "pitch_deg": 0.4384, "roll_deg": 1.4482, "ground_speed_ft_s": 53.6968, "vel_north_m_s": 6.651, "vel_east_m_s": -9.1361, "vel_down_m_s": -0.7643, "usable_for_triangulation": true}
{"run_id": "SIM_TEST", "kraken_seq": 187, "telemetry_seq": 47, "t_rx_ms": 1773426450510, "dt_ms": 1, "doa_deg": 313.0, "confidence_0_1": 0.04325814002493589, "lat_deg": 34.002685439669456, "lon_deg": -118.00386964744908, "altitude_rel_ft": 73.3936, "yaw_deg": 314.0552, "pitch_deg": 2.2005, "roll_deg": -2.4682, "ground_speed_ft_s": 15.8754, "vel_north_m_s": 0.6984, "vel_east_m_s": -2.3574, "vel_down_m_s": 0.3553, "usable_for_triangulation": false}
{"run_id": "SIM_TEST", "kraken_seq": 188, "telemetry_seq": 48, "t_rx_ms": 1773426450610, "dt_ms": 1, "doa_deg": 170.0, "confidence_0_1": 0.32967151014787066, "lat_deg": 34.0023787572201, "lon_deg": -117.99258846907745, "altitude_rel_ft": 80.1417, "yaw_deg": 59.2021, "pitch_deg": 6.1628, "roll_deg": -2.3507, "ground_speed_ft_s": 55.8865, "vel_north_m_s": -5.3341, "vel_east_m_s": -9.8275, "vel_down_m_s": 0.3401, "usable_for_triangulation": false}
{"run_id": "SIM_TEST", "kraken_seq": 189, "telemetry_seq": 49, "t_rx_ms": 1773426450711, "dt_ms": 0, "doa_deg": 253.0, "confidence_0_1": 0.9975206303302883, "lat_deg": 33.997716239920784, "lon_deg": -117.99234206844015, "altitude_rel_ft": 75.6675, "yaw_deg": 354.9878, "pitch_deg": -6.6923, "roll_deg": -7.2746, "ground_speed_ft_s": 46.379, "vel_north_m_s": -8.6523, "vel_east_m_s": 5.4727, "vel_down_m_s": 0.6286, "usable_for_triangulation": true}
{"run_id": "SIM_TEST", "kraken_seq": 190, "telemetry_seq": 50, "t_rx_ms": 1773426450811, "dt_ms": 1, "doa_deg": 147.0, "confidence_0_1": 0.382053630036151, "lat_deg": 33.992491165232316, "lon_deg": -118.00467916824697, "altitude_rel_ft": 66.2665, "yaw_deg": 166.0931, "pitch_deg": 5.6692, "roll_deg": -9.8181, "ground_speed_ft_s": 26.488, "vel_north_m_s": 3.8112, "vel_east_m_s": -3.0803, "vel_down_m_s": -0.3735, "usable_for_triangulation": false}
{"run_id": "SIM_TEST", "kraken_seq": 191, "telemetry_seq": 51, "t_rx_ms": 1773426450911, "dt_ms": 1, "doa_deg": 103.0, "confidence_0_1": 0.24820128144646936, "lat_deg": 34.00603605876082, "lon_deg": -118.0073522297457, "altitude_rel_ft": 42.4859, "yaw_deg": 111.9813, "pitch_deg": -7.6283, "roll_deg": -6.9956, "ground_speed_ft_s": 59.3856, "vel_north_m_s": -5.8313, "vel_east_m_s": 2.3043, "vel_down_m_s": 0.4519, "usable_for_triangulation": false}
{"run_id": "SIM_TEST", "kraken_seq": 192, "telemetry_seq": 52, "t_rx_ms": 1773426451012, "dt_ms": 1, "doa_deg": 70.0, "confidence_0_1": 0.779329709079106, "lat_deg": 33.997425590231714, "lon_deg": -118.00047038557175, "altitude_rel_ft": 59.2934, "yaw_deg": 160.7042, "pitch_deg": 6.9807, "roll_deg": -3.3316, "ground_speed_ft_s": 30.5406, "vel_north_m_s": -0.5858, "vel_east_m_s": -1.4789, "vel_down_m_s": -0.2397, "usable_for_triangulation": true}
{"run_id": "SIM_TEST", "kraken_seq": 193, "telemetry_seq": 53, "t_rx_ms": 1773426451112, "dt_ms": 1, "doa_deg": 48.0, "confidence_0_1": 0.6798152180736772, "lat_deg": 34.00523205688291, "lon_deg": -117.99036405530342, "altitude_rel_ft": 68.8654, "yaw_deg": 308.9773, "pitch_deg": -0.118, "roll_deg": -3.5026, "ground_speed_ft_s": 54.0508, "vel_north_m_s": -4.535, "vel_east_m_s": -0.9494, "vel_down_m_s": -0.6663, "usable_for_triangulation": true}
{"run_id": "SIM_TEST", "kraken_seq": 194, "telemetry_seq": 54, "t_rx_ms": 1773426451212, "dt_ms": 2, "doa_deg": 89.0, "confidence_0_1": 0.6587987150671292, "lat_deg": 33.997040545305275, "lon_deg": -117.99937264765161, "altitude_rel_ft": 56.9516, "yaw_deg": 108.087, "pitch_deg": -8.6084, "roll_deg": -2.2521, "ground_speed_ft_s": 29.6697, "vel_north_m_s": 6.0403, "vel_east_m_s": 8.1891, "vel_down_m_s": -0.3746, "usable_for_triangulation": true}
{"run_id": "SIM_TEST", "kraken_seq": 195, "telemetry_seq": 55, "t_rx_ms": 1773426451313, "dt_ms": 1, "doa_deg": 27.0, "confidence_0_1": 0.9673789608723697, "lat_deg": 34.008226450791824, "lon_deg": -117.99350576116812, "altitude_rel_ft": 94.5254, "yaw_deg": 1.0562, "pitch_deg": -5.392, "roll_deg": -11.3727, "ground_speed_ft_s": 38.1521, "vel_north_m_s": -4.8944, "vel_east_m_s": -4.4783, "vel_down_m_s": 0.8548, "usable_for_triangulation": true}
{"run_id": "SIM_TEST", "kraken_seq": 196, "telemetry_seq": 56, "t_rx_ms": 1773426451413, "dt_ms": 1, "doa_deg": 23.0, "confidence_0_1": 0.02304716825357178, "lat_deg": 34.00274019754415, "lon_deg": -118.0007044185579, "altitude_rel_ft": 60.8333, "yaw_deg": 310.838, "pitch_deg": -3.3229, "roll_deg": 1.5749, "ground_speed_ft_s": 48.7813, "vel_north_m_s": -5.9254, "vel_east_m_s": 0.0688, "vel_down_m_s": 0.2457, "usable_for_triangulation": false}
{"run_id": "SIM_TEST", "kraken_seq": 197, "telemetry_seq": 57, "t_rx_ms": 1773426451514, "dt_ms": 1, "doa_deg": 335.0, "confidence_0_1": 0.19152337744035985, "lat_deg": 34.00418676703675, "lon_deg": -118.00639330606045, "altitude_rel_ft": 34.0239, "yaw_deg": 328.9683, "pitch_deg": -5.7276, "roll_deg": -10.1143, "ground_speed_ft_s": 35.8503, "vel_north_m_s": 3.5306, "vel_east_m_s": -5.2674, "vel_down_m_s": 0.1048, "usable_for_triangulation": false}
{"run_id": "SIM_TEST", "kraken_seq": 198, "telemetry_seq": 58, "t_rx_ms": 1773426451614, "dt_ms": 2, "doa_deg": 115.0, "confidence_0_1": 0.06701427646849134, "lat_deg": 33.993926653186264, "lon_deg": -118.00058433831182, "altitude_rel_ft": 26.3343, "yaw_deg": 10.5059, "pitch_deg": 3.2443, "roll_deg": -7.5723, "ground_speed_ft_s": 50.073, "vel_north_m_s": -2.2997, "vel_east_m_s": -8.6907, "vel_down_m_s": 0.7602, "usable_for_triangulation": false}
{"run_id": "SIM_TEST", "kraken_seq": 199, "telemetry_seq": 59, "t_rx_ms": 1773426451714, "dt_ms": 2, "doa_deg": 253.0, "confidence_0_1": 0.17292099693688023, "lat_deg": 34.00445799861096, "lon_deg": -117.993265214132, "altitude_rel_ft": 59.6758, "yaw_deg": 220.0651, "pitch_deg": 2.764, "roll_deg": -10.567, "ground_speed_ft_s": 49.0882, "vel_north_m_s": -8.3622, "vel_east_m_s": 8.2635, "vel_down_m_s": 0.1284, "usable_for_triangulation": false}
{"run_id": "SIM_TEST", "kraken_seq": 200, "telemetry_seq": 60, "t_rx_ms": 1773426451815, "dt_ms": 2, "doa_deg": 28.0, "confidence_0_1": 0.2523997566071021, "lat_deg": 34.00249445163528, "lon_deg": -118.00583207313088, "altitude_rel_ft": 91.4638, "yaw_deg": 296.5674, "pitch_deg": 6.3136, "roll_deg": 12.7496, "ground_speed_ft_s": 12.3286, "vel_north_m_s": 4.1126, "vel_east_m_s": 2.3226, "vel_down_m_s": 0.0318, "usable_for_triangulation": false}
{"run_id": "SIM_TEST", "kraken_seq": 201, "telemetry_seq": 61, "t_rx_ms": 1773426451915, "dt_ms": 2, "doa_deg": 58.0, "confidence_0_1": 0.9865640388360493, "lat_deg": 34.00585319777638, "lon_deg": -118.00221521793134, "altitude_rel_ft": 26.7445, "yaw_deg": 48.0133, "pitch_deg": 5.8676, "roll_deg": 3.95, "ground_speed_ft_s": 44.0099, "vel_north_m_s": 8.9263, "vel_east_m_s": -3.7309, "vel_down_m_s": 0.0996, "usable_for_triangulation": true}
{"run_id": "SIM_TEST", "kraken_seq": 202, "telemetry_seq": 62, "t_rx_ms": 1773426452015, "dt_ms": 2, "doa_deg": 339.0, "confidence_0_1": 0.8888370222209974, "lat_deg": 34.00777494897916, "lon_deg": -117.99866046389681, "altitude_rel_ft": 79.9476, "yaw_deg": 284.4354, "pitch_deg": 3.6025, "roll_deg": -7.2001, "ground_speed_ft_s": 23.9424, "vel_north_m_s": 5.5255, "vel_east_m_s": 5.8127, "vel_down_m_s": 0.5431, "usable_for_triangulation": true}
{"run_id": "SIM_TEST", "kraken_seq": 203, "telemetry_seq": 63, "t_rx_ms": 1773426452116, "dt_ms": 2, "doa_deg": 121.0, "confidence_0_1": 0.21426490693178968, "lat_deg": 33.9915221752949, "lon_deg": -117.99482536957629, "altitude_rel_ft": 93.7164, "yaw_deg": 174.4449, "pitch_deg": -5.0673, "roll_deg": -5.7743, "ground_speed_ft_s": 25.0452, "vel_north_m_s": -1.3504, "vel_east_m_s": 3.9797, "vel_down_m_s": -0.4776, "usable_for_triangulation": false}
{"run_id": "SIM_TEST", "kraken_seq": 204, "telemetry_seq": 64, "t_rx_ms": 1773426452216, "dt_ms": 2, "doa_deg": 94.0, "confidence_0_1": 0.9068844716969036, "lat_deg": 34.004639255875986, "lon_deg": -118.00370866272904, "altitude_rel_ft": 40.9241, "yaw_deg": 188.121, "pitch_deg": 0.3076, "roll_deg": -7.9503, "ground_speed_ft_s": 18.5604, "vel_north_m_s": 4.5064, "vel_east_m_s": 0.1203, "vel_down_m_s": -0.6195, "usable_for_triangulation": true}
{"run_id": "SIM_TEST", "kraken_seq": 205, "telemetry_seq": 65, "t_rx_ms": 1773426452316, "dt_ms": 2, "doa_deg": 319.0, "confidence_0_1": 0.5648987432717395, "lat_deg": 33.99205415105514, "lon_deg": -117.99434569768796, "altitude_rel_ft": 90.6111, "yaw_deg": 251.4033, "pitch_deg": 8.1716, "roll_deg": 7.4016, "ground_speed_ft_s": 8.3615, "vel_north_m_s": 1.3951, "vel_east_m_s": 8.7845, "vel_down_m_s": 0.4603, "usable_for_triangulation": true}
{"run_id": "SIM_TEST", "kraken_seq": 206, "telemetry_seq": 66, "t_rx_ms": 1773426452417, "dt_ms": 1, "doa_deg": 242.0, "confidence_0_1": 0.08837008840880034, "lat_deg": 34.00919619885374, "lon_deg": -118.0026563021075, "altitude_rel_ft": 22.559, "yaw_deg": 209.5912, "pitch_deg": -0.8056, "roll_deg": -9.0496, "ground_speed_ft_s": 10.3075, "vel_north_m_s": 9.436, "vel_east_m_s": 4.1854, "vel_down_m_s": 0.1962, "usable_for_triangulation": false}
{"run_id": "SIM_TEST", "kraken_seq": 207, "telemetry_seq": 67, "t_rx_ms": 1773426452517, "dt_ms": 2, "doa_deg": 337.0, "confidence_0_1": 0.7271621271755437, "lat_deg": 33.99999561579599, "lon_deg": -117.99791062549389, "altitude_rel_ft": 47.842, "yaw_deg": 252.5629, "pitch_deg": -7.2208, "roll_deg": -12.7812, "ground_speed_ft_s": 28.0099, "vel_north_m_s": -3.9842, "vel_east_m_s": -9.4365, "vel_down_m_s": 0.3176, "usable_for_triangulation": true}
{"run_id": "SIM_TEST", "kraken_seq": 208, "telemetry_seq": 68, "t_rx_ms": 1773426452617, "dt_ms": 2, "doa_deg": 213.0, "confidence_0_1": 0.0939188283958784, "lat_deg": 34.00959194640594, "lon_deg": -118.00773829691892, "altitude_rel_ft": 92.9851, "yaw_deg": 301.3734, "pitch_deg": -5.4014, "roll_deg": 7.6447, "ground_speed_ft_s": 6.4398, "vel_north_m_s": -1.7073, "vel_east_m_s": -1.8899, "vel_down_m_s": 0.7717, "usable_for_triangulation": false}
{"run_id": "SIM_TEST", "kraken_seq": 209, "telemetry_seq": 69, "t_rx_ms": 1773426452718, "dt_ms": 2, "doa_deg": 156.0, "confidence_0_1": 0.0876346157751905, "lat_deg": 34.00054171086165, "lon_deg": -117.99526449838234, "altitude_rel_ft": 61.6178, "yaw_deg": 210.0728, "pitch_deg": 5.8886, "roll_deg": -12.4091, "ground_speed_ft_s": 42.8517, "vel_north_m_s": -8.6396, "vel_east_m_s": 8.4148, "vel_down_m_s": -0.0719, "usable_for_triangulation": false}
{"run_id": "SIM_TEST", "kraken_seq": 210, "telemetry_seq": 70, "t_rx_ms": 1773426452818, "dt_ms": 3, "doa_deg": 143.0, "confidence_0_1": 0.6444188349802269, "lat_deg": 33.99604399750618, "lon_deg": -118.00663665464015, "altitude_rel_ft": 24.9543, "yaw_deg": 192.3624, "pitch_deg": -4.4533, "roll_deg": -6.9668, "ground_speed_ft_s": 59.961, "vel_north_m_s": 4.2779, "vel_east_m_s": 7.6172, "vel_down_m_s": -0.283, "usable_for_triangulation": true}
{"run_id": "SIM_TEST", "kraken_seq": 211, "telemetry_seq": 71, "t_rx_ms": 1773426452918, "dt_ms": 3, "doa_deg": 114.0, "confidence_0_1": 0.6378231357981357, "lat_deg": 34.00339385495685, "lon_deg": -117.99196849352845, "altitude_rel_ft": 89.8737, "yaw_deg": 68.295, "pitch_deg": -2.6849, "roll_deg": 0.0761, "ground_speed_ft_s": 13.0964, "vel_north_m_s": 3.7515, "vel_east_m_s": 4.9516, "vel_down_m_s": -0.4559, "usable_for_triangulation": true}
{"run_id": "SIM_TEST", "kraken_seq": 212, "telemetry_seq": 72, "t_rx_ms": 1773426453019, "dt_ms": 3, "doa_deg": 152.0, "confidence_0_1": 0.04642500734036459, "lat_deg": 34.00652899180864, "lon_deg": -117.99127142299506, "altitude_rel_ft": 80.2543, "yaw_deg": 303.6306, "pitch_deg": -7.635, "roll_deg": -1.2432, "ground_speed_ft_s": 21.1881, "vel_north_m_s": 5.5856, "vel_east_m_s": -0.4522, "vel_down_m_s": 0.7182, "usable_for_triangulation": false}
{"run_id": "SIM_TEST", "kraken_seq": 213, "telemetry_seq": 73, "t_rx_ms": 1773426453119, "dt_ms": 3, "doa_deg": 328.0, "confidence_0_1": 0.5940488890289721, "lat_deg": 33.99740610334111, "lon_deg": -117.99177675028038, "altitude_rel_ft": 98.2944, "yaw_deg": 262.9438, "pitch_deg": 5.3764, "roll_deg": 13.4998, "ground_speed_ft_s": 49.3971, "vel_north_m_s": 6.7631, "vel_east_m_s": -6.3086, "vel_down_m_s": -0.74, "usable_for_triangulation": true}
{"run_id": "SIM_TEST", "kraken_seq": 214, "telemetry_seq": 74, "t_rx_ms": 1773426453219, "dt_ms": 3, "doa_deg": 171.0, "confidence_0_1": 0.7200862003737751, "lat_deg": 34.002672583685545, "lon_deg": -118.00129516794917, "altitude_rel_ft": 64.3618, "yaw_deg": 325.2337, "pitch_deg": -3.8556, "roll_deg": 3.8146, "ground_speed_ft_s": 53.7667, "vel_north_m_s": -6.2424, "vel_east_m_s": 3.1449, "vel_down_m_s": 0.0073, "usable_for_triangulation": true}
{"run_id": "SIM_TEST", "kraken_seq": 215, "telemetry_seq": 75, "t_rx_ms": 1773426453320, "dt_ms": 3, "doa_deg": 315.0, "confidence_0_1": 0.3116922707323744, "lat_deg": 34.00030112896199, "lon_deg": -117.99629326631492, "altitude_rel_ft": 43.6427, "yaw_deg": 354.2746, "pitch_deg": -4.6168, "roll_deg": 12.2353, "ground_speed_ft_s": 32.5859, "vel_north_m_s": 5.6463, "vel_east_m_s": -0.8729, "vel_down_m_s": -0.614, "usable_for_triangulation": false}
{"run_id": "SIM_TEST", "kraken_seq": 216, "telemetry_seq": 76, "t_rx_ms": 1773426453420, "dt_ms": 3, "doa_deg": 161.0, "confidence_0_1": 0.817593652337649, "lat_deg": 33.99864076457878, "lon_deg": -118.00022748342994, "altitude_rel_ft": 57.9508, "yaw_deg": 5.658, "pitch_deg": -2.551, "roll_deg": -13.6357, "ground_speed_ft_s": 12.1454, "vel_north_m_s": -4.5104, "vel_east_m_s": -6.1293, "vel_down_m_s": -0.221, "usable_for_triangulation": true}
{"run_id": "SIM_TEST", "kraken_seq": 217, "telemetry_seq": 77, "t_rx_ms": 1773426453521, "dt_ms": 2, "doa_deg": 305.0, "confidence_0_1": 0.5842557535396851, "lat_deg": 34.009618532839504, "lon_deg": -117.99341418433247, "altitude_rel_ft": 76.0792, "yaw_deg": 173.1181, "pitch_deg": 6.8799, "roll_deg": -13.2815, "ground_speed_ft_s": 48.5265, "vel_north_m_s": 6.6476, "vel_east_m_s": -0.3486, "vel_down_m_s": -0.0385, "usable_for_triangulation": true}
{"run_id": "SIM_TEST", "kraken_seq": 218, "telemetry_seq": 78, "t_rx_ms": 1773426453621, "dt_ms": 3, "doa_deg": 88.0, "confidence_0_1": 0.6983139805019902, "lat_deg": 33.999085837678294, "lon_deg": -118.00788655678471, "altitude_rel_ft": 68.0695, "yaw_deg": 117.9813, "pitch_deg": -4.0234, "roll_deg": -6.9264, "ground_speed_ft_s": 52.7201, "vel_north_m_s": 6.8445, "vel_east_m_s": 8.265, "vel_down_m_s": 0.9206, "usable_for_triangulation": true}
{"run_id": "SIM_TEST", "kraken_seq": 219, "telemetry_seq": 79, "t_rx_ms": 1773426453722, "dt_ms": 2, "doa_deg": 256.0, "confidence_0_1": 0.8141992295884374, "lat_deg": 33.995839093143395, "lon_deg": -118.00442721467655, "altitude_rel_ft": 61.7243, "yaw_deg": 231.0093, "pitch_deg": 9.5469, "roll_deg": -14.8869, "ground_speed_ft_s": 40.4883, "vel_north_m_s": -3.4886, "vel_east_m_s": 0.3722, "vel_down_m_s": 0.9375, "usable_for_triangulation": true}
{"run_id": "SIM_TEST", "kraken_seq": 220, "telemetry_seq": 80, "t_rx_ms": 1773426453822, "dt_ms": 3, "doa_deg": 56.0, "confidence_0_1": 0.3716397397158743, "lat_deg": 34.00675289419577, "lon_deg": -118.00522910427733, "altitude_rel_ft": 28.0207, "yaw_deg": 324.5867, "pitch_deg": -6.9135, "roll_deg": 13.935, "ground_speed_ft_s": 35.7694, "vel_north_m_s": -2.6677, "vel_east_m_s": -3.3333, "vel_down_m_s": -0.8247, "usable_for_triangulation": false}
{"run_id": "SIM_TEST", "kraken_seq": 221, "telemetry_seq": 81, "t_rx_ms": 1773426453922, "dt_ms": 3, "doa_deg": 70.0, "confidence_0_1": 0.3289728216436625, "lat_deg": 33.990295534274395, "lon_deg": -117.99573745774083, "altitude_rel_ft": 40.2889, "yaw_deg": 14.8897, "pitch_deg": 5.4736, "roll_deg": 11.6459, "ground_speed_ft_s": 26.3219, "vel_north_m_s": 7.4918, "vel_east_m_s": -7.3024, "vel_down_m_s": -0.845, "usable_for_triangulation": false}
{"run_id": "SIM_TEST", "kraken_seq": 222, "telemetry_seq": 82, "t_rx_ms": 1773426454023, "dt_ms": 2, "doa_deg": 190.0, "confidence_0_1": 0.23576035635607695, "lat_deg": 34.00010432523921, "lon_deg": -118.00902184670757, "altitude_rel_ft": 78.7157, "yaw_deg": 329.1491, "pitch_deg": 9.0389, "roll_deg": -1.7415, "ground_speed_ft_s": 52.5166, "vel_north_m_s": 9.371, "vel_east_m_s": 6.5974, "vel_down_m_s": 0.7251, "usable_for_triangulation": false}
{"run_id": "SIM_TEST", "kraken_seq": 223, "telemetry_seq": 83, "t_rx_ms": 1773426454123, "dt_ms": 3, "doa_deg": 55.0, "confidence_0_1": 0.13944587188946844, "lat_deg": 34.00553198560676, "lon_deg": -118.00732094843416, "altitude_rel_ft": 70.0149, "yaw_deg": 158.217, "pitch_deg": 0.3863, "roll_deg": 6.7491, "ground_speed_ft_s": 54.2009, "vel_north_m_s": 8.7424, "vel_east_m_s": 3.3852, "vel_down_m_s": 0.1367, "usable_for_triangulation": false}
{"run_id": "SIM_TEST", "kraken_seq": 224, "telemetry_seq": 84, "t_rx_ms": 1773426454223, "dt_ms": 3, "doa_deg": 243.0, "confidence_0_1": 0.6280107127677638, "lat_deg": 33.99998679478959, "lon_deg": -117.99696843716498, "altitude_rel_ft": 87.6011, "yaw_deg": 358.5836, "pitch_deg": 8.6707, "roll_deg": -1.978, "ground_speed_ft_s": 27.8656, "vel_north_m_s": 2.2237, "vel_east_m_s": 2.6113, "vel_down_m_s": -0.7871, "usable_for_triangulation": true}
{"run_id": "SIM_TEST", "kraken_seq": 225, "telemetry_seq": 85, "t_rx_ms": 1773426454323, "dt_ms": 3, "doa_deg": 40.0, "confidence_0_1": 0.7075197046928065, "lat_deg": 33.995710652108095, "lon_deg": -118.0020130057325, "altitude_rel_ft": 22.5217, "yaw_deg": 134.5647, "pitch_deg": -0.7139, "roll_deg": -0.6981, "ground_speed_ft_s": 19.1089, "vel_north_m_s": -9.7019, "vel_east_m_s": -2.1126, "vel_down_m_s": -0.0727, "usable_for_triangulation": true}
{"run_id": "SIM_TEST", "kraken_seq": 226, "telemetry_seq": 86, "t_rx_ms": 1773426454424, "dt_ms": 2, "doa_deg": 2.0, "confidence_0_1": 0.6841274823645902, "lat_deg": 34.00286225786013, "lon_deg": -117.99529571725287, "altitude_rel_ft": 29.7625, "yaw_deg": 304.3782, "pitch_deg": -5.0461, "roll_deg": 8.1115, "ground_speed_ft_s": 31.386, "vel_north_m_s": 6.0419, "vel_east_m_s": -9.9789, "vel_down_m_s": -0.098, "usable_for_triangulation": true}
{"run_id": "SIM_TEST", "kraken_seq": 227, "telemetry_seq": 87, "t_rx_ms": 1773426454524, "dt_ms": 3, "doa_deg": 144.0, "confidence_0_1": 0.5694803436937755, "lat_deg": 34.00830529681468, "lon_deg": -117.99609834608756, "altitude_rel_ft": 30.5, "yaw_deg": 64.6928, "pitch_deg": 9.0329, "roll_deg": 7.3182, "ground_speed_ft_s": 5.6622, "vel_north_m_s": -8.6595, "vel_east_m_s": -2.9112, "vel_down_m_s": -0.7464, "usable_for_triangulation": true}
{"run_id": "SIM_TEST", "kraken_seq": 228, "telemetry_seq": 88, "t_rx_ms": 1773426454624, "dt_ms": 3, "doa_deg": 93.0, "confidence_0_1": 0.43467035444741775, "lat_deg": 34.00244568731529, "lon_deg": -118.00396803388941, "altitude_rel_ft": 98.3251, "yaw_deg": 56.7096, "pitch_deg": -1.4822, "roll_deg": 5.7624, "ground_speed_ft_s": 22.0643, "vel_north_m_s": 4.5735, "vel_east_m_s": -3.8187, "vel_down_m_s": -0.6175, "usable_for_triangulation": false}
{"run_id": "SIM_TEST", "kraken_seq": 229, "telemetry_seq": 89, "t_rx_ms": 1773426454724, "dt_ms": 3, "doa_deg": 31.0, "confidence_0_1": 0.05473767482542302, "lat_deg": 34.008987005793834, "lon_deg": -118.00916467248287, "altitude_rel_ft": 56.7109, "yaw_deg": 31.6, "pitch_deg": 2.0531, "roll_deg": -4.1589, "ground_speed_ft_s": 18.0477, "vel_north_m_s": -5.0766, "vel_east_m_s": -8.8293, "vel_down_m_s": 0.4492, "usable_for_triangulation": false}
{"run_id": "SIM_TEST", "kraken_seq": 230, "telemetry_seq": 90, "t_rx_ms": 1773426454825, "dt_ms": 2, "doa_deg": 264.0, "confidence_0_1": 0.45157164340466716, "lat_deg": 33.999309663847754, "lon_deg": -117.99466172825451, "altitude_rel_ft": 77.3663, "yaw_deg": 255.6594, "pitch_deg": 9.8355, "roll_deg": -4.1771, "ground_speed_ft_s": 52.7539, "vel_north_m_s": -1.9327, "vel_east_m_s": 7.0294, "vel_down_m_s": 0.1932, "usable_for_triangulation": false}
{"run_id": "SIM_TEST", "kraken_seq": 231, "telemetry_seq": 91, "t_rx_ms": 1773426454925, "dt_ms": 3, "doa_deg": 310.0, "confidence_0_1": 0.38459668971629934, "lat_deg": 33.996706824207685, "lon_deg": -117.99673492778898, "altitude_rel_ft": 91.5314, "yaw_deg": 272.5856, "pitch_deg": 3.8855, "roll_deg": 3.5388, "ground_speed_ft_s": 46.7828, "vel_north_m_s": -9.643, "vel_east_m_s": 5.6627, "vel_down_m_s": -0.2505, "usable_for_triangulation": false}
{"run_id": "SIM_TEST", "kraken_seq": 232, "telemetry_seq": 92, "t_rx_ms": 1773426455025, "dt_ms": 3, "doa_deg": 354.0, "confidence_0_1": 0.11113008866255003, "lat_deg": 33.99550903252485, "lon_deg": -118.00460122549376, "altitude_rel_ft": 82.0873, "yaw_deg": 131.6769, "pitch_deg": 0.5825, "roll_deg": -10.9212, "ground_speed_ft_s": 52.1245, "vel_north_m_s": -5.0704, "vel_east_m_s": -4.5243, "vel_down_m_s": 0.4183, "usable_for_triangulation": false}
{"run_id": "SIM_TEST", "kraken_seq": 233, "telemetry_seq": 93, "t_rx_ms": 1773426455126, "dt_ms": 2, "doa_deg": 178.0, "confidence_0_1": 0.4180379854994598, "lat_deg": 34.00630970813199, "lon_deg": -117.99270572638217, "altitude_rel_ft": 54.8117, "yaw_deg": 274.8671, "pitch_deg": -6.7532, "roll_deg": -1.5009, "ground_speed_ft_s": 45.3203, "vel_north_m_s": -0.3587, "vel_east_m_s": 7.1692, "vel_down_m_s": 0.6849, "usable_for_triangulation": false}
{"run_id": "SIM_TEST", "kraken_seq": 234, "telemetry_seq": 94, "t_rx_ms": 1773426455226, "dt_ms": 3, "doa_deg": 248.0, "confidence_0_1": 0.23499111112337145, "lat_deg": 34.008439814893805, "lon_deg": -117.99145629398113, "altitude_rel_ft": 90.9002, "yaw_deg": 130.5415, "pitch_deg": -8.9613, "roll_deg": 12.4467, "ground_speed_ft_s": 21.4271, "vel_north_m_s": -3.1413, "vel_east_m_s": -3.0739, "vel_down_m_s": 0.093, "usable_for_triangulation": false}
{"run_id": "SIM_TEST", "kraken_seq": 235, "telemetry_seq": 95, "t_rx_ms": 1773426455326, "dt_ms": 3, "doa_deg": 288.0, "confidence_0_1": 0.5951284940428166, "lat_deg": 33.99341473492059, "lon_deg": -118.00095762299411, "altitude_rel_ft": 61.744, "yaw_deg": 352.8387, "pitch_deg": -1.5142, "roll_deg": 5.6813, "ground_speed_ft_s": 8.0802, "vel_north_m_s": 7.2223, "vel_east_m_s": -8.4695, "vel_down_m_s": 0.9479, "usable_for_triangulation": true}
{"run_id": "SIM_TEST", "kraken_seq": 236, "telemetry_seq": 96, "t_rx_ms": 1773426455427, "dt_ms": 2, "doa_deg": 200.0, "confidence_0_1": 0.5857849550290773, "lat_deg": 34.00530329465175, "lon_deg": -118.00666166852668, "altitude_rel_ft": 33.2035, "yaw_deg": 282.001, "pitch_deg": -9.3225, "roll_deg": -2.4168, "ground_speed_ft_s": 34.7912, "vel_north_m_s": -9.9763, "vel_east_m_s": 7.5179, "vel_down_m_s": -0.6328, "usable_for_triangulation": true}
{"run_id": "SIM_TEST", "kraken_seq": 237, "telemetry_seq": 97, "t_rx_ms": 1773426455527, "dt_ms": 2, "doa_deg": 206.0, "confidence_0_1": 0.9359692113436828, "lat_deg": 33.99838664313208, "lon_deg": -117.99537223888429, "altitude_rel_ft": 77.6294, "yaw_deg": 105.8974, "pitch_deg": 1.2777, "roll_deg": 2.1693, "ground_speed_ft_s": 26.6472, "vel_north_m_s": 2.7585, "vel_east_m_s": -5.3224, "vel_down_m_s": -0.1828, "usable_for_triangulation": true}
{"run_id": "SIM_TEST", "kraken_seq": 238, "telemetry_seq": 98, "t_rx_ms": 1773426455627, "dt_ms": 3, "doa_deg": 273.0, "confidence_0_1": 0.3948478858629644, "lat_deg": 34.00641870480746, "lon_deg": -117.99810506516151, "altitude_rel_ft": 62.7556, "yaw_deg": 85.067, "pitch_deg": -2.5581, "roll_deg": -3.7079, "ground_speed_ft_s": 58.3407, "vel_north_m_s": -8.2435, "vel_east_m_s": -3.781, "vel_down_m_s": -0.6412, "usable_for_triangulation": false}
{"run_id": "SIM_TEST", "kraken_seq": 239, "telemetry_seq": 99, "t_rx_ms": 1773426455727, "dt_ms": 3, "doa_deg": 168.0, "confidence_0_1": 0.6459420886452272, "lat_deg": 33.99123503394651, "lon_deg": -118.00327421930727, "altitude_rel_ft": 66.8165, "yaw_deg": 227.1325, "pitch_deg": 9.2719, "roll_deg": 6.0436, "ground_speed_ft_s": 24.2233, "vel_north_m_s": -4.0691, "vel_east_m_s": 9.08, "vel_down_m_s": -0.7176, "usable_for_triangulation": true}
{"run_id": "SIM_TEST", "kraken_seq": 240, "telemetry_seq": 100, "t_rx_ms": 1773426455827, "dt_ms": 3, "doa_deg": 219.0, "confidence_0_1": 0.8733007150634796, "lat_deg": 33.99799642992599, "lon_deg": -117.99058314327851, "altitude_rel_ft": 31.3821, "yaw_deg": 329.7855, "pitch_deg": 4.2661, "roll_deg": -3.6941, "ground_speed_ft_s": 37.363, "vel_north_m_s": 4.4016, "vel_east_m_s": -8.1637, "vel_down_m_s": 0.414, "usable_for_triangulation": true}
{"run_id": "SIM_TEST", "kraken_seq": 241, "telemetry_seq": 101, "t_rx_ms": 1773426455928, "dt_ms": 2, "doa_deg": 21.0, "confidence_0_1": 0.9852461877714027, "lat_deg": 34.00137422644423, "lon_deg": -117.99088118548995, "altitude_rel_ft": 39.1114, "yaw_deg": 55.4653, "pitch_deg": -7.0363, "roll_deg": -13.4162, "ground_speed_ft_s": 7.9558, "vel_north_m_s": 0.5366, "vel_east_m_s": -8.0403, "vel_down_m_s": -0.9719, "usable_for_triangulation": true}
{"run_id": "SIM_TEST", "kraken_seq": 242, "telemetry_seq": 102, "t_rx_ms": 1773426456028, "dt_ms": 3, "doa_deg": 306.0, "confidence_0_1": 0.7171602664186988, "lat_deg": 33.996488190234466, "lon_deg": -118.00309899413745, "altitude_rel_ft": 72.9311, "yaw_deg": 219.2838, "pitch_deg": -9.0709, "roll_deg": -0.7856, "ground_speed_ft_s": 17.9837, "vel_north_m_s": -3.3344, "vel_east_m_s": -8.8448, "vel_down_m_s": -0.7134, "usable_for_triangulation": true}
{"run_id": "SIM_TEST", "kraken_seq": 243, "telemetry_seq": 103, "t_rx_ms": 1773426456128, "dt_ms": 3, "doa_deg": 136.0, "confidence_0_1": 0.44113340151112224, "lat_deg": 33.99732767386519, "lon_deg": -117.99282845143546, "altitude_rel_ft": 82.698, "yaw_deg": 183.0447, "pitch_deg": 6.1346, "roll_deg": 6.6173, "ground_speed_ft_s": 51.697, "vel_north_m_s": 9.6892, "vel_east_m_s": 7.7492, "vel_down_m_s": -0.086, "usable_for_triangulation": false}
{"run_id": "SIM_TEST", "kraken_seq": 244, "telemetry_seq": 104, "t_rx_ms": 1773426456229, "dt_ms": 2, "doa_deg": 46.0, "confidence_0_1": 0.33175376095726594, "lat_deg": 33.998292752114104, "lon_deg": -118.00445529042824, "altitude_rel_ft": 80.9797, "yaw_deg": 65.2519, "pitch_deg": -8.512, "roll_deg": -9.1739, "ground_speed_ft_s": 10.7662, "vel_north_m_s": -0.8297, "vel_east_m_s": -3.1244, "vel_down_m_s": -0.9078, "usable_for_triangulation": false}
{"run_id": "SIM_TEST", "kraken_seq": 245, "telemetry_seq": 105, "t_rx_ms": 1773426456329, "dt_ms": 2, "doa_deg": 193.0, "confidence_0_1": 0.42704869626589215, "lat_deg": 33.99080340812669, "lon_deg": -117.99757047442498, "altitude_rel_ft": 98.0566, "yaw_deg": 277.3317, "pitch_deg": 2.8421, "roll_deg": -0.3397, "ground_speed_ft_s": 56.5217, "vel_north_m_s": -0.8161, "vel_east_m_s": -3.9415, "vel_down_m_s": 0.1337, "usable_for_triangulation": false}
{"run_id": "SIM_TEST", "kraken_seq": 246, "telemetry_seq": 106, "t_rx_ms": 1773426456429, "dt_ms": 3, "doa_deg": 292.0, "confidence_0_1": 0.22530132045675832, "lat_deg": 34.008873623086714, "lon_deg": -118.00607618489384, "altitude_rel_ft": 43.964, "yaw_deg": 75.4972, "pitch_deg": 1.3491, "roll_deg": 2.8972, "ground_speed_ft_s": 44.281, "vel_north_m_s": -8.2136, "vel_east_m_s": 3.8789, "vel_down_m_s": 0.7138, "usable_for_triangulation": false}
{"run_id": "SIM_TEST", "kraken_seq": 247, "telemetry_seq": 107, "t_rx_ms": 1773426456529, "dt_ms": 3, "doa_deg": 199.0, "confidence_0_1": 0.4805961853772789, "lat_deg": 33.997614738579955, "lon_deg": -118.00887849898297, "altitude_rel_ft": 42.1448, "yaw_deg": 172.7842, "pitch_deg": 9.0948, "roll_deg": -5.8539, "ground_speed_ft_s": 42.7225, "vel_north_m_s": 9.3872, "vel_east_m_s": -5.5064, "vel_down_m_s": 0.4772, "usable_for_triangulation": false}
{"run_id": "SIM_TEST", "kraken_seq": 248, "telemetry_seq": 108, "t_rx_ms": 1773426456630, "dt_ms": 2, "doa_deg": 115.0, "confidence_0_1": 0.07337900075589476, "lat_deg": 33.99634398427631, "lon_deg": -118.00770830354088, "altitude_rel_ft": 56.7294, "yaw_deg": 267.6985, "pitch_deg": 8.9485, "roll_deg": 3.132, "ground_speed_ft_s": 14.729, "vel_north_m_s": 6.7747, "vel_east_m_s": -6.9284, "vel_down_m_s": -0.3332, "usable_for_triangulation": false}
{"run_id": "SIM_TEST", "kraken_seq": 249, "telemetry_seq": 109, "t_rx_ms": 1773426456730, "dt_ms": 3, "doa_deg": 100.0, "confidence_0_1": 0.8915387526667934, "lat_deg": 33.995277516681725, "lon_deg": -118.00366403920613, "altitude_rel_ft": 46.2937, "yaw_deg": 16.2876, "pitch_deg": 7.6225, "roll_deg": 7.4845, "ground_speed_ft_s": 15.3473, "vel_north_m_s": -0.4513, "vel_east_m_s": -3.8296, "vel_down_m_s": -0.6519, "usable_for_triangulation": true}
{"run_id": "SIM_TEST", "kraken_seq": 250, "telemetry_seq": 110, "t_rx_ms": 1773426456831, "dt_ms": 2, "doa_deg": 284.0, "confidence_0_1": 0.8142826228979888, "lat_deg": 33.99992374537092, "lon_deg": -117.99712375229524, "altitude_rel_ft": 61.1611, "yaw_deg": 335.5219, "pitch_deg": 0.6591, "roll_deg": -11.8347, "ground_speed_ft_s": 36.9893, "vel_north_m_s": 1.8222, "vel_east_m_s": -4.5211, "vel_down_m_s": 0.7587, "usable_for_triangulation": true}
{"run_id": "SIM_TEST", "kraken_seq": 251, "telemetry_seq": 111, "t_rx_ms": 1773426456931, "dt_ms": 2, "doa_deg": 344.0, "confidence_0_1": 0.6137430945213479, "lat_deg": 34.0019516087892, "lon_deg": -117.99660072208704, "altitude_rel_ft": 86.2505, "yaw_deg": 30.3936, "pitch_deg": 4.769, "roll_deg": 6.1875, "ground_speed_ft_s": 19.7286, "vel_north_m_s": 4.0062, "vel_east_m_s": 6.2196, "vel_down_m_s": -0.9422, "usable_for_triangulation": true}
{"run_id": "SIM_TEST", "kraken_seq": 252, "telemetry_seq": 112, "t_rx_ms": 1773426457031, "dt_ms": 3, "doa_deg": 146.0, "confidence_0_1": 0.003003643228092101, "lat_deg": 34.00593193382113, "lon_deg": -118.00248761671938, "altitude_rel_ft": 20.4826, "yaw_deg": 156.0338, "pitch_deg": 1.6404, "roll_deg": -0.7134, "ground_speed_ft_s": 26.9657, "vel_north_m_s": -2.4231, "vel_east_m_s": -9.768, "vel_down_m_s": -0.0031, "usable_for_triangulation": false}
{"run_id": "SIM_TEST", "kraken_seq": 253, "telemetry_seq": 113, "t_rx_ms": 1773426457132, "dt_ms": 2, "doa_deg": 327.0, "confidence_0_1": 0.08465485155568386, "lat_deg": 33.99687712186385, "lon_deg": -118.00063865186647, "altitude_rel_ft": 28.4628, "yaw_deg": 1.6113, "pitch_deg": -0.2768, "roll_deg": 4.2104, "ground_speed_ft_s": 11.4934, "vel_north_m_s": -1.4595, "vel_east_m_s": -2.1337, "vel_down_m_s": 0.1991, "usable_for_triangulation": false}
{"run_id": "SIM_TEST", "kraken_seq": 254, "telemetry_seq": 114, "t_rx_ms": 1773426457232, "dt_ms": 3, "doa_deg": 5.0, "confidence_0_1": 0.9903251384517564, "lat_deg": 33.99114036729497, "lon_deg": -118.00182027325978, "altitude_rel_ft": 79.4451, "yaw_deg": 97.8946, "pitch_deg": -1.1721, "roll_deg": 12.6304, "ground_speed_ft_s": 23.1527, "vel_north_m_s": -2.602, "vel_east_m_s": 3.9761, "vel_down_m_s": 0.9738, "usable_for_triangulation": true}
{"run_id": "SIM_TEST", "kraken_seq": 255, "telemetry_seq": 115, "t_rx_ms": 1773426457332, "dt_ms": 3, "doa_deg": 146.0, "confidence_0_1": 0.5938991915163033, "lat_deg": 34.003256573874076, "lon_deg": -118.00655956922077, "altitude_rel_ft": 29.8669, "yaw_deg": 299.8386, "pitch_deg": -1.4539, "roll_deg": -6.3011, "ground_speed_ft_s": 34.3398, "vel_north_m_s": 5.0866, "vel_east_m_s": -0.5961, "vel_down_m_s": -0.5235, "usable_for_triangulation": true}
{"run_id": "SIM_TEST", "kraken_seq": 256, "telemetry_seq": 116, "t_rx_ms": 1773426457433, "dt_ms": 2, "doa_deg": 18.0, "confidence_0_1": 0.8792889236084105, "lat_deg": 33.99086858375701, "lon_deg": -118.00172932793755, "altitude_rel_ft": 31.0334, "yaw_deg": 282.1774, "pitch_deg": 6.3447, "roll_deg": 5.9364, "ground_speed_ft_s": 52.7429, "vel_north_m_s": 4.3225, "vel_east_m_s": -8.2505, "vel_down_m_s": 0.0855, "usable_for_triangulation": true}
{"run_id": "SIM_TEST", "kraken_seq": 257, "telemetry_seq": 117, "t_rx_ms": 1773426457533, "dt_ms": 2, "doa_deg": 152.0, "confidence_0_1": 0.9434238781310681, "lat_deg": 34.009629328917676, "lon_deg": -118.00613287120913, "altitude_rel_ft": 27.6536, "yaw_deg": 239.6004, "pitch_deg": 2.2673, "roll_deg": -2.3657, "ground_speed_ft_s": 58.759, "vel_north_m_s": 9.0894, "vel_east_m_s": -5.8667, "vel_down_m_s": -0.4965, "usable_for_triangulation": true}
{"run_id": "SIM_TEST", "kraken_seq": 258, "telemetry_seq": 118, "t_rx_ms": 1773426457633, "dt_ms": 3, "doa_deg": 209.0, "confidence_0_1": 0.18424399210104814, "lat_deg": 34.00156212176075, "lon_deg": -118.00547347050703, "altitude_rel_ft": 39.7487, "yaw_deg": 204.0188, "pitch_deg": -5.9687, "roll_deg": -13.1012, "ground_speed_ft_s": 45.4438, "vel_north_m_s": 0.4789, "vel_east_m_s": -7.5171, "vel_down_m_s": 0.9857, "usable_for_triangulation": false}
{"run_id": "SIM_TEST", "kraken_seq": 259, "telemetry_seq": 119, "t_rx_ms": 1773426457733, "dt_ms": 3, "doa_deg": 249.0, "confidence_0_1": 0.4722867123079074, "lat_deg": 33.99668584437322, "lon_deg": -117.99993045044076, "altitude_rel_ft": 76.9348, "yaw_deg": 88.1728, "pitch_deg": -2.7116, "roll_deg": 5.1301, "ground_speed_ft_s": 47.9199, "vel_north_m_s": 6.5719, "vel_east_m_s": -5.5592, "vel_down_m_s": 0.4641, "usable_for_triangulation": false}
{"run_id": "SIM_TEST", "kraken_seq": 260, "telemetry_seq": 120, "t_rx_ms": 1773426457833, "dt_ms": 3, "doa_deg": 168.0, "confidence_0_1": 0.29210514531482556, "lat_deg": 33.998737547673656, "lon_deg": -118.00821205655755, "altitude_rel_ft": 23.4352, "yaw_deg": 348.8142, "pitch_deg": 7.9084, "roll_deg": -9.3681, "ground_speed_ft_s": 46.2845, "vel_north_m_s": 4.9424, "vel_east_m_s": 8.854, "vel_down_m_s": -0.366, "usable_for_triangulation": false}
{"run_id": "SIM_TEST", "kraken_seq": 261, "telemetry_seq": 121, "t_rx_ms": 1773426457934, "dt_ms": 2, "doa_deg": 85.0, "confidence_0_1": 0.377654274365645, "lat_deg": 34.00102556996554, "lon_deg": -118.00635782863574, "altitude_rel_ft": 92.1966, "yaw_deg": 288.7987, "pitch_deg": 7.2973, "roll_deg": 10.1787, "ground_speed_ft_s": 59.0182, "vel_north_m_s": 8.8362, "vel_east_m_s": 8.2744, "vel_down_m_s": -0.3563, "usable_for_triangulation": false}
{"run_id": "SIM_TEST", "kraken_seq": 262, "telemetry_seq": 122, "t_rx_ms": 1773426458034, "dt_ms": 2, "doa_deg": 219.0, "confidence_0_1": 0.10930664790099442, "lat_deg": 34.00615236486044, "lon_deg": -117.99971889582443, "altitude_rel_ft": 36.1443, "yaw_deg": 46.9962, "pitch_deg": -7.202, "roll_deg": -11.7722, "ground_speed_ft_s": 7.7038, "vel_north_m_s": -9.81, "vel_east_m_s": 6.9042, "vel_down_m_s": -0.3238, "usable_for_triangulation": false}
{"run_id": "SIM_TEST", "kraken_seq": 263, "telemetry_seq": 123, "t_rx_ms": 1773426458134, "dt_ms": 3, "doa_deg": 328.0, "confidence_0_1": 0.5054011447825323, "lat_deg": 34.0022835851311, "lon_deg": -118.00197798543171, "altitude_rel_ft": 39.6685, "yaw_deg": 34.7701, "pitch_deg": -1.1521, "roll_deg": -11.1962, "ground_speed_ft_s": 20.3974, "vel_north_m_s": -4.103, "vel_east_m_s": -1.4536, "vel_down_m_s": 0.8792, "usable_for_triangulation": true}
{"run_id": "SIM_TEST", "kraken_seq": 264, "telemetry_seq": 124, "t_rx_ms": 1773426458235, "dt_ms": 2, "doa_deg": 277.0, "confidence_0_1": 0.17942262753822757, "lat_deg": 33.99600904159376, "lon_deg": -118.00061468004407, "altitude_rel_ft": 33.3056, "yaw_deg": 220.7785, "pitch_deg": -6.9851, "roll_deg": -8.4209, "ground_speed_ft_s": 39.7269, "vel_north_m_s": 8.9827, "vel_east_m_s": 4.362, "vel_down_m_s": 0.0853, "usable_for_triangulation": false}
{"run_id": "SIM_TEST", "kraken_seq": 265, "telemetry_seq": 125, "t_rx_ms": 1773426458335, "dt_ms": 2, "doa_deg": 240.0, "confidence_0_1": 0.598474272865584, "lat_deg": 34.00872092866307, "lon_deg": -117.99011096021053, "altitude_rel_ft": 76.3357, "yaw_deg": 300.214, "pitch_deg": -4.1673, "roll_deg": -10.6634, "ground_speed_ft_s": 7.8186, "vel_north_m_s": 1.1192, "vel_east_m_s": -8.5535, "vel_down_m_s": 0.3638, "usable_for_triangulation": true}
{"run_id": "SIM_TEST", "kraken_seq": 266, "telemetry_seq": 126, "t_rx_ms": 1773426458435, "dt_ms": 3, "doa_deg": 158.0, "confidence_0_1": 0.6141885670876962, "lat_deg": 34.00278714317817, "lon_deg": -117.99132872096925, "altitude_rel_ft": 42.269, "yaw_deg": 217.4299, "pitch_deg": -4.6618, "roll_deg": -4.5722, "ground_speed_ft_s": 38.6984, "vel_north_m_s": -8.0614, "vel_east_m_s": -4.2364, "vel_down_m_s": -0.268, "usable_for_triangulation": true}
{"run_id": "SIM_TEST", "kraken_seq": 267, "telemetry_seq": 127, "t_rx_ms": 1773426458535, "dt_ms": 3, "doa_deg": 46.0, "confidence_0_1": 0.5341462726298822, "lat_deg": 33.997875189197316, "lon_deg": -118.008979895248, "altitude_rel_ft": 27.3541, "yaw_deg": 259.1229, "pitch_deg": -2.2242, "roll_deg": 12.3139, "ground_speed_ft_s": 7.592, "vel_north_m_s": -9.3685, "vel_east_m_s": 6.8954, "vel_down_m_s": -0.2228, "usable_for_triangulation": true}
{"run_id": "SIM_TEST", "kraken_seq": 268, "telemetry_seq": 128, "t_rx_ms": 1773426458636, "dt_ms": 2, "doa_deg": 221.0, "confidence_0_1": 0.7348892313830991, "lat_deg": 34.00512871874675, "lon_deg": -117.99523766420785, "altitude_rel_ft": 59.2569, "yaw_deg": 324.2762, "pitch_deg": -5.0065, "roll_deg": -10.752, "ground_speed_ft_s": 10.7617, "vel_north_m_s": -8.4368, "vel_east_m_s": 6.3819, "vel_down_m_s": -0.2606, "usable_for_triangulation": true}
{"run_id": "SIM_TEST", "kraken_seq": 269, "telemetry_seq": 129, "t_rx_ms": 1773426458736, "dt_ms": 2, "doa_deg": 296.0, "confidence_0_1": 0.14280014734308866, "lat_deg": 33.99387693685486, "lon_deg": -117.99979289474888, "altitude_rel_ft": 97.5554, "yaw_deg": 104.825, "pitch_deg": -0.7233, "roll_deg": 2.25, "ground_speed_ft_s": 25.1025, "vel_north_m_s": -2.0999, "vel_east_m_s": 2.8276, "vel_down_m_s": 0.1897, "usable_for_triangulation": false}
{"run_id": "SIM_TEST", "kraken_seq": 270, "telemetry_seq": 130, "t_rx_ms": 1773426458836, "dt_ms": 3, "doa_deg": 274.0, "confidence_0_1": 0.9942323687633027, "lat_deg": 33.99840386134784, "lon_deg": -118.00909879825534, "altitude_rel_ft": 58.9943, "yaw_deg": 277.9627, "pitch_deg": 8.8102, "roll_deg": 2.3751, "ground_speed_ft_s": 48.6078, "vel_north_m_s": 1.5091, "vel_east_m_s": -5.4226, "vel_down_m_s": 0.1292, "usable_for_triangulation": true}
