{"run_id": "SIM_TEST", "kraken_seq": 0, "telemetry_seq": 44, "t_rx_ms": 1776414826939, "dt_ms": -43, "doa_deg": 182.0, "confidence_0_1": 0.7489528620786637, "lat_deg": 33.999624851063324, "lon_deg": -118.00854778075337, "altitude_rel_ft": 37.1122, "yaw_deg": 182.3309, "pitch_deg": 4.1802, "roll_deg": -6.4398, "ground_speed_ft_s": 31.1398, "vel_north_m_s": -8.5435, "vel_east_m_s": -1.8224, "vel_down_m_s": 0.3746, "usable_for_triangulation": true}
{"run_id": "SIM_TEST", "kraken_seq": 1, "telemetry_seq": 45, "t_rx_ms": 1776414827040, "dt_ms": -44, "doa_deg": 195.0, "confidence_0_1": 0.9466286809005637, "lat_deg": 33.99922136707634, "lon_deg": -118.00013780597074, "altitude_rel_ft": 32.6507, "yaw_deg": 258.1946, "pitch_deg": -4.2273, "roll_deg": -6.0371, "ground_speed_ft_s": 27.4085, "vel_north_m_s": -6.8488, "vel_east_m_s": 0.1611, "vel_down_m_s": -0.6955, "usable_for_triangulation": true}
{"run_id": "SIM_TEST", "kraken_seq": 2, "telemetry_seq": 46, "t_rx_ms": 1776414827140, "dt_ms": -43, "doa_deg": 268.0, "confidence_0_1": 0.7027120479258607, "lat_deg": 33.991741176634974, "lon_deg": -118.00796814916806, "altitude_rel_ft": 22.6612, "yaw_deg": 0.3105, "pitch_deg": 4.3365, "roll_deg": 5.064, "ground_speed_ft_s": 12.8686, "vel_north_m_s": 4.1163, "vel_east_m_s": 7.9621, "vel_down_m_s": 0.4825, "usable_for_triangulation": true}
{"run_id": "SIM_TEST", "kraken_seq": 3, "telemetry_seq": 47, "t_rx_ms": 1776414827244, "dt_ms": -47, "doa_deg": 72.0, "confidence_0_1": 0.9780444778643074, "lat_deg": 33.99395041957404, "lon_deg": -118.00587306862077, "altitude_rel_ft": 35.1626, "yaw_deg": 281.0939, "pitch_deg": 6.0478, "roll_deg": -7.1768, "ground_speed_ft_s": 16.6725, "vel_north_m_s": -1.6409, "vel_east_m_s": -7.0998, "vel_down_m_s": 0.6778, "usable_for_triangulation": true}
{"run_id": "SIM_TEST", "kraken_seq": 4, "telemetry_seq": 48, "t_rx_ms": 1776414827345, "dt_ms": -47, "doa_deg": 332.0, "confidence_0_1": 0.7443899817705094, "lat_deg": 34.00808537525792, "lon_deg": -118.00471084032684, "altitude_rel_ft": 88.897, "yaw_deg": 305.6716, "pitch_deg": -1.1917, "roll_deg": 13.9107, "ground_speed_ft_s": 18.7755, "vel_north_m_s": -8.6723, "vel_east_m_s": 7.3866, "vel_down_m_s": 0.8418, "usable_for_triangulation": true}
{"run_id": "SIM_TEST", "kraken_seq": 5, "telemetry_seq": 49, "t_rx_ms": 1776414827445, "dt_ms": -47, "doa_deg": 190.0, "confidence_0_1": 0.5029612853682873, "lat_deg": 33.999166940708704, "lon_deg": -118.00878122202246, "altitude_rel_ft": 52.7668, "yaw_deg": 313.5759, "pitch_deg": -4.5784, "roll_deg": -9.5575, "ground_speed_ft_s": 16.1292, "vel_north_m_s": 1.0501, "vel_east_m_s": -6.7107, "vel_down_m_s": -0.3067, "usable_for_triangulation": true}
{"run_id": "SIM_TEST", "kraken_seq": 6, "telemetry_seq": 50, "t_rx_ms": 1776414827546, "dt_ms": -47, "doa_deg": 108.0, "confidence_0_1": 0.7465916007395045, "lat_deg": 34.000413998882784, "lon_deg": -118.008508838624, "altitude_rel_ft": 55.2053, "yaw_deg": 340.0942, "pitch_deg": 3.3304, "roll_deg": -13.5608, "ground_speed_ft_s": 25.7435, "vel_north_m_s": 6.577, "vel_east_m_s": 0.7575, "vel_down_m_s": 0.8414, "usable_for_triangulation": true}
{"run_id": "SIM_TEST", "kraken_seq": 7, "telemetry_seq": 51, "t_rx_ms": 1776414827646, "dt_ms": -46, "doa_deg": 28.0, "confidence_0_1": 0.21443226030531226, "lat_deg": 34.00907351938699, "lon_deg": -118.00729200039473, "altitude_rel_ft": 44.9089, "yaw_deg": 149.116, "pitch_deg": -5.8837, "roll_deg": -8.2933, "ground_speed_ft_s": 6.014, "vel_north_m_s": -2.3175, "vel_east_m_s": 6.2772, "vel_down_m_s": 0.4209, "usable_for_triangulation": false}
{"run_id": "SIM_TEST", "kraken_seq": 8, "telemetry_seq": 52, "t_rx_ms": 1776414827747, "dt_ms": -47, "doa_deg": 4.0, "confidence_0_1": 0.017226883745728006, "lat_deg": 33.99812694632123, "lon_deg": -117.99314548646404, "altitude_rel_ft": 72.7891, "yaw_deg": 158.8585, "pitch_deg": -7.0204, "roll_deg": -4.7106, "ground_speed_ft_s": 37.1713, "vel_north_m_s": -3.0958, "vel_east_m_s": 5.2581, "vel_down_m_s": -0.0275, "usable_for_triangulation": false}
{"run_id": "SIM_TEST", "kraken_seq": 9, "telemetry_seq": 53, "t_rx_ms": 1776414827847, "dt_ms": -47, "doa_deg": 76.0, "confidence_0_1": 0.05446747227235271, "lat_deg": 34.001531504465554, "lon_deg": -118.00554573979556, "altitude_rel_ft": 91.329, "yaw_deg": 244.5804, "pitch_deg": -3.1225, "roll_deg": -3.0473, "ground_speed_ft_s": 59.1549, "vel_north_m_s": 8.7757, "vel_east_m_s": 3.151, "vel_down_m_s": -0.5605, "usable_for_triangulation": false}
{"run_id": "SIM_TEST", "kraken_seq": 10, "telemetry_seq": 54, "t_rx_ms": 1776414827948, "dt_ms": -47, "doa_deg": 92.0, "confidence_0_1": 0.591374747348307, "lat_deg": 33.99402297257399, "lon_deg": -117.99193622998187, "altitude_rel_ft": 49.1605, "yaw_deg": 42.0127, "pitch_deg": -8.6382, "roll_deg": 3.6169, "ground_speed_ft_s": 7.286, "vel_north_m_s": -6.0663, "vel_east_m_s": 4.0809, "vel_down_m_s": -0.1391, "usable_for_triangulation": true}
{"run_id": "SIM_TEST", "kraken_seq": 11, "telemetry_seq": 55, "t_rx_ms": 1776414828048, "dt_ms": -47, "doa_deg": 63.0, "confidence_0_1": 0.9811289450042616, "lat_deg": 34.00871728081491, "lon_deg": -117.99113387301686, "altitude_rel_ft": 92.4502, "yaw_deg": 222.534, "pitch_deg": 1.4699, "roll_deg": 7.6161, "ground_speed_ft_s": 12.919, "vel_north_m_s": 8.0766, "vel_east_m_s": -6.5943, "vel_down_m_s": -0.6958, "usable_for_triangulation": true}
{"run_id": "SIM_TEST", "kraken_seq": 12, "telemetry_seq": 56, "t_rx_ms": 1776414828149, "dt_ms": -47, "doa_deg": 229.0, "confidence_0_1": 0.053306780248005725, "lat_deg": 33.992728728070986, "lon_deg": -118.00569463853716, "altitude_rel_ft": 72.7155, "yaw_deg": 291.5999, "pitch_deg": -8.1791, "roll_deg": 6.1918, "ground_speed_ft_s": 21.9073, "vel_north_m_s": 8.9594, "vel_east_m_s": 7.2244, "vel_down_m_s": 0.4118, "usable_for_triangulation": false}
{"run_id": "SIM_TEST", "kraken_seq": 13, "telemetry_seq": 57, "t_rx_ms": 1776414828250, "dt_ms": -47, "doa_deg": 188.0, "confidence_0_1": 0.5318298468477828, "lat_deg": 33.995897278850705, "lon_deg": -117.99877732789535, "altitude_rel_ft": 84.9989, "yaw_deg": 177.4106, "pitch_deg": 0.8023, "roll_deg": -7.6052, "ground_speed_ft_s": 17.765, "vel_north_m_s": -3.3979, "vel_east_m_s": -8.0653, "vel_down_m_s": 0.2006, "usable_for_triangulation": true}
{"run_id": "SIM_TEST", "kraken_seq": 14, "telemetry_seq": 58, "t_rx_ms": 1776414828351, "dt_ms": -47, "doa_deg": 55.0, "confidence_0_1": 0.6451190816660074, "lat_deg": 33.99713791347917, "lon_deg": -118.00639076510095, "altitude_rel_ft": 27.6652, "yaw_deg": 23.5358, "pitch_deg": 0.3291, "roll_deg": 13.0448, "ground_speed_ft_s": 54.4873, "vel_north_m_s": -1.3099, "vel_east_m_s": -9.5077, "vel_down_m_s": 0.4537, "usable_for_triangulation": true}
{"run_id": "SIM_TEST", "kraken_seq": 15, "telemetry_seq": 59, "t_rx_ms": 1776414828452, "dt_ms": -48, "doa_deg": 298.0, "confidence_0_1": 0.5806937542532218, "lat_deg": 33.99675594909408, "lon_deg": -117.99446670758557, "altitude_rel_ft": 25.8872, "yaw_deg": 248.3317, "pitch_deg": 5.9352, "roll_deg": 14.0183, "ground_speed_ft_s": 5.1087, "vel_north_m_s": 3.7536, "vel_east_m_s": 5.1652, "vel_down_m_s": 0.9112, "usable_for_triangulation": true}
{"run_id": "SIM_TEST", "kraken_seq": 16, "telemetry_seq": 60, "t_rx_ms": 1776414828552, "dt_ms": -47, "doa_deg": 206.0, "confidence_0_1": 0.9606860681554584, "lat_deg": 34.00637530944201, "lon_deg": -118.0050675965433, "altitude_rel_ft": 53.1816, "yaw_deg": 102.5799, "pitch_deg": -1.1962, "roll_deg": -9.6399, "ground_speed_ft_s": 23.026, "vel_north_m_s": -0.9738, "vel_east_m_s": -7.3774, "vel_down_m_s": -0.6528, "usable_for_triangulation": true}
{"run_id": "SIM_TEST", "kraken_seq": 17, "telemetry_seq": 61, "t_rx_ms": 1776414828653, "dt_ms": -47, "doa_deg": 41.0, "confidence_0_1": 0.07453567969814912, "lat_deg": 33.99841163996751, "lon_deg": -118.00385842113192, "altitude_rel_ft": 85.3892, "yaw_deg": 187.7349, "pitch_deg": -1.8027, "roll_deg": -13.358, "ground_speed_ft_s": 59.0705, "vel_north_m_s": -0.8329, "vel_east_m_s": 4.1629, "vel_down_m_s": -0.8058, "usable_for_triangulation": false}
{"run_id": "SIM_TEST", "kraken_seq": 18, "telemetry_seq": 62, "t_rx_ms": 1776414828754, "dt_ms": -47, "doa_deg": 170.0, "confidence_0_1": 0.01545287945364937, "lat_deg": 33.99389524699338, "lon_deg": -117.9991776402773, "altitude_rel_ft": 43.1108, "yaw_deg": 148.1437, "pitch_deg": -2.2301, "roll_deg": 8.6161, "ground_speed_ft_s": 43.6637, "vel_north_m_s": -2.1958, "vel_east_m_s": -2.0275, "vel_down_m_s": 0.3704, "usable_for_triangulation": false}
{"run_id": "SIM_TEST", "kraken_seq": 19, "telemetry_seq": 63, "t_rx_ms": 1776414828854, "dt_ms": -46, "doa_deg": 250.0, "confidence_0_1": 0.6763344496784325, "lat_deg": 34.001322236993886, "lon_deg": -117.99238532832199, "altitude_rel_ft": 32.506, "yaw_deg": 262.7094, "pitch_deg": -8.4985, "roll_deg": -10.5293, "ground_speed_ft_s": 38.9498, "vel_north_m_s": 9.7484, "vel_east_m_s": -6.8967, "vel_down_m_s": 0.4522, "usable_for_triangulation": true}
{"run_id": "SIM_TEST", "kraken_seq": 20, "telemetry_seq": 64, "t_rx_ms": 1776414828955, "dt_ms": -46, "doa_deg": 53.0, "confidence_0_1": 0.8824922176751677, "lat_deg": 34.001372546223315, "lon_deg": -118.00279179208947, "altitude_rel_ft": 78.7735, "yaw_deg": 301.8424, "pitch_deg": -1.0886, "roll_deg": 9.3985, "ground_speed_ft_s": 30.7225, "vel_north_m_s": -7.5246, "vel_east_m_s": -2.6571, "vel_down_m_s": 0.4814, "usable_for_triangulation": true}
{"run_id": "SIM_TEST", "kraken_seq": 21, "telemetry_seq": 65, "t_rx_ms": 1776414829055, "dt_ms": -46, "doa_deg": 281.0, "confidence_0_1": 0.3647549497254077, "lat_deg": 33.999117928533124, "lon_deg": -117.99809717026443, "altitude_rel_ft": 92.4073, "yaw_deg": 150.9151, "pitch_deg": 9.5295, "roll_deg": -6.1236, "ground_speed_ft_s": 28.4279, "vel_north_m_s": -8.1356, "vel_east_m_s": -7.6764, "vel_down_m_s": -0.4008, "usable_for_triangulation": true}
{"run_id": "SIM_TEST", "kraken_seq": 22, "telemetry_seq": 66, "t_rx_ms": 1776414829156, "dt_ms": -45, "doa_deg": 345.0, "confidence_0_1": 0.4546501864492287, "lat_deg": 34.000470593901234, "lon_deg": -117.99538075486413, "altitude_rel_ft": 42.3946, "yaw_deg": 68.3647, "pitch_deg": 0.4813, "roll_deg": -1.0438, "ground_speed_ft_s": 18.9263, "vel_north_m_s": 3.8972, "vel_east_m_s": -2.2152, "vel_down_m_s": 0.5337, "usable_for_triangulation": true}
{"run_id": "SIM_TEST", "kraken_seq": 23, "telemetry_seq": 67, "t_rx_ms": 1776414829257, "dt_ms": -46, "doa_deg": 174.0, "confidence_0_1": 0.6017577149834731, "lat_deg": 34.00296119057013, "lon_deg": -118.00556629442241, "altitude_rel_ft": 86.2449, "yaw_deg": 341.4188, "pitch_deg": -9.2559, "roll_deg": 12.6792, "ground_speed_ft_s": 42.2362, "vel_north_m_s": -2.9847, "vel_east_m_s": -2.1699, "vel_down_m_s": -0.0802, "usable_for_triangulation": true}
{"run_id": "SIM_TEST", "kraken_seq": 24, "telemetry_seq": 68, "t_rx_ms": 1776414829357, "dt_ms": -45, "doa_deg": 275.0, "confidence_0_1": 0.38212635303716436, "lat_deg": 34.00189343175095, "lon_deg": -117.99470733656617, "altitude_rel_ft": 43.7323, "yaw_deg": 23.577, "pitch_deg": 0.7614, "roll_deg": 2.735, "ground_speed_ft_s": 22.0345, "vel_north_m_s": -0.0673, "vel_east_m_s": 4.3925, "vel_down_m_s": -0.4092, "usable_for_triangulation": true}
{"run_id": "SIM_TEST", "kraken_seq": 25, "telemetry_seq": 69, "t_rx_ms": 1776414829458, "dt_ms": -46, "doa_deg": 43.0, "confidence_0_1": 0.5357517876848643, "lat_deg": 34.00667259593257, "lon_deg": -118.00731830508266, "altitude_rel_ft": 94.0197, "yaw_deg": 24.9128, "pitch_deg": 0.8731, "roll_deg": -0.6234, "ground_speed_ft_s": 35.5199, "vel_north_m_s": -2.6871, "vel_east_m_s": -6.3938, "vel_down_m_s": 0.6433, "usable_for_triangulation": true}
{"run_id": "SIM_TEST", "kraken_seq": 26, "telemetry_seq": 70, "t_rx_ms": 1776414829558, "dt_ms": -45, "doa_deg": 307.0, "confidence_0_1": 0.9246482394085597, "lat_deg": 33.9911222776002, "lon_deg": -117.99949833291254, "altitude_rel_ft": 90.2963, "yaw_deg": 212.6418, "pitch_deg": 1.9321, "roll_deg": -2.8732, "ground_speed_ft_s": 9.1744, "vel_north_m_s": 4.7941, "vel_east_m_s": -6.2988, "vel_down_m_s": 0.7799, "usable_for_triangulation": true}
{"run_id": "SIM_TEST", "kraken_seq": 27, "telemetry_seq": 71, "t_rx_ms": 1776414829659, "dt_ms": -45, "doa_deg": 18.0, "confidence_0_1": 0.3233753163362654, "lat_deg": 33.99001265324191, "lon_deg": -118.00739694007355, "altitude_rel_ft": 76.0184, "yaw_deg": 296.3456, "pitch_deg": 2.5297, "roll_deg": -2.6851, "ground_speed_ft_s": 21.4777, "vel_north_m_s": -5.6522, "vel_east_m_s": 6.4604, "vel_down_m_s": 0.8499, "usable_for_triangulation": true}
{"run_id": "SIM_TEST", "kraken_seq": 28, "telemetry_seq": 72, "t_rx_ms": 1776414829759, "dt_ms": -45, "doa_deg": 335.0, "confidence_0_1": 0.40293610518200795, "lat_deg": 34.00632343003405, "lon_deg": -117.99133552097814, "altitude_rel_ft": 53.6189, "yaw_deg": 29.9323, "pitch_deg": 8.0092, "roll_deg": 1.232, "ground_speed_ft_s": 49.6179, "vel_north_m_s": 2.4328, "vel_east_m_s": 6.8634, "vel_down_m_s": 0.0938, "usable_for_triangulation": true}
{"run_id": "SIM_TEST", "kraken_seq": 29, "telemetry_seq": 73, "t_rx_ms": 1776414829860, "dt_ms": -45, "doa_deg": 151.0, "confidence_0_1": 0.34563957454422545, "lat_deg": 34.00213277817266, "lon_deg": -118.00077342255, "altitude_rel_ft": 63.5184, "yaw_deg": 157.428, "pitch_deg": 6.9365, "roll_deg": -6.4618, "ground_speed_ft_s": 24.2588, "vel_north_m_s": -1.9216, "vel_east_m_s": -7.5446, "vel_down_m_s": -0.8095, "usable_for_triangulation": true}
{"run_id": "SIM_TEST", "kraken_seq": 30, "telemetry_seq": 74, "t_rx_ms": 1776414829960, "dt_ms": -45, "doa_deg": 229.0, "confidence_0_1": 0.8905118457379021, "lat_deg": 34.002730637499965, "lon_deg": -117.99181055568428, "altitude_rel_ft": 47.1451, "yaw_deg": 345.3676, "pitch_deg": -6.2036, "roll_deg": -5.2631, "ground_speed_ft_s": 15.9986, "vel_north_m_s": -2.1927, "vel_east_m_s": 6.7064, "vel_down_m_s": -0.0961, "usable_for_triangulation": true}
{"run_id": "SIM_TEST", "kraken_seq": 31, "telemetry_seq": 75, "t_rx_ms": 1776414830061, "dt_ms": -45, "doa_deg": 125.0, "confidence_0_1": 0.2942457527619696, "lat_deg": 33.99465731642324, "lon_deg": -118.00585886193993, "altitude_rel_ft": 26.6462, "yaw_deg": 29.557, "pitch_deg": 7.6173, "roll_deg": 10.9615, "ground_speed_ft_s": 39.1855, "vel_north_m_s": -5.6896, "vel_east_m_s": -0.3173, "vel_down_m_s": -0.0435, "usable_for_triangulation": false}
{"run_id": "SIM_TEST", "kraken_seq": 32, "telemetry_seq": 76, "t_rx_ms": 1776414830161, "dt_ms": -45, "doa_deg": 199.0, "confidence_0_1": 0.18992034433444083, "lat_deg": 33.99284968044358, "lon_deg": -117.99903159535097, "altitude_rel_ft": 66.6819, "yaw_deg": 147.6718, "pitch_deg": 9.3718, "roll_deg": -4.9965, "ground_speed_ft_s": 56.5782, "vel_north_m_s": 0.4958, "vel_east_m_s": 4.4537, "vel_down_m_s": -0.5684, "usable_for_triangulation": false}
{"run_id": "SIM_TEST", "kraken_seq": 33, "telemetry_seq": 77, "t_rx_ms": 1776414830262, "dt_ms": -45, "doa_deg": 139.0, "confidence_0_1": 0.42707687941456585, "lat_deg": 33.99184665167107, "lon_deg": -118.00411410593564, "altitude_rel_ft": 53.8003, "yaw_deg": 120.2853, "pitch_deg": -7.3183, "roll_deg": 13.7341, "ground_speed_ft_s": 40.6283, "vel_north_m_s": 9.0322, "vel_east_m_s": -3.1516, "vel_down_m_s": 0.8053, "usable_for_triangulation": true}
{"run_id": "SIM_TEST", "kraken_seq": 34, "telemetry_seq": 78, "t_rx_ms": 1776414830362, "dt_ms": -44, "doa_deg": 328.0, "confidence_0_1": 0.6130438954088882, "lat_deg": 33.99588261580313, "lon_deg": -118.00036328610055, "altitude_rel_ft": 56.6965, "yaw_deg": 76.8316, "pitch_deg": -4.8335, "roll_deg": 8.2808, "ground_speed_ft_s": 17.7632, "vel_north_m_s": 3.9048, "vel_east_m_s": 8.3731, "vel_down_m_s": 0.3546, "usable_for_triangulation": true}
{"run_id": "SIM_TEST", "kraken_seq": 35, "telemetry_seq": 79, "t_rx_ms": 1776414830462, "dt_ms": -44, "doa_deg": 71.0, "confidence_0_1": 0.2929775740831042, "lat_deg": 33.99527924211479, "lon_deg": -118.00635362052553, "altitude_rel_ft": 86.8013, "yaw_deg": 92.3368, "pitch_deg": -8.6782, "roll_deg": -12.2691, "ground_speed_ft_s": 8.4443, "vel_north_m_s": -8.7304, "vel_east_m_s": 8.6922, "vel_down_m_s": -0.3416, "usable_for_triangulation": false}
{"run_id": "SIM_TEST", "kraken_seq": 36, "telemetry_seq": 80, "t_rx_ms": 1776414830563, "dt_ms": -44, "doa_deg": 290.0, "confidence_0_1": 0.9403516099707679, "lat_deg": 34.00189486627366, "lon_deg": -118.00936387796214, "altitude_rel_ft": 45.3498, "yaw_deg": 6.9721, "pitch_deg": 7.9922, "roll_deg": -6.396, "ground_speed_ft_s": 20.0344, "vel_north_m_s": -4.2109, "vel_east_m_s": -8.425, "vel_down_m_s": -0.4986, "usable_for_triangulation": true}
{"run_id": "SIM_TEST", "kraken_seq": 37, "telemetry_seq": 81, "t_rx_ms": 1776414830663, "dt_ms": -44, "doa_deg": 249.0, "confidence_0_1": 0.7982734617448847, "lat_deg": 34.007714174327084, "lon_deg": -118.00609552954026, "altitude_rel_ft": 68.9274, "yaw_deg": 56.3564, "pitch_deg": -7.3675, "roll_deg": -1.1409, "ground_speed_ft_s": 12.4015, "vel_north_m_s": -3.358, "vel_east_m_s": 6.8358, "vel_down_m_s": -0.405, "usable_for_triangulation": true}
{"run_id": "SIM_TEST", "kraken_seq": 38, "telemetry_seq": 82, "t_rx_ms": 1776414830764, "dt_ms": -44, "doa_deg": 236.0, "confidence_0_1": 0.33880316777448827, "lat_deg": 33.994423767440786, "lon_deg": -118.00403117036318, "altitude_rel_ft": 47.7625, "yaw_deg": 148.4566, "pitch_deg": 2.3173, "roll_deg": 4.4106, "ground_speed_ft_s": 35.8078, "vel_north_m_s": 0.5785, "vel_east_m_s": 7.5609, "vel_down_m_s": 0.6982, "usable_for_triangulation": true}
{"run_id": "SIM_TEST", "kraken_seq": 39, "telemetry_seq": 83, "t_rx_ms": 1776414830864, "dt_ms": -44, "doa_deg": 255.0, "confidence_0_1": 0.6856661583851629, "lat_deg": 33.99025249638708, "lon_deg": -117.99195857138302, "altitude_rel_ft": 57.5887, "yaw_deg": 296.4382, "pitch_deg": -1.3218, "roll_deg": -14.5027, "ground_speed_ft_s": 37.7561, "vel_north_m_s": -0.0309, "vel_east_m_s": 3.8687, "vel_down_m_s": -0.7396, "usable_for_triangulation": true}
{"run_id": "SIM_TEST", "kraken_seq": 40, "telemetry_seq": 84, "t_rx_ms": 1776414830964, "dt_ms": -43, "doa_deg": 85.0, "confidence_0_1": 0.28487513615949034, "lat_deg": 34.00210982582137, "lon_deg": -117.99056913675396, "altitude_rel_ft": 72.9483, "yaw_deg": 163.4991, "pitch_deg": 5.895, "roll_deg": -7.5379, "ground_speed_ft_s": 34.6621, "vel_north_m_s": -7.6243, "vel_east_m_s": -7.5419, "vel_down_m_s": -0.9769, "usable_for_triangulation": false}
{"run_id": "SIM_TEST", "kraken_seq": 41, "telemetry_seq": 85, "t_rx_ms": 1776414831065, "dt_ms": -43, "doa_deg": 195.0, "confidence_0_1": 0.4938831595681237, "lat_deg": 34.006380402278104, "lon_deg": -118.00534375837105, "altitude_rel_ft": 33.9051, "yaw_deg": 325.8181, "pitch_deg": 0.4701, "roll_deg": -2.3182, "ground_speed_ft_s": 52.6922, "vel_north_m_s": 9.4635, "vel_east_m_s": 8.2118, "vel_down_m_s": -0.6522, "usable_for_triangulation": true}
{"run_id": "SIM_TEST", "kraken_seq": 42, "telemetry_seq": 86, "t_rx_ms": 1776414831165, "dt_ms": -43, "doa_deg": 321.0, "confidence_0_1": 0.11901146406831908, "lat_deg": 34.00790855813248, "lon_deg": -117.99481198569399, "altitude_rel_ft": 77.2022, "yaw_deg": 60.5704, "pitch_deg": -8.4242, "roll_deg": -12.662, "ground_speed_ft_s": 28.0114, "vel_north_m_s": -2.3925, "vel_east_m_s": -6.9496, "vel_down_m_s": -0.0624, "usable_for_triangulation": false}
{"run_id": "SIM_TEST", "kraken_seq": 43, "telemetry_seq": 87, "t_rx_ms": 1776414831265, "dt_ms": -43, "doa_deg": 302.0, "confidence_0_1": 0.26023961225264314, "lat_deg": 33.994967708257576, "lon_deg": -118.00525121068894, "altitude_rel_ft": 81.3307, "yaw_deg": 60.1002, "pitch_deg": 2.773, "roll_deg": 12.263, "ground_speed_ft_s": 28.7484, "vel_north_m_s": -2.641, "vel_east_m_s": 7.6063, "vel_down_m_s": 0.8891, "usable_for_triangulation": false}
{"run_id": "SIM_TEST", "kraken_seq": 44, "telemetry_seq": 88, "t_rx_ms": 1776414831366, "dt_ms": -43, "doa_deg": 13.0, "confidence_0_1": 0.706448845654254, "lat_deg": 34.000968893308624, "lon_deg": -118.00702890725914, "altitude_rel_ft": 21.8645, "yaw_deg": 186.2463, "pitch_deg": 7.7275, "roll_deg": -11.6834, "ground_speed_ft_s": 14.8696, "vel_north_m_s": -1.761, "vel_east_m_s": -2.0621, "vel_down_m_s": 0.7097, "usable_for_triangulation": true}
{"run_id": "SIM_TEST", "kraken_seq": 45, "telemetry_seq": 89, "t_rx_ms": 1776414831466, "dt_ms": -42, "doa_deg": 219.0, "confidence_0_1": 0.7063137414024183, "lat_deg": 34.00223515757246, "lon_deg": -118.00351404721476, "altitude_rel_ft": 76.7144, "yaw_deg": 331.0809, "pitch_deg": -3.8192, "roll_deg": 1.7003, "ground_speed_ft_s": 14.023, "vel_north_m_s": -2.1513, "vel_east_m_s": -0.1397, "vel_down_m_s": 0.9503, "usable_for_triangulation": true}
{"run_id": "SIM_TEST", "kraken_seq": 46, "telemetry_seq": 90, "t_rx_ms": 1776414831567, "dt_ms": -43, "doa_deg": 57.0, "confidence_0_1": 0.2556307274073142, "lat_deg": 33.9944041877207, "lon_deg": -117.99689054103347, "altitude_rel_ft": 38.4461, "yaw_deg": 293.1603, "pitch_deg": -6.9905, "roll_deg": -10.062, "ground_speed_ft_s": 6.9038, "vel_north_m_s": 4.7635, "vel_east_m_s": -2.2667, "vel_down_m_s": -0.5493, "usable_for_triangulation": false}
{"run_id": "SIM_TEST", "kraken_seq": 47, "telemetry_seq": 91, "t_rx_ms": 1776414831667, "dt_ms": -42, "doa_deg": 132.0, "confidence_0_1": 0.3004157878052942, "lat_deg": 33.99235488156549, "lon_deg": -118.00644603928544, "altitude_rel_ft": 34.8548, "yaw_deg": 110.9857, "pitch_deg": 9.5307, "roll_deg": 2.7179, "ground_speed_ft_s": 8.0765, "vel_north_m_s": -2.0945, "vel_east_m_s": 0.7126, "vel_down_m_s": -0.1614, "usable_for_triangulation": true}
{"run_id": "SIM_TEST", "kraken_seq": 48, "telemetry_seq": 92, "t_rx_ms": 1776414831768, "dt_ms": -43, "doa_deg": 347.0, "confidence_0_1": 0.16100190584083973, "lat_deg": 33.99618430796848, "lon_deg": -117.99408450650078, "altitude_rel_ft": 74.203, "yaw_deg": 30.0045, "pitch_deg": -1.2197, "roll_deg": -4.2386, "ground_speed_ft_s": 9.74, "vel_north_m_s": 6.6157, "vel_east_m_s": 3.9027, "vel_down_m_s": -0.0488, "usable_for_triangulation": false}
{"run_id": "SIM_TEST", "kraken_seq": 49, "telemetry_seq": 93, "t_rx_ms": 1776414831868, "dt_ms": -42, "doa_deg": 75.0, "confidence_0_1": 0.006937327074067912, "lat_deg": 34.001315472845704, "lon_deg": -117.99016497011661, "altitude_rel_ft": 38.997, "yaw_deg": 154.9307, "pitch_deg": -2.3265, "roll_deg": -11.0853, "ground_speed_ft_s": 48.751, "vel_north_m_s": 8.793, "vel_east_m_s": -2.7158, "vel_down_m_s": 0.1303, "usable_for_triangulation": false}
{"run_id": "SIM_TEST", "kraken_seq": 50, "telemetry_seq": 94, "t_rx_ms": 1776414831969, "dt_ms": -42, "doa_deg": 207.0, "confidence_0_1": 0.12102332259506754, "lat_deg": 33.994882557782766, "lon_deg": -117.99733376596781, "altitude_rel_ft": 98.9812, "yaw_deg": 53.4128, "pitch_deg": 2.8619, "roll_deg": 13.605, "ground_speed_ft_s": 17.5042, "vel_north_m_s": -5.6463, "vel_east_m_s": 0.6437, "vel_down_m_s": 0.5216, "usable_for_triangulation": false}
{"run_id": "SIM_TEST", "kraken_seq": 51, "telemetry_seq": 95, "t_rx_ms": 1776414832069, "dt_ms": -42, "doa_deg": 292.0, "confidence_0_1": 0.28550725562544244, "lat_deg": 33.99767448904135, "lon_deg": -117.99077920656417, "altitude_rel_ft": 21.118, "yaw_deg": 282.6495, "pitch_deg": -5.986, "roll_deg": 1.2146, "ground_speed_ft_s": 10.8585, "vel_north_m_s": -2.6068, "vel_east_m_s": -6.8855, "vel_down_m_s": 0.1414, "usable_for_triangulation": false}
{"run_id": "SIM_TEST", "kraken_seq": 52, "telemetry_seq": 96, "t_rx_ms": 1776414832170, "dt_ms": -43, "doa_deg": 303.0, "confidence_0_1": 0.2118143662340879, "lat_deg": 34.00035528776385, "lon_deg": -118.00922655252425, "altitude_rel_ft": 42.5953, "yaw_deg": 152.7245, "pitch_deg": 7.7625, "roll_deg": -10.8663, "ground_speed_ft_s": 37.8526, "vel_north_m_s": 3.366, "vel_east_m_s": -9.4826, "vel_down_m_s": 0.0549, "usable_for_triangulation": false}
{"run_id": "SIM_TEST", "kraken_seq": 53, "telemetry_seq": 97, "t_rx_ms": 1776414832271, "dt_ms": -43, "doa_deg": 268.0, "confidence_0_1": 0.21446854703087925, "lat_deg": 33.9995649328398, "lon_deg": -117.99645104429646, "altitude_rel_ft": 73.9804, "yaw_deg": 321.8372, "pitch_deg": -3.6534, "roll_deg": 7.0085, "ground_speed_ft_s": 8.9371, "vel_north_m_s": 7.7918, "vel_east_m_s": -3.0103, "vel_down_m_s": -0.6526, "usable_for_triangulation": false}
{"run_id": "SIM_TEST", "kraken_seq": 54, "telemetry_seq": 98, "t_rx_ms": 1776414832371, "dt_ms": -43, "doa_deg": 243.0, "confidence_0_1": 0.7709611887480433, "lat_deg": 33.99901002074839, "lon_deg": -118.00291704016448, "altitude_rel_ft": 96.8041, "yaw_deg": 268.737, "pitch_deg": -0.9314, "roll_deg": -3.5992, "ground_speed_ft_s": 44.6256, "vel_north_m_s": 2.3673, "vel_east_m_s": -8.6873, "vel_down_m_s": -0.8898, "usable_for_triangulation": true}
{"run_id": "SIM_TEST", "kraken_seq": 55, "telemetry_seq": 99, "t_rx_ms": 1776414832471, "dt_ms": -42, "doa_deg": 323.0, "confidence_0_1": 0.8264147390610644, "lat_deg": 34.00575848051556, "lon_deg": -118.00538222572338, "altitude_rel_ft": 87.538, "yaw_deg": 237.0323, "pitch_deg": -7.4006, "roll_deg": -14.0184, "ground_speed_ft_s": 40.7755, "vel_north_m_s": 8.0157, "vel_east_m_s": -5.8771, "vel_down_m_s": -0.0746, "usable_for_triangulation": true}
{"run_id": "SIM_TEST", "kraken_seq": 56, "telemetry_seq": 100, "t_rx_ms": 1776414832572, "dt_ms": -43, "doa_deg": 311.0, "confidence_0_1": 0.9740194223899267, "lat_deg": 33.998109566596945, "lon_deg": -118.00546829504479, "altitude_rel_ft": 88.6987, "yaw_deg": 168.8102, "pitch_deg": -6.7542, "roll_deg": -12.3318, "ground_speed_ft_s": 29.7816, "vel_north_m_s": 8.9418, "vel_east_m_s": 2.4343, "vel_down_m_s": -0.1037, "usable_for_triangulation": true}
{"run_id": "SIM_TEST", "kraken_seq": 57, "telemetry_seq": 101, "t_rx_ms": 1776414832673, "dt_ms": -44, "doa_deg": 94.0, "confidence_0_1": 0.2793263784368758, "lat_deg": 34.00467511459216, "lon_deg": -117.99516495605774, "altitude_rel_ft": 84.5054, "yaw_deg": 212.8489, "pitch_deg": -7.9275, "roll_deg": 1.1833, "ground_speed_ft_s": 35.9559, "vel_north_m_s": -1.9969, "vel_east_m_s": 0.0823, "vel_down_m_s": -0.8771, "usable_for_triangulation": false}
{"run_id": "SIM_TEST", "kraken_seq": 58, "telemetry_seq": 102, "t_rx_ms": 1776414832774, "dt_ms": -45, "doa_deg": 274.0, "confidence_0_1": 0.024411981445972897, "lat_deg": 34.00589086647516, "lon_deg": -118.00812789467025, "altitude_rel_ft": 51.0587, "yaw_deg": 155.73, "pitch_deg": 4.3082, "roll_deg": -5.0208, "ground_speed_ft_s": 14.183, "vel_north_m_s": 8.2676, "vel_east_m_s": -3.2864, "vel_down_m_s": -0.6338, "usable_for_triangulation": false}
{"run_id": "SIM_TEST", "kraken_seq": 59, "telemetry_seq": 103, "t_rx_ms": 1776414832875, "dt_ms": -45, "doa_deg": 44.0, "confidence_0_1": 0.39157956519690285, "lat_deg": 33.995505688496166, "lon_deg": -117.99202562079981, "altitude_rel_ft": 46.4699, "yaw_deg": 283.9153, "pitch_deg": 0.6943, "roll_deg": 9.0647, "ground_speed_ft_s": 12.7838, "vel_north_m_s": 6.9812, "vel_east_m_s": 6.3579, "vel_down_m_s": -0.2548, "usable_for_triangulation": true}
{"run_id": "SIM_TEST", "kraken_seq": 60, "telemetry_seq": 104, "t_rx_ms": 1776414832975, "dt_ms": -44, "doa_deg": 354.0, "confidence_0_1": 0.6004803268667687, "lat_deg": 34.00323509682188, "lon_deg": -117.9999451313591, "altitude_rel_ft": 33.8287, "yaw_deg": 134.256, "pitch_deg": 1.0202, "roll_deg": -5.9574, "ground_speed_ft_s": 23.7848, "vel_north_m_s": -8.0831, "vel_east_m_s": 3.3544, "vel_down_m_s": 0.06, "usable_for_triangulation": true}
{"run_id": "SIM_TEST", "kraken_seq": 61, "telemetry_seq": 105, "t_rx_ms": 1776414833076, "dt_ms": -44, "doa_deg": 358.0, "confidence_0_1": 0.889975714047379, "lat_deg": 33.99115672387328, "lon_deg": -117.99865811852119, "altitude_rel_ft": 96.9629, "yaw_deg": 349.7644, "pitch_deg": 1.6354, "roll_deg": 13.4344, "ground_speed_ft_s": 25.48, "vel_north_m_s": 5.5908, "vel_east_m_s": 0.8978, "vel_down_m_s": 0.1695, "usable_for_triangulation": true}
{"run_id": "SIM_TEST", "kraken_seq": 62, "telemetry_seq": 106, "t_rx_ms": 1776414833176, "dt_ms": -44, "doa_deg": 21.0, "confidence_0_1": 0.6094998316913027, "lat_deg": 34.006897837082704, "lon_deg": -117.99530133984227, "altitude_rel_ft": 58.4887, "yaw_deg": 185.7684, "pitch_deg": -0.9857, "roll_deg": 9.9876, "ground_speed_ft_s": 17.8213, "vel_north_m_s": -9.0685, "vel_east_m_s": 0.3592, "vel_down_m_s": 0.6481, "usable_for_triangulation": true}
{"run_id": "SIM_TEST", "kraken_seq": 63, "telemetry_seq": 107, "t_rx_ms": 1776414833277, "dt_ms": -45, "doa_deg": 168.0, "confidence_0_1": 0.1291319264109685, "lat_deg": 34.00600495318252, "lon_deg": -117.99755311441893, "altitude_rel_ft": 53.1162, "yaw_deg": 36.8591, "pitch_deg": 0.1394, "roll_deg": -1.2808, "ground_speed_ft_s": 16.152, "vel_north_m_s": -6.4001, "vel_east_m_s": 0.3296, "vel_down_m_s": -0.0081, "usable_for_triangulation": false}
{"run_id": "SIM_TEST", "kraken_seq": 64, "telemetry_seq": 108, "t_rx_ms": 1776414833377, "dt_ms": -44, "doa_deg": 9.0, "confidence_0_1": 0.4502935919185559, "lat_deg": 34.003807148059536, "lon_deg": -117.99905259456169, "altitude_rel_ft": 32.093, "yaw_deg": 33.9248, "pitch_deg": 4.2098, "roll_deg": -6.5589, "ground_speed_ft_s": 36.1506, "vel_north_m_s": -9.584, "vel_east_m_s": 3.1383, "vel_down_m_s": 0.8833, "usable_for_triangulation": true}
{"run_id": "SIM_TEST", "kraken_seq": 65, "telemetry_seq": 109, "t_rx_ms": 1776414833478, "dt_ms": -45, "doa_deg": 5.0, "confidence_0_1": 0.1882389528648417, "lat_deg": 33.99680845851732, "lon_deg": -118.00520328423673, "altitude_rel_ft": 45.2703, "yaw_deg": 209.1805, "pitch_deg": -5.4503, "roll_deg": 7.089, "ground_speed_ft_s": 20.0548, "vel_north_m_s": -2.3039, "vel_east_m_s": -9.1862, "vel_down_m_s": 0.0807, "usable_for_triangulation": false}
{"run_id": "SIM_TEST", "kraken_seq": 66, "telemetry_seq": 110, "t_rx_ms": 1776414833578, "dt_ms": -44, "doa_deg": 283.0, "confidence_0_1": 0.4417703296328216, "lat_deg": 33.99637786342365, "lon_deg": -117.99576353037342, "altitude_rel_ft": 95.6271, "yaw_deg": 83.6114, "pitch_deg": 3.9256, "roll_deg": 12.4254, "ground_speed_ft_s": 46.2848, "vel_north_m_s": -8.0284, "vel_east_m_s": 4.3674, "vel_down_m_s": 0.8615, "usable_for_triangulation": true}
{"run_id": "SIM_TEST", "kraken_seq": 67, "telemetry_seq": 111, "t_rx_ms": 1776414833679, "dt_ms": -44, "doa_deg": 123.0, "confidence_0_1": 0.34466572558603303, "lat_deg": 33.99407015978481, "lon_deg": -117.99833698861099, "altitude_rel_ft": 48.1487, "yaw_deg": 170.0663, "pitch_deg": 6.7257, "roll_deg": 9.8476, "ground_speed_ft_s": 23.9309, "vel_north_m_s": 4.9482, "vel_east_m_s": 7.71, "vel_down_m_s": -0.353, "usable_for_triangulation": true}
{"run_id": "SIM_TEST", "kraken_seq": 68, "telemetry_seq": 112, "t_rx_ms": 1776414833780, "dt_ms": -44, "doa_deg": 230.0, "confidence_0_1": 0.5045689401142188, "lat_deg": 33.99155581571196, "lon_deg": -118.0044644468016, "altitude_rel_ft": 32.6573, "yaw_deg": 351.2703, "pitch_deg": -3.7597, "roll_deg": -3.7763, "ground_speed_ft_s": 52.4425, "vel_north_m_s": -0.8274, "vel_east_m_s": -6.4106, "vel_down_m_s": 0.2666, "usable_for_triangulation": true}
{"run_id": "SIM_TEST", "kraken_seq": 69, "telemetry_seq": 113, "t_rx_ms": 1776414833880, "dt_ms": -44, "doa_deg": 321.0, "confidence_0_1": 0.2438601664431881, "lat_deg": 34.0048172779452, "lon_deg": -117.99823466553988, "altitude_rel_ft": 27.081, "yaw_deg": 63.1099, "pitch_deg": -5.0745, "roll_deg": -12.0772, "ground_speed_ft_s": 45.2026, "vel_north_m_s": 2.3476, "vel_east_m_s": -3.8532, "vel_down_m_s": 0.2556, "usable_for_triangulation": false}
{"run_id": "SIM_TEST", "kraken_seq": 70, "telemetry_seq": 114, "t_rx_ms": 1776414833981, "dt_ms": -44, "doa_deg": 317.0, "confidence_0_1": 0.20110935363232985, "lat_deg": 34.00360139823898, "lon_deg": -117.9920683946003, "altitude_rel_ft": 45.8224, "yaw_deg": 214.7402, "pitch_deg": 8.3417, "roll_deg": 6.0689, "ground_speed_ft_s": 12.9586, "vel_north_m_s": -8.4043, "vel_east_m_s": 9.6992, "vel_down_m_s": -0.2187, "usable_for_triangulation": false}
{"run_id": "SIM_TEST", "kraken_seq": 71, "telemetry_seq": 115, "t_rx_ms": 1776414834081, "dt_ms": -44, "doa_deg": 79.0, "confidence_0_1": 0.5613682259084046, "lat_deg": 33.996397614434315, "lon_deg": -118.00770819487458, "altitude_rel_ft": 53.4889, "yaw_deg": 292.4145, "pitch_deg": 4.6391, "roll_deg": -7.7747, "ground_speed_ft_s": 24.6023, "vel_north_m_s": -2.7487, "vel_east_m_s": 2.167, "vel_down_m_s": -0.3343, "usable_for_triangulation": true}
{"run_id": "SIM_TEST", "kraken_seq": 72, "telemetry_seq": 116, "t_rx_ms": 1776414834182, "dt_ms": -44, "doa_deg": 162.0, "confidence_0_1": 0.22881579466440882, "lat_deg": 33.99330743516326, "lon_deg": -117.99678575716537, "altitude_rel_ft": 41.887, "yaw_deg": 278.358, "pitch_deg": -9.5898, "roll_deg": 9.9982, "ground_speed_ft_s": 9.7544, "vel_north_m_s": 5.9146, "vel_east_m_s": 0.5817, "vel_down_m_s": 0.5064, "usable_for_triangulation": false}
{"run_id": "SIM_TEST", "kraken_seq": 73, "telemetry_seq": 117, "t_rx_ms": 1776414834282, "dt_ms": -44, "doa_deg": 59.0, "confidence_0_1": 0.7785826288266294, "lat_deg": 34.00503642098068, "lon_deg": -118.00236197439145, "altitude_rel_ft": 30.4589, "yaw_deg": 17.6734, "pitch_deg": 9.4092, "roll_deg": 14.2242, "ground_speed_ft_s": 24.704, "vel_north_m_s": 6.2487, "vel_east_m_s": -8.3813, "vel_down_m_s": -0.1776, "usable_for_triangulation": true}
{"run_id": "SIM_TEST", "kraken_seq": 74, "telemetry_seq": 118, "t_rx_ms": 1776414834383, "dt_ms": -44, "doa_deg": 11.0, "confidence_0_1": 0.9706615799251455, "lat_deg": 34.00926117621146, "lon_deg": -118.0019284374329, "altitude_rel_ft": 32.599, "yaw_deg": 207.0891, "pitch_deg": -9.8074, "roll_deg": 14.0347, "ground_speed_ft_s": 36.9275, "vel_north_m_s": 8.8035, "vel_east_m_s": -5.3325, "vel_down_m_s": -0.873, "usable_for_triangulation": true}
{"run_id": "SIM_TEST", "kraken_seq": 75, "telemetry_seq": 119, "t_rx_ms": 1776414834483, "dt_ms": -44, "doa_deg": 346.0, "confidence_0_1": 0.9465419830824069, "lat_deg": 33.99558907030277, "lon_deg": -118.00528013925297, "altitude_rel_ft": 26.6331, "yaw_deg": 268.5031, "pitch_deg": -7.0547, "roll_deg": 7.1229, "ground_speed_ft_s": 34.4314, "vel_north_m_s": 4.9579, "vel_east_m_s": 1.7912, "vel_down_m_s": -0.9745, "usable_for_triangulation": true}
{"run_id": "SIM_TEST", "kraken_seq": 76, "telemetry_seq": 120, "t_rx_ms": 1776414834584, "dt_ms": -44, "doa_deg": 218.0, "confidence_0_1": 0.9779005227710914, "lat_deg": 34.004852033369964, "lon_deg": -118.00989473445895, "altitude_rel_ft": 66.5429, "yaw_deg": 161.9079, "pitch_deg": 9.6008, "roll_deg": -0.2666, "ground_speed_ft_s": 29.3535, "vel_north_m_s": -0.0503, "vel_east_m_s": -1.8896, "vel_down_m_s": 0.3801, "usable_for_triangulation": true}
{"run_id": "SIM_TEST", "kraken_seq": 77, "telemetry_seq": 121, "t_rx_ms": 1776414834684, "dt_ms": -44, "doa_deg": 93.0, "confidence_0_1": 0.08610154912680112, "lat_deg": 34.00669681684048, "lon_deg": -118.00147951886929, "altitude_rel_ft": 83.709, "yaw_deg": 182.8137, "pitch_deg": 9.089, "roll_deg": 14.4524, "ground_speed_ft_s": 17.8419, "vel_north_m_s": 2.4368, "vel_east_m_s": 9.0029, "vel_down_m_s": -0.1691, "usable_for_triangulation": false}
{"run_id": "SIM_TEST", "kraken_seq": 78, "telemetry_seq": 122, "t_rx_ms": 1776414834785, "dt_ms": -44, "doa_deg": 321.0, "confidence_0_1": 0.35109795707088587, "lat_deg": 33.995841495148476, "lon_deg": -117.99930057889648, "altitude_rel_ft": 55.286, "yaw_deg": 107.9489, "pitch_deg": -5.1446, "roll_deg": -12.071, "ground_speed_ft_s": 9.4382, "vel_north_m_s": -0.346, "vel_east_m_s": 0.0304, "vel_down_m_s": -0.8965, "usable_for_triangulation": true}
{"run_id": "SIM_TEST", "kraken_seq": 79, "telemetry_seq": 123, "t_rx_ms": 1776414834885, "dt_ms": -44, "doa_deg": 17.0, "confidence_0_1": 0.32373336104227635, "lat_deg": 33.99258522259143, "lon_deg": -117.99641579102263, "altitude_rel_ft": 43.5626, "yaw_deg": 288.8737, "pitch_deg": -4.2798, "roll_deg": -2.5253, "ground_speed_ft_s": 5.8553, "vel_north_m_s": 7.3365, "vel_east_m_s": -3.5377, "vel_down_m_s": -0.3254, "usable_for_triangulation": true}
{"run_id": "SIM_TEST", "kraken_seq": 80, "telemetry_seq": 124, "t_rx_ms": 1776414834986, "dt_ms": -44, "doa_deg": 250.0, "confidence_0_1": 0.06838170012248612, "lat_deg": 34.00145627754171, "lon_deg": -118.00888622439344, "altitude_rel_ft": 42.0355, "yaw_deg": 143.5212, "pitch_deg": -8.9376, "roll_deg": -11.7407, "ground_speed_ft_s": 38.0137, "vel_north_m_s": -4.8088, "vel_east_m_s": 6.4066, "vel_down_m_s": -0.9673, "usable_for_triangulation": false}
{"run_id": "SIM_TEST", "kraken_seq": 81, "telemetry_seq": 125, "t_rx_ms": 1776414835086, "dt_ms": -44, "doa_deg": 290.0, "confidence_0_1": 0.8453705444098844, "lat_deg": 33.99980121349577, "lon_deg": -117.99936933163077, "altitude_rel_ft": 56.8941, "yaw_deg": 41.2176, "pitch_deg": -7.9785, "roll_deg": 6.7789, "ground_speed_ft_s": 12.0788, "vel_north_m_s": 4.9217, "vel_east_m_s": -9.0013, "vel_down_m_s": 0.2002, "usable_for_triangulation": true}
{"run_id": "SIM_TEST", "kraken_seq": 82, "telemetry_seq": 126, "t_rx_ms": 1776414835187, "dt_ms": -44, "doa_deg": 36.0, "confidence_0_1": 0.6714503710361884, "lat_deg": 34.00633266053845, "lon_deg": -117.99899326750845, "altitude_rel_ft": 99.0415, "yaw_deg": 230.8085, "pitch_deg": 0.6491, "roll_deg": 9.3158, "ground_speed_ft_s": 19.7336, "vel_north_m_s": -0.9238, "vel_east_m_s": 7.2093, "vel_down_m_s": -0.5049, "usable_for_triangulation": true}
{"run_id": "SIM_TEST", "kraken_seq": 83, "telemetry_seq": 127, "t_rx_ms": 1776414835287, "dt_ms": -43, "doa_deg": 237.0, "confidence_0_1": 0.955827561916149, "lat_deg": 34.009870790116764, "lon_deg": -117.9950603706926, "altitude_rel_ft": 51.2584, "yaw_deg": 80.571, "pitch_deg": 1.337, "roll_deg": 11.0911, "ground_speed_ft_s": 12.5375, "vel_north_m_s": 7.9867, "vel_east_m_s": 0.9968, "vel_down_m_s": -0.9033, "usable_for_triangulation": true}
{"run_id": "SIM_TEST", "kraken_seq": 84, "telemetry_seq": 128, "t_rx_ms": 1776414835388, "dt_ms": -44, "doa_deg": 341.0, "confidence_0_1": 0.6884559790101682, "lat_deg": 34.001434068697435, "lon_deg": -117.99121327638979, "altitude_rel_ft": 37.9447, "yaw_deg": 11.6522, "pitch_deg": -0.3272, "roll_deg": 6.7475, "ground_speed_ft_s": 40.2321, "vel_north_m_s": -1.7477, "vel_east_m_s": -5.327, "vel_down_m_s": 0.3294, "usable_for_triangulation": true}
{"run_id": "SIM_TEST", "kraken_seq": 85, "telemetry_seq": 129, "t_rx_ms": 1776414835488, "dt_ms": -43, "doa_deg": 114.0, "confidence_0_1": 0.7340883469165083, "lat_deg": 34.00008439077917, "lon_deg": -117.99464868416422, "altitude_rel_ft": 34.4539, "yaw_deg": 162.9332, "pitch_deg": -0.1393, "roll_deg": -9.7209, "ground_speed_ft_s": 59.4627, "vel_north_m_s": 8.6196, "vel_east_m_s": -3.6171, "vel_down_m_s": -0.7895, "usable_for_triangulation": true}
{"run_id": "SIM_TEST", "kraken_seq": 86, "telemetry_seq": 130, "t_rx_ms": 1776414835589, "dt_ms": -44, "doa_deg": 348.0, "confidence_0_1": 0.7708129391206863, "lat_deg": 34.004276145852295, "lon_deg": -118.00990570100076, "altitude_rel_ft": 43.6594, "yaw_deg": 108.1817, "pitch_deg": 8.6772, "roll_deg": -10.3278, "ground_speed_ft_s": 56.5145, "vel_north_m_s": 0.0419, "vel_east_m_s": 7.0819, "vel_down_m_s": 0.3725, "usable_for_triangulation": true}
{"run_id": "SIM_TEST", "kraken_seq": 87, "telemetry_seq": 131, "t_rx_ms": 1776414835689, "dt_ms": -43, "doa_deg": 100.0, "confidence_0_1": 0.1410715012522944, "lat_deg": 34.00954414112111, "lon_deg": -118.00390875837562, "altitude_rel_ft": 96.4179, "yaw_deg": 278.902, "pitch_deg": 1.6524, "roll_deg": -8.6046, "ground_speed_ft_s": 7.0605, "vel_north_m_s": 1.3194, "vel_east_m_s": -6.6488, "vel_down_m_s": -0.2618, "usable_for_triangulation": false}
{"run_id": "SIM_TEST", "kraken_seq": 88, "telemetry_seq": 132, "t_rx_ms": 1776414835789, "dt_ms": -42, "doa_deg": 346.0, "confidence_0_1": 0.8161897806579655, "lat_deg": 34.00094804779276, "lon_deg": -117.99984997840879, "altitude_rel_ft": 44.877, "yaw_deg": 160.6496, "pitch_deg": 0.1847, "roll_deg": 12.2541, "ground_speed_ft_s": 6.8, "vel_north_m_s": 4.5894, "vel_east_m_s": -2.6829, "vel_down_m_s": -0.7783, "usable_for_triangulation": true}
{"run_id": "SIM_TEST", "kraken_seq": 89, "telemetry_seq": 133, "t_rx_ms": 1776414835890, "dt_ms": -43, "doa_deg": 188.0, "confidence_0_1": 0.9498686648198384, "lat_deg": 34.000740360937, "lon_deg": -118.00245562970532, "altitude_rel_ft": 54.1289, "yaw_deg": 284.8758, "pitch_deg": 6.223, "roll_deg": 8.6638, "ground_speed_ft_s": 24.2958, "vel_north_m_s": -6.7312, "vel_east_m_s": -9.67, "vel_down_m_s": 0.1106, "usable_for_triangulation": true}
{"run_id": "SIM_TEST", "kraken_seq": 90, "telemetry_seq": 134, "t_rx_ms": 1776414835990, "dt_ms": -42, "doa_deg": 235.0, "confidence_0_1": 0.018802818517545505, "lat_deg": 33.99746754476413, "lon_deg": -118.00712279226501, "altitude_rel_ft": 64.4107, "yaw_deg": 138.6493, "pitch_deg": -8.3811, "roll_deg": -7.6877, "ground_speed_ft_s": 38.0718, "vel_north_m_s": 4.7587, "vel_east_m_s": 6.4676, "vel_down_m_s": -0.8119, "usable_for_triangulation": false}
{"run_id": "SIM_TEST", "kraken_seq": 91, "telemetry_seq": 135, "t_rx_ms": 1776414836091, "dt_ms": -43, "doa_deg": 33.0, "confidence_0_1": 0.34687373582428427, "lat_deg": 34.001156456729376, "lon_deg": -118.00815044795884, "altitude_rel_ft": 66.8319, "yaw_deg": 335.1668, "pitch_deg": 0.9113, "roll_deg": 1.3091, "ground_speed_ft_s": 10.6516, "vel_north_m_s": 1.6099, "vel_east_m_s": -0.4201, "vel_down_m_s": -0.4895, "usable_for_triangulation": true}
{"run_id": "SIM_TEST", "kraken_seq": 92, "telemetry_seq": 136, "t_rx_ms": 1776414836191, "dt_ms": -42, "doa_deg": 125.0, "confidence_0_1": 0.4624391310787579, "lat_deg": 33.9992588489155, "lon_deg": -117.99533754410906, "altitude_rel_ft": 83.7591, "yaw_deg": 104.6932, "pitch_deg": -0.9985, "roll_deg": -12.4613, "ground_speed_ft_s": 36.9546, "vel_north_m_s": 5.6362, "vel_east_m_s": -1.4917, "vel_down_m_s": 0.8313, "usable_for_triangulation": true}
{"run_id": "SIM_TEST", "kraken_seq": 93, "telemetry_seq": 137, "t_rx_ms": 1776414836292, "dt_ms": -43, "doa_deg": 158.0, "confidence_0_1": 0.28598497646678733, "lat_deg": 34.00683812645688, "lon_deg": -117.99976625479414, "altitude_rel_ft": 64.026, "yaw_deg": 169.6433, "pitch_deg": 8.9115, "roll_deg": -3.3837, "ground_speed_ft_s": 48.242, "vel_north_m_s": -1.1044, "vel_east_m_s": -0.8151, "vel_down_m_s": 0.9959, "usable_for_triangulation": false}
{"run_id": "SIM_TEST", "kraken_seq": 94, "telemetry_seq": 138, "t_rx_ms": 1776414836392, "dt_ms": -43, "doa_deg": 73.0, "confidence_0_1": 0.9515381568245612, "lat_deg": 33.99082573572488, "lon_deg": -118.00986780450071, "altitude_rel_ft": 31.3671, "yaw_deg": 112.4787, "pitch_deg": -0.2108, "roll_deg": 11.5064, "ground_speed_ft_s": 49.6026, "vel_north_m_s": -5.2038, "vel_east_m_s": -5.6646, "vel_down_m_s": -0.9815, "usable_for_triangulation": true}
{"run_id": "SIM_TEST", "kraken_seq": 95, "telemetry_seq": 139, "t_rx_ms": 1776414836492, "dt_ms": -42, "doa_deg": 119.0, "confidence_0_1": 0.9855244157039222, "lat_deg": 34.00701825545005, "lon_deg": -118.00512668307702, "altitude_rel_ft": 25.4082, "yaw_deg": 26.8586, "pitch_deg": -1.8419, "roll_deg": 3.8753, "ground_speed_ft_s": 6.2174, "vel_north_m_s": 2.6477, "vel_east_m_s": -9.4788, "vel_down_m_s": 0.9457, "usable_for_triangulation": true}
{"run_id": "SIM_TEST", "kraken_seq": 96, "telemetry_seq": 140, "t_rx_ms": 1776414836593, "dt_ms": -43, "doa_deg": 33.0, "confidence_0_1": 0.9847039954684794, "lat_deg": 33.991474462560895, "lon_deg": -117.99457479585519, "altitude_rel_ft": 20.9235, "yaw_deg": 243.4072, "pitch_deg": -3.8482, "roll_deg": 3.8885, "ground_speed_ft_s": 22.7729, "vel_north_m_s": 5.3277, "vel_east_m_s": 4.9312, "vel_down_m_s": -0.0655, "usable_for_triangulation": true}
{"run_id": "SIM_TEST", "kraken_seq": 97, "telemetry_seq": 141, "t_rx_ms": 1776414836693, "dt_ms": -42, "doa_deg": 345.0, "confidence_0_1": 0.7754184980484311, "lat_deg": 33.99593649028671, "lon_deg": -118.00856541378234, "altitude_rel_ft": 38.0346, "yaw_deg": 335.9213, "pitch_deg": 3.0874, "roll_deg": 6.5125, "ground_speed_ft_s": 17.3626, "vel_north_m_s": -2.9445, "vel_east_m_s": -5.8676, "vel_down_m_s": 0.1639, "usable_for_triangulation": true}
{"run_id": "SIM_TEST", "kraken_seq": 98, "telemetry_seq": 142, "t_rx_ms": 1776414836794, "dt_ms": -42, "doa_deg": 90.0, "confidence_0_1": 0.8215585745795909, "lat_deg": 33.99372434383541, "lon_deg": -118.00254012058356, "altitude_rel_ft": 38.0863, "yaw_deg": 22.5762, "pitch_deg": 9.9691, "roll_deg": -6.8856, "ground_speed_ft_s": 31.1444, "vel_north_m_s": 5.989, "vel_east_m_s": -9.6984, "vel_down_m_s": -0.3319, "usable_for_triangulation": true}
{"run_id": "SIM_TEST", "kraken_seq": 99, "telemetry_seq": 143, "t_rx_ms": 1776414836894, "dt_ms": -41, "doa_deg": 256.0, "confidence_0_1": 0.0882836117675625, "lat_deg": 34.00538744096037, "lon_deg": -118.00962026924566, "altitude_rel_ft": 70.2522, "yaw_deg": 305.0874, "pitch_deg": -9.5765, "roll_deg": 8.4016, "ground_speed_ft_s": 58.8897, "vel_north_m_s": -0.9278, "vel_east_m_s": -7.3746, "vel_down_m_s": -0.8691, "usable_for_triangulation": false}
{"run_id": "SIM_TEST", "kraken_seq": 100, "telemetry_seq": 144, "t_rx_ms": 1776414836994, "dt_ms": -41, "doa_deg": 99.0, "confidence_0_1": 0.524492885462125, "lat_deg": 33.997268927176165, "lon_deg": -117.99869931211992, "altitude_rel_ft": 59.7227, "yaw_deg": 28.6967, "pitch_deg": 3.7726, "roll_deg": 8.4751, "ground_speed_ft_s": 10.7457, "vel_north_m_s": -5.2009, "vel_east_m_s": -4.6001, "vel_down_m_s": 0.6943, "usable_for_triangulation": true}
{"run_id": "SIM_TEST", "kraken_seq": 101, "telemetry_seq": 145, "t_rx_ms": 1776414837095, "dt_ms": -41, "doa_deg": 326.0, "confidence_0_1": 0.24213372748021988, "lat_deg": 34.00139774794919, "lon_deg": -117.99443834329809, "altitude_rel_ft": 83.9933, "yaw_deg": 113.2864, "pitch_deg": 9.9099, "roll_deg": 14.3668, "ground_speed_ft_s": 56.9709, "vel_north_m_s": 5.1715, "vel_east_m_s": 6.8172, "vel_down_m_s": -0.4439, "usable_for_triangulation": false}
{"run_id": "SIM_TEST", "kraken_seq": 102, "telemetry_seq": 146, "t_rx_ms": 1776414837195, "dt_ms": -41, "doa_deg": 236.0, "confidence_0_1": 0.3039439476630169, "lat_deg": 34.00891361383028, "lon_deg": -117.99468623195884, "altitude_rel_ft": 28.307, "yaw_deg": 146.2049, "pitch_deg": 6.0922, "roll_deg": -2.5788, "ground_speed_ft_s": 59.2954, "vel_north_m_s": -5.9732, "vel_east_m_s": -8.3733, "vel_down_m_s": -0.916, "usable_for_triangulation": true}
{"run_id": "SIM_TEST", "kraken_seq": 103, "telemetry_seq": 147, "t_rx_ms": 1776414837296, "dt_ms": -41, "doa_deg": 68.0, "confidence_0_1": 0.3718079087026023, "lat_deg": 33.997808817950904, "lon_deg": -118.00578667463871, "altitude_rel_ft": 99.4705, "yaw_deg": 159.9533, "pitch_deg": -3.611, "roll_deg": -4.8678, "ground_speed_ft_s": 42.7608, "vel_north_m_s": -0.7386, "vel_east_m_s": -2.3632, "vel_down_m_s": -0.5146, "usable_for_triangulation": true}
{"run_id": "SIM_TEST", "kraken_seq": 104, "telemetry_seq": 148, "t_rx_ms": 1776414837397, "dt_ms": -41, "doa_deg": 193.0, "confidence_0_1": 0.3667701534275354, "lat_deg": 34.00011160203947, "lon_deg": -117.99312031334551, "altitude_rel_ft": 89.0375, "yaw_deg": 240.2035, "pitch_deg": -4.8466, "roll_deg": -13.8671, "ground_speed_ft_s": 24.3951, "vel_north_m_s": 0.7601, "vel_east_m_s": 8.3617, "vel_down_m_s": -0.075, "usable_for_triangulation": true}
{"run_id": "SIM_TEST", "kraken_seq": 105, "telemetry_seq": 149, "t_rx_ms": 1776414837497, "dt_ms": -41, "doa_deg": 337.0, "confidence_0_1": 0.42199479399449025, "lat_deg": 34.00849691591143, "lon_deg": -117.99398336671476, "altitude_rel_ft": 83.1907, "yaw_deg": 50.3365, "pitch_deg": 1.0946, "roll_deg": -11.5392, "ground_speed_ft_s": 35.3372, "vel_north_m_s": 5.4552, "vel_east_m_s": 1.6654, "vel_down_m_s": 0.6467, "usable_for_triangulation": true}
{"run_id": "SIM_TEST", "kraken_seq": 106, "telemetry_seq": 150, "t_rx_ms": 1776414837598, "dt_ms": -41, "doa_deg": 7.0, "confidence_0_1": 0.8360085662923323, "lat_deg": 34.00922708120817, "lon_deg": -117.99906830507953, "altitude_rel_ft": 93.7764, "yaw_deg": 165.3705, "pitch_deg": 5.1966, "roll_deg": 4.6347, "ground_speed_ft_s": 26.4589, "vel_north_m_s": -1.4025, "vel_east_m_s": 1.4498, "vel_down_m_s": 0.9424, "usable_for_triangulation": true}
{"run_id": "SIM_TEST", "kraken_seq": 107, "telemetry_seq": 151, "t_rx_ms": 1776414837698, "dt_ms": -40, "doa_deg": 232.0, "confidence_0_1": 0.6972916034961197, "lat_deg": 34.0094054203712, "lon_deg": -117.99819701862452, "altitude_rel_ft": 29.5844, "yaw_deg": 73.566, "pitch_deg": -4.8592, "roll_deg": -1.9234, "ground_speed_ft_s": 58.0951, "vel_north_m_s": -2.5161, "vel_east_m_s": -4.5112, "vel_down_m_s": -0.5703, "usable_for_triangulation": true}
{"run_id": "SIM_TEST", "kraken_seq": 108, "telemetry_seq": 152, "t_rx_ms": 1776414837798, "dt_ms": -40, "doa_deg": 112.0, "confidence_0_1": 0.8966033252338037, "lat_deg": 34.00693064649461, "lon_deg": -118.00449138655961, "altitude_rel_ft": 72.3491, "yaw_deg": 74.0286, "pitch_deg": -0.5552, "roll_deg": -7.3499, "ground_speed_ft_s": 10.3334, "vel_north_m_s": 5.127, "vel_east_m_s": 9.8648, "vel_down_m_s": -0.6353, "usable_for_triangulation": true}
{"run_id": "SIM_TEST", "kraken_seq": 109, "telemetry_seq": 153, "t_rx_ms": 1776414837899, "dt_ms": -40, "doa_deg": 93.0, "confidence_0_1": 0.6114855032766813, "lat_deg": 34.00718834229933, "lon_deg": -118.00149140987314, "altitude_rel_ft": 42.8315, "yaw_deg": 231.7914, "pitch_deg": 8.9501, "roll_deg": 14.9478, "ground_speed_ft_s": 47.4957, "vel_north_m_s": 0.7335, "vel_east_m_s": -7.6196, "vel_down_m_s": 0.5867, "usable_for_triangulation": true}
{"run_id": "SIM_TEST", "kraken_seq": 110, "telemetry_seq": 154, "t_rx_ms": 1776414837999, "dt_ms": -39, "doa_deg": 185.0, "confidence_0_1": 0.35177214148931, "lat_deg": 34.003411892084735, "lon_deg": -117.99252468173788, "altitude_rel_ft": 70.4345, "yaw_deg": 168.3582, "pitch_deg": -8.6305, "roll_deg": 4.2239, "ground_speed_ft_s": 17.6415, "vel_north_m_s": -8.5641, "vel_east_m_s": -6.6516, "vel_down_m_s": -0.3909, "usable_for_triangulation": true}
{"run_id": "SIM_TEST", "kraken_seq": 111, "telemetry_seq": 155, "t_rx_ms": 1776414838100, "dt_ms": -40, "doa_deg": 180.0, "confidence_0_1": 0.32194398892391085, "lat_deg": 34.00592866729421, "lon_deg": -118.00594629775786, "altitude_rel_ft": 47.9508, "yaw_deg": 143.4779, "pitch_deg": -7.4132, "roll_deg": 2.9429, "ground_speed_ft_s": 35.1428, "vel_north_m_s": -9.9012, "vel_east_m_s": -6.524, "vel_down_m_s": -0.249, "usable_for_triangulation": true}
{"run_id": "SIM_TEST", "kraken_seq": 112, "telemetry_seq": 156, "t_rx_ms": 1776414838201, "dt_ms": -40, "doa_deg": 226.0, "confidence_0_1": 0.32503130372107714, "lat_deg": 33.99985995166323, "lon_deg": -117.99987461103635, "altitude_rel_ft": 89.3323, "yaw_deg": 238.6504, "pitch_deg": -2.3666, "roll_deg": -10.3802, "ground_speed_ft_s": 35.3358, "vel_north_m_s": -9.7328, "vel_east_m_s": -3.4428, "vel_down_m_s": 0.2488, "usable_for_triangulation": true}
{"run_id": "SIM_TEST", "kraken_seq": 113, "telemetry_seq": 157, "t_rx_ms": 1776414838301, "dt_ms": -39, "doa_deg": 115.0, "confidence_0_1": 0.2377003231330167, "lat_deg": 34.003212001339485, "lon_deg": -118.00273342718434, "altitude_rel_ft": 58.0364, "yaw_deg": 287.7043, "pitch_deg": -7.8363, "roll_deg": -13.9672, "ground_speed_ft_s": 33.1876, "vel_north_m_s": -3.3148, "vel_east_m_s": -4.8115, "vel_down_m_s": 0.4094, "usable_for_triangulation": false}
{"run_id": "SIM_TEST", "kraken_seq": 114, "telemetry_seq": 158, "t_rx_ms": 1776414838401, "dt_ms": -39, "doa_deg": 215.0, "confidence_0_1": 0.9538450346623896, "lat_deg": 33.99777832007769, "lon_deg": -117.99768417530021, "altitude_rel_ft": 43.8879, "yaw_deg": 338.2685, "pitch_deg": 3.1526, "roll_deg": -11.5385, "ground_speed_ft_s": 30.1458, "vel_north_m_s": 7.1351, "vel_east_m_s": 3.6107, "vel_down_m_s": -0.1887, "usable_for_triangulation": true}
{"run_id": "SIM_TEST", "kraken_seq": 115, "telemetry_seq": 159, "t_rx_ms": 1776414838502, "dt_ms": -39, "doa_deg": 244.0, "confidence_0_1": 0.05327801377573882, "lat_deg": 34.00617073100887, "lon_deg": -118.00758363530636, "altitude_rel_ft": 41.2176, "yaw_deg": 161.9883, "pitch_deg": 9.0785, "roll_deg": -13.3815, "ground_speed_ft_s": 20.7207, "vel_north_m_s": -1.8509, "vel_east_m_s": -2.7547, "vel_down_m_s": 0.0426, "usable_for_triangulation": false}
{"run_id": "SIM_TEST", "kraken_seq": 116, "telemetry_seq": 160, "t_rx_ms": 1776414838603, "dt_ms": -40, "doa_deg": 27.0, "confidence_0_1": 0.1689592101158881, "lat_deg": 34.00461690140875, "lon_deg": -118.00943278492826, "altitude_rel_ft": 28.873, "yaw_deg": 136.1065, "pitch_deg": 7.2324, "roll_deg": 13.9975, "ground_speed_ft_s": 35.5969, "vel_north_m_s": -1.5926, "vel_east_m_s": 4.87, "vel_down_m_s": 0.7273, "usable_for_triangulation": false}
{"run_id": "SIM_TEST", "kraken_seq": 117, "telemetry_seq": 161, "t_rx_ms": 1776414838703, "dt_ms": -39, "doa_deg": 332.0, "confidence_0_1": 0.8153173875658822, "lat_deg": 34.002614974526935, "lon_deg": -117.99467961516922, "altitude_rel_ft": 98.6519, "yaw_deg": 107.7707, "pitch_deg": 5.7333, "roll_deg": 13.708, "ground_speed_ft_s": 29.5769, "vel_north_m_s": 7.8162, "vel_east_m_s": 0.7809, "vel_down_m_s": 0.1903, "usable_for_triangulation": true}
{"run_id": "SIM_TEST", "kraken_seq": 118, "telemetry_seq": 162, "t_rx_ms": 1776414838803, "dt_ms": -38, "doa_deg": 229.0, "confidence_0_1": 0.9749549303736709, "lat_deg": 33.99247260594457, "lon_deg": -117.9947135210684, "altitude_rel_ft": 76.8239, "yaw_deg": 230.4899, "pitch_deg": -1.2749, "roll_deg": -5.5969, "ground_speed_ft_s": 22.3077, "vel_north_m_s": 9.1297, "vel_east_m_s": 6.5993, "vel_down_m_s": 0.8081, "usable_for_triangulation": true}
{"run_id": "SIM_TEST", "kraken_seq": 119, "telemetry_seq": 163, "t_rx_ms": 1776414838904, "dt_ms": -39, "doa_deg": 150.0, "confidence_0_1": 0.9412768899983577, "lat_deg": 33.997567485877454, "lon_deg": -118.00901135337612, "altitude_rel_ft": 50.0062, "yaw_deg": 289.7119, "pitch_deg": -8.2233, "roll_deg": 11.148, "ground_speed_ft_s": 18.1465, "vel_north_m_s": -7.5803, "vel_east_m_s": -3.7973, "vel_down_m_s": 0.7971, "usable_for_triangulation": true}
{"run_id": "SIM_TEST", "kraken_seq": 120, "telemetry_seq": 164, "t_rx_ms": 1776414839004, "dt_ms": -38, "doa_deg": 263.0, "confidence_0_1": 0.916904974025615, "lat_deg": 33.9997065851519, "lon_deg": -117.99794676519544, "altitude_rel_ft": 81.9648, "yaw_deg": 329.9495, "pitch_deg": -7.4429, "roll_deg": 8.8213, "ground_speed_ft_s": 57.4322, "vel_north_m_s": -6.587, "vel_east_m_s": 6.2049, "vel_down_m_s": 0.8505, "usable_for_triangulation": true}
{"run_id": "SIM_TEST", "kraken_seq": 121, "telemetry_seq": 165, "t_rx_ms": 1776414839105, "dt_ms": -38, "doa_deg": 194.0, "confidence_0_1": 0.7140373584691999, "lat_deg": 34.00813821688595, "lon_deg": -117.99282258954874, "altitude_rel_ft": 96.0788, "yaw_deg": 315.3155, "pitch_deg": -4.3404, "roll_deg": 14.8815, "ground_speed_ft_s": 26.0617, "vel_north_m_s": -6.6385, "vel_east_m_s": -5.9073, "vel_down_m_s": 0.4711, "usable_for_triangulation": true}
{"run_id": "SIM_TEST", "kraken_seq": 122, "telemetry_seq": 166, "t_rx_ms": 1776414839206, "dt_ms": -39, "doa_deg": 40.0, "confidence_0_1": 0.5237832300918704, "lat_deg": 33.99706913524199, "lon_deg": -117.99053182279923, "altitude_rel_ft": 72.6418, "yaw_deg": 5.594, "pitch_deg": 8.1411, "roll_deg": -4.8333, "ground_speed_ft_s": 40.1646, "vel_north_m_s": 3.3597, "vel_east_m_s": -1.4458, "vel_down_m_s": -0.4767, "usable_for_triangulation": true}
{"run_id": "SIM_TEST", "kraken_seq": 123, "telemetry_seq": 167, "t_rx_ms": 1776414839306, "dt_ms": -38, "doa_deg": 287.0, "confidence_0_1": 0.6710655154071643, "lat_deg": 34.00180079434169, "lon_deg": -117.99900472823607, "altitude_rel_ft": 83.5123, "yaw_deg": 221.7789, "pitch_deg": 8.147, "roll_deg": -13.1996, "ground_speed_ft_s": 33.5363, "vel_north_m_s": -3.6091, "vel_east_m_s": 9.14, "vel_down_m_s": -0.5635, "usable_for_triangulation": true}
{"run_id": "SIM_TEST", "kraken_seq": 124, "telemetry_seq": 168, "t_rx_ms": 1776414839407, "dt_ms": -38, "doa_deg": 118.0, "confidence_0_1": 0.3303048378607446, "lat_deg": 33.99902863565704, "lon_deg": -117.99963225328477, "altitude_rel_ft": 78.8391, "yaw_deg": 336.4553, "pitch_deg": 5.6076, "roll_deg": -5.5881, "ground_speed_ft_s": 15.9997, "vel_north_m_s": -3.0909, "vel_east_m_s": -3.8614, "vel_down_m_s": -0.3497, "usable_for_triangulation": true}
{"run_id": "SIM_TEST", "kraken_seq": 125, "telemetry_seq": 169, "t_rx_ms": 1776414839508, "dt_ms": -38, "doa_deg": 159.0, "confidence_0_1": 0.47009375704053225, "lat_deg": 34.000900235831715, "lon_deg": -118.00459480730918, "altitude_rel_ft": 79.7732, "yaw_deg": 157.2898, "pitch_deg": 5.9881, "roll_deg": -0.8757, "ground_speed_ft_s": 5.8082, "vel_north_m_s": -8.8393, "vel_east_m_s": -4.3144, "vel_down_m_s": -0.229, "usable_for_triangulation": true}
{"run_id": "SIM_TEST", "kraken_seq": 126, "telemetry_seq": 170, "t_rx_ms": 1776414839608, "dt_ms": -38, "doa_deg": 10.0, "confidence_0_1": 0.44771324738192353, "lat_deg": 33.99186334545264, "lon_deg": -118.00872438912602, "altitude_rel_ft": 69.7795, "yaw_deg": 322.4125, "pitch_deg": 4.1961, "roll_deg": 0.2771, "ground_speed_ft_s": 47.1751, "vel_north_m_s": 2.0548, "vel_east_m_s": 7.2631, "vel_down_m_s": -0.6877, "usable_for_triangulation": true}
{"run_id": "SIM_TEST", "kraken_seq": 127, "telemetry_seq": 171, "t_rx_ms": 1776414839709, "dt_ms": -38, "doa_deg": 111.0, "confidence_0_1": 0.23898534426161533, "lat_deg": 33.999717123158014, "lon_deg": -117.99480532102679, "altitude_rel_ft": 33.8416, "yaw_deg": 135.8647, "pitch_deg": -2.6195, "roll_deg": 9.8712, "ground_speed_ft_s": 46.0271, "vel_north_m_s": -5.7632, "vel_east_m_s": 0.9797, "vel_down_m_s": 0.3735, "usable_for_triangulation": false}
{"run_id": "SIM_TEST", "kraken_seq": 128, "telemetry_seq": 172, "t_rx_ms": 1776414839809, "dt_ms": -38, "doa_deg": 322.0, "confidence_0_1": 0.48944292471281314, "lat_deg": 34.0007264725171, "lon_deg": -117.99296979566854, "altitude_rel_ft": 86.5073, "yaw_deg": 14.1375, "pitch_deg": 6.3756, "roll_deg": -1.5471, "ground_speed_ft_s": 48.263, "vel_north_m_s": 9.3864, "vel_east_m_s": 8.047, "vel_down_m_s": 0.0265, "usable_for_triangulation": true}
{"run_id": "SIM_TEST", "kraken_seq": 129, "telemetry_seq": 173, "t_rx_ms": 1776414839910, "dt_ms": -38, "doa_deg": 79.0, "confidence_0_1": 0.5868499658006338, "lat_deg": 34.00407491696973, "lon_deg": -117.99222660712157, "altitude_rel_ft": 49.1077, "yaw_deg": 309.8872, "pitch_deg": 5.9997, "roll_deg": -11.901, "ground_speed_ft_s": 16.5376, "vel_north_m_s": -3.7661, "vel_east_m_s": -2.4002, "vel_down_m_s": 0.204, "usable_for_triangulation": true}
{"run_id": "SIM_TEST", "kraken_seq": 130, "telemetry_seq": 174, "t_rx_ms": 1776414840011, "dt_ms": -39, "doa_deg": 47.0, "confidence_0_1": 0.14223039566326479, "lat_deg": 34.00956236136365, "lon_deg": -118.00705661874123, "altitude_rel_ft": 81.7441, "yaw_deg": 356.8121, "pitch_deg": -6.447, "roll_deg": -7.7664, "ground_speed_ft_s": 10.5073, "vel_north_m_s": 9.3933, "vel_east_m_s": -1.2656, "vel_down_m_s": 0.9533, "usable_for_triangulation": false}
{"run_id": "SIM_TEST", "kraken_seq": 131, "telemetry_seq": 175, "t_rx_ms": 1776414840111, "dt_ms": -38, "doa_deg": 331.0, "confidence_0_1": 0.04640499787375019, "lat_deg": 33.9911333938262, "lon_deg": -118.00498345327033, "altitude_rel_ft": 47.8052, "yaw_deg": 14.4195, "pitch_deg": 1.7106, "roll_deg": -5.5307, "ground_speed_ft_s": 47.2807, "vel_north_m_s": -4.213, "vel_east_m_s": -7.7265, "vel_down_m_s": -0.4575, "usable_for_triangulation": false}
{"run_id": "SIM_TEST", "kraken_seq": 132, "telemetry_seq": 176, "t_rx_ms": 1776414840211, "dt_ms": -38, "doa_deg": 242.0, "confidence_0_1": 0.6315643311469206, "lat_deg": 34.00458071489067, "lon_deg": -118.00171107388482, "altitude_rel_ft": 40.2202, "yaw_deg": 67.3055, "pitch_deg": 2.4828, "roll_deg": -4.2033, "ground_speed_ft_s": 7.9301, "vel_north_m_s": 5.1175, "vel_east_m_s": 4.6148, "vel_down_m_s": 0.2385, "usable_for_triangulation": true}
