{"run_id": "SIM_TEST", "kraken_seq": 44, "telemetry_seq": 0, "t_rx_ms": 1774580909241, "dt_ms": 245, "doa_deg": 201.0, "confidence_0_1": 0.07355694222267084, "lat_deg": 34.00155251054577, "lon_deg": -118.00437758189628, "altitude_rel_ft": 37.4184, "yaw_deg": 211.3356, "pitch_deg": 0.6567, "roll_deg": -0.4441, "ground_speed_ft_s": 5.8467, "vel_north_m_s": 6.8431, "vel_east_m_s": 3.9615, "vel_down_m_s": -0.9779, "usable_for_triangulation": false}
{"run_id": "SIM_TEST", "kraken_seq": 45, "telemetry_seq": 0, "t_rx_ms": 1774580909345, "dt_ms": 141, "doa_deg": 19.0, "confidence_0_1": 0.8727157988444812, "lat_deg": 34.00155251054577, "lon_deg": -118.00437758189628, "altitude_rel_ft": 37.4184, "yaw_deg": 211.3356, "pitch_deg": 0.6567, "roll_deg": -0.4441, "ground_speed_ft_s": 5.8467, "vel_north_m_s": 6.8431, "vel_east_m_s": 3.9615, "vel_down_m_s": -0.9779, "usable_for_triangulation": true}
{"run_id": "SIM_TEST", "kraken_seq": 46, "telemetry_seq": 0, "t_rx_ms": 1774580909446, "dt_ms": 40, "doa_deg": 130.0, "confidence_0_1": 0.6194493002644016, "lat_deg": 34.00155251054577, "lon_deg": -118.00437758189628, "altitude_rel_ft": 37.4184, "yaw_deg": 211.3356, "pitch_deg": 0.6567, "roll_deg": -0.4441, "ground_speed_ft_s": 5.8467, "vel_north_m_s": 6.8431, "vel_east_m_s": 3.9615, "vel_down_m_s": -0.9779, "usable_for_triangulation": true}
{"run_id": "SIM_TEST", "kraken_seq": 47, "telemetry_seq": 1, "t_rx_ms": 1774580909547, "dt_ms": 39, "doa_deg": 184.0, "confidence_0_1": 0.27440131148470004, "lat_deg": 34.00887738907694, "lon_deg": -117.99447880816567, "altitude_rel_ft": 85.5415, "yaw_deg": 94.7392, "pitch_deg": -2.3707, "roll_deg": 0.6552, "ground_speed_ft_s": 51.1157, "vel_north_m_s": 6.8802, "vel_east_m_s": -7.3176, "vel_down_m_s": 0.5359, "usable_for_triangulation": false}
{"run_id": "SIM_TEST", "kraken_seq": 48, "telemetry_seq": 2, "t_rx_ms": 1774580909648, "dt_ms": 40, "doa_deg": 29.0, "confidence_0_1": 0.7825224775085634, "lat_deg": 33.99052367344919, "lon_deg": -117.99114411922788, "altitude_rel_ft": 84.4832, "yaw_deg": 288.0174, "pitch_deg": 2.9874, "roll_deg": -12.6664, "ground_speed_ft_s": 38.6999, "vel_north_m_s": 3.7835, "vel_east_m_s": 7.1331, "vel_down_m_s": 0.217, "usable_for_triangulation": true}
{"run_id": "SIM_TEST", "kraken_seq": 49, "telemetry_seq": 3, "t_rx_ms": 1774580909749, "dt_ms": 39, "doa_deg": 298.0, "confidence_0_1": 0.46489117873431807, "lat_deg": 33.99850562211383, "lon_deg": -118.00060654207685, "altitude_rel_ft": 67.2785, "yaw_deg": 87.9716, "pitch_deg": 3.3694, "roll_deg": -6.2758, "ground_speed_ft_s": 42.1165, "vel_north_m_s": 5.8452, "vel_east_m_s": 3.9491, "vel_down_m_s": 0.4054, "usable_for_triangulation": false}
{"run_id": "SIM_TEST", "kraken_seq": 50, "telemetry_seq": 4, "t_rx_ms": 1774580909850, "dt_ms": 39, "doa_deg": 150.0, "confidence_0_1": 0.026094881188299057, "lat_deg": 33.994750124034326, "lon_deg": -117.99565343373008, "altitude_rel_ft": 85.9596, "yaw_deg": 78.6568, "pitch_deg": 0.1381, "roll_deg": -10.1493, "ground_speed_ft_s": 35.612, "vel_north_m_s": 4.02, "vel_east_m_s": -6.3388, "vel_down_m_s": 0.9096, "usable_for_triangulation": false}
{"run_id": "SIM_TEST", "kraken_seq": 51, "telemetry_seq": 5, "t_rx_ms": 1774580909951, "dt_ms": 39, "doa_deg": 224.0, "confidence_0_1": 0.3376224812790325, "lat_deg": 33.99002250707568, "lon_deg": -118.00426518002133, "altitude_rel_ft": 86.9974, "yaw_deg": 286.5719, "pitch_deg": -1.3078, "roll_deg": -8.8209, "ground_speed_ft_s": 9.4094, "vel_north_m_s": 9.8379, "vel_east_m_s": -9.6733, "vel_down_m_s": 0.7466, "usable_for_triangulation": false}
{"run_id": "SIM_TEST", "kraken_seq": 52, "telemetry_seq": 6, "t_rx_ms": 1774580910051, "dt_ms": 40, "doa_deg": 358.0, "confidence_0_1": 0.8268988272412474, "lat_deg": 33.995859939209005, "lon_deg": -118.00436543360476, "altitude_rel_ft": 82.7893, "yaw_deg": 160.307, "pitch_deg": -5.1603, "roll_deg": -10.7251, "ground_speed_ft_s": 56.0202, "vel_north_m_s": -2.71, "vel_east_m_s": -3.1841, "vel_down_m_s": -0.1857, "usable_for_triangulation": true}
{"run_id": "SIM_TEST", "kraken_seq": 53, "telemetry_seq": 7, "t_rx_ms": 1774580910152, "dt_ms": 40, "doa_deg": 69.0, "confidence_0_1": 0.1361596710096934, "lat_deg": 33.998681938383534, "lon_deg": -118.00701628892774, "altitude_rel_ft": 44.5362, "yaw_deg": 330.5027, "pitch_deg": -3.1579, "roll_deg": -9.3152, "ground_speed_ft_s": 33.6396, "vel_north_m_s": -4.0316, "vel_east_m_s": 2.6139, "vel_down_m_s": 0.7164, "usable_for_triangulation": false}
{"run_id": "SIM_TEST", "kraken_seq": 54, "telemetry_seq": 8, "t_rx_ms": 1774580910252, "dt_ms": 40, "doa_deg": 254.0, "confidence_0_1": 0.00980043478686976, "lat_deg": 33.99188155776952, "lon_deg": -118.00441458089799, "altitude_rel_ft": 68.9223, "yaw_deg": 218.0346, "pitch_deg": 6.7187, "roll_deg": -6.3918, "ground_speed_ft_s": 48.9458, "vel_north_m_s": -5.2948, "vel_east_m_s": -2.2065, "vel_down_m_s": -0.5693, "usable_for_triangulation": false}
{"run_id": "SIM_TEST", "kraken_seq": 55, "telemetry_seq": 9, "t_rx_ms": 1774580910353, "dt_ms": 40, "doa_deg": 341.0, "confidence_0_1": 0.6035844453455168, "lat_deg": 34.004855490160246, "lon_deg": -117.99636673813235, "altitude_rel_ft": 89.8371, "yaw_deg": 235.4356, "pitch_deg": 3.7361, "roll_deg": 5.426, "ground_speed_ft_s": 7.286, "vel_north_m_s": 1.6854, "vel_east_m_s": 4.9755, "vel_down_m_s": -0.2134, "usable_for_triangulation": true}
{"run_id": "SIM_TEST", "kraken_seq": 56, "telemetry_seq": 10, "t_rx_ms": 1774580910454, "dt_ms": 41, "doa_deg": 163.0, "confidence_0_1": 0.7123151309139731, "lat_deg": 33.99300027005803, "lon_deg": -117.9946917133087, "altitude_rel_ft": 63.1028, "yaw_deg": 187.4672, "pitch_deg": 0.3557, "roll_deg": 5.7403, "ground_speed_ft_s": 40.3881, "vel_north_m_s": -9.4685, "vel_east_m_s": 0.2191, "vel_down_m_s": -0.5098, "usable_for_triangulation": true}
{"run_id": "SIM_TEST", "kraken_seq": 57, "telemetry_seq": 11, "t_rx_ms": 1774580910555, "dt_ms": 40, "doa_deg": 225.0, "confidence_0_1": 0.43903018242356096, "lat_deg": 33.99717012189259, "lon_deg": -118.00151018454358, "altitude_rel_ft": 47.4538, "yaw_deg": 216.7003, "pitch_deg": 1.1503, "roll_deg": -9.2458, "ground_speed_ft_s": 59.5984, "vel_north_m_s": -6.0749, "vel_east_m_s": 2.956, "vel_down_m_s": -0.3562, "usable_for_triangulation": false}
{"run_id": "SIM_TEST", "kraken_seq": 58, "telemetry_seq": 12, "t_rx_ms": 1774580910656, "dt_ms": 40, "doa_deg": 192.0, "confidence_0_1": 0.31259525345078965, "lat_deg": 33.992753004886275, "lon_deg": -117.99818019034164, "altitude_rel_ft": 88.631, "yaw_deg": 181.2478, "pitch_deg": 5.2838, "roll_deg": 3.1698, "ground_speed_ft_s": 50.5014, "vel_north_m_s": 1.9765, "vel_east_m_s": 8.8804, "vel_down_m_s": 0.3766, "usable_for_triangulation": false}
{"run_id": "SIM_TEST", "kraken_seq": 59, "telemetry_seq": 13, "t_rx_ms": 1774580910757, "dt_ms": 41, "doa_deg": 32.0, "confidence_0_1": 0.3950586641285957, "lat_deg": 33.997032053315486, "lon_deg": -117.99814058688429, "altitude_rel_ft": 69.3577, "yaw_deg": 272.3387, "pitch_deg": 6.5304, "roll_deg": 8.1254, "ground_speed_ft_s": 18.0397, "vel_north_m_s": -8.7203, "vel_east_m_s": -9.2063, "vel_down_m_s": -0.6401, "usable_for_triangulation": false}
{"run_id": "SIM_TEST", "kraken_seq": 60, "telemetry_seq": 14, "t_rx_ms": 1774580910858, "dt_ms": 40, "doa_deg": 124.0, "confidence_0_1": 0.8033145613931743, "lat_deg": 34.0069235669371, "lon_deg": -118.0020850416068, "altitude_rel_ft": 53.2927, "yaw_deg": 267.5152, "pitch_deg": -7.6432, "roll_deg": 10.8269, "ground_speed_ft_s": 46.3127, "vel_north_m_s": -1.4999, "vel_east_m_s": 5.728, "vel_down_m_s": -0.025, "usable_for_triangulation": true}
{"run_id": "SIM_TEST", "kraken_seq": 61, "telemetry_seq": 15, "t_rx_ms": 1774580910959, "dt_ms": 41, "doa_deg": 355.0, "confidence_0_1": 0.9986879569281082, "lat_deg": 34.006381634708006, "lon_deg": -118.00204591869205, "altitude_rel_ft": 20.8462, "yaw_deg": 251.9926, "pitch_deg": -5.3701, "roll_deg": -2.1397, "ground_speed_ft_s": 38.7565, "vel_north_m_s": -8.9978, "vel_east_m_s": 5.0335, "vel_down_m_s": -0.301, "usable_for_triangulation": true}
{"run_id": "SIM_TEST", "kraken_seq": 62, "telemetry_seq": 16, "t_rx_ms": 1774580911060, "dt_ms": 41, "doa_deg": 52.0, "confidence_0_1": 0.7790917355111304, "lat_deg": 34.00375763806054, "lon_deg": -117.99808279080655, "altitude_rel_ft": 64.0751, "yaw_deg": 261.5286, "pitch_deg": 6.4213, "roll_deg": 13.1551, "ground_speed_ft_s": 15.1146, "vel_north_m_s": -6.0244, "vel_east_m_s": 4.7852, "vel_down_m_s": -0.517, "usable_for_triangulation": true}
{"run_id": "SIM_TEST", "kraken_seq": 63, "telemetry_seq": 17, "t_rx_ms": 1774580911161, "dt_ms": 41, "doa_deg": 146.0, "confidence_0_1": 0.9024806593731757, "lat_deg": 34.007035960049365, "lon_deg": -118.00130683797919, "altitude_rel_ft": 42.6785, "yaw_deg": 211.8963, "pitch_deg": 7.5901, "roll_deg": -10.5193, "ground_speed_ft_s": 13.4101, "vel_north_m_s": -8.0081, "vel_east_m_s": 4.4679, "vel_down_m_s": -0.4549, "usable_for_triangulation": true}
{"run_id": "SIM_TEST", "kraken_seq": 64, "telemetry_seq": 18, "t_rx_ms": 1774580911262, "dt_ms": 41, "doa_deg": 47.0, "confidence_0_1": 0.5363925286633385, "lat_deg": 34.009081335783215, "lon_deg": -118.0014855124202, "altitude_rel_ft": 86.1966, "yaw_deg": 164.0463, "pitch_deg": -1.6532, "roll_deg": 2.8136, "ground_speed_ft_s": 40.0603, "vel_north_m_s": -0.745, "vel_east_m_s": -4.7276, "vel_down_m_s": -0.8546, "usable_for_triangulation": true}
{"run_id": "SIM_TEST", "kraken_seq": 65, "telemetry_seq": 19, "t_rx_ms": 1774580911364, "dt_ms": 40, "doa_deg": 149.0, "confidence_0_1": 0.5268436345991716, "lat_deg": 33.99770605972347, "lon_deg": -118.0016188265535, "altitude_rel_ft": 35.6498, "yaw_deg": 355.1128, "pitch_deg": -5.7885, "roll_deg": -0.2299, "ground_speed_ft_s": 10.4979, "vel_north_m_s": -4.3964, "vel_east_m_s": 8.9451, "vel_down_m_s": 0.9353, "usable_for_triangulation": true}
{"run_id": "SIM_TEST", "kraken_seq": 66, "telemetry_seq": 20, "t_rx_ms": 1774580911465, "dt_ms": 40, "doa_deg": 137.0, "confidence_0_1": 0.6980508433289111, "lat_deg": 34.00755455366371, "lon_deg": -118.00086588553374, "altitude_rel_ft": 97.0586, "yaw_deg": 126.9082, "pitch_deg": -3.3352, "roll_deg": -3.9059, "ground_speed_ft_s": 16.9252, "vel_north_m_s": -2.0339, "vel_east_m_s": 9.1597, "vel_down_m_s": -0.0328, "usable_for_triangulation": true}
{"run_id": "SIM_TEST", "kraken_seq": 67, "telemetry_seq": 21, "t_rx_ms": 1774580911566, "dt_ms": 40, "doa_deg": 221.0, "confidence_0_1": 0.887885018190041, "lat_deg": 33.99087617871585, "lon_deg": -118.00997352585132, "altitude_rel_ft": 94.8924, "yaw_deg": 334.8124, "pitch_deg": -5.1659, "roll_deg": -6.7218, "ground_speed_ft_s": 47.0424, "vel_north_m_s": -1.2931, "vel_east_m_s": -8.3184, "vel_down_m_s": -0.6907, "usable_for_triangulation": true}
{"run_id": "SIM_TEST", "kraken_seq": 68, "telemetry_seq": 22, "t_rx_ms": 1774580911666, "dt_ms": 40, "doa_deg": 69.0, "confidence_0_1": 0.3553379798706007, "lat_deg": 34.00001922655099, "lon_deg": -118.00368870757582, "altitude_rel_ft": 74.1858, "yaw_deg": 158.2435, "pitch_deg": 4.1252, "roll_deg": 0.689, "ground_speed_ft_s": 59.2141, "vel_north_m_s": -1.2632, "vel_east_m_s": -9.5695, "vel_down_m_s": -0.8692, "usable_for_triangulation": false}
{"run_id": "SIM_TEST", "kraken_seq": 69, "telemetry_seq": 23, "t_rx_ms": 1774580911767, "dt_ms": 41, "doa_deg": 287.0, "confidence_0_1": 0.10509930594204109, "lat_deg": 34.00396001448117, "lon_deg": -118.00648296674612, "altitude_rel_ft": 71.5302, "yaw_deg": 204.8758, "pitch_deg": -8.3424, "roll_deg": -2.0414, "ground_speed_ft_s": 33.3558, "vel_north_m_s": 5.1166, "vel_east_m_s": -0.923, "vel_down_m_s": -0.5465, "usable_for_triangulation": false}
{"run_id": "SIM_TEST", "kraken_seq": 70, "telemetry_seq": 24, "t_rx_ms": 1774580911868, "dt_ms": 42, "doa_deg": 242.0, "confidence_0_1": 0.4332826606044653, "lat_deg": 34.001112465174465, "lon_deg": -118.00246396301564, "altitude_rel_ft": 40.4026, "yaw_deg": 284.6961, "pitch_deg": -2.4164, "roll_deg": -7.3652, "ground_speed_ft_s": 53.1804, "vel_north_m_s": -9.0416, "vel_east_m_s": -0.2987, "vel_down_m_s": 0.152, "usable_for_triangulation": false}
{"run_id": "SIM_TEST", "kraken_seq": 71, "telemetry_seq": 25, "t_rx_ms": 1774580911969, "dt_ms": 42, "doa_deg": 164.0, "confidence_0_1": 0.5658001803568496, "lat_deg": 33.99872820934516, "lon_deg": -118.00438307350632, "altitude_rel_ft": 91.6385, "yaw_deg": 233.0573, "pitch_deg": -7.5432, "roll_deg": 1.6244, "ground_speed_ft_s": 38.0628, "vel_north_m_s": -2.4642, "vel_east_m_s": -3.7189, "vel_down_m_s": 0.3181, "usable_for_triangulation": true}
{"run_id": "SIM_TEST", "kraken_seq": 72, "telemetry_seq": 26, "t_rx_ms": 1774580912070, "dt_ms": 42, "doa_deg": 343.0, "confidence_0_1": 0.09696620982588455, "lat_deg": 33.997378237374456, "lon_deg": -117.99460547724368, "altitude_rel_ft": 61.6783, "yaw_deg": 223.2728, "pitch_deg": -3.8123, "roll_deg": -10.5009, "ground_speed_ft_s": 46.7507, "vel_north_m_s": -5.9758, "vel_east_m_s": -1.1718, "vel_down_m_s": -0.2787, "usable_for_triangulation": false}
{"run_id": "SIM_TEST", "kraken_seq": 73, "telemetry_seq": 27, "t_rx_ms": 1774580912171, "dt_ms": 42, "doa_deg": 300.0, "confidence_0_1": 0.4145406069243015, "lat_deg": 33.9924575863207, "lon_deg": -118.00175560967114, "altitude_rel_ft": 57.4423, "yaw_deg": 11.2527, "pitch_deg": -6.8631, "roll_deg": 7.2934, "ground_speed_ft_s": 7.5663, "vel_north_m_s": -3.3941, "vel_east_m_s": 5.2525, "vel_down_m_s": 0.455, "usable_for_triangulation": false}
{"run_id": "SIM_TEST", "kraken_seq": 74, "telemetry_seq": 28, "t_rx_ms": 1774580912272, "dt_ms": 42, "doa_deg": 349.0, "confidence_0_1": 0.5726044649536227, "lat_deg": 33.99527362113406, "lon_deg": -117.99006827284734, "altitude_rel_ft": 89.154, "yaw_deg": 204.0667, "pitch_deg": 2.4181, "roll_deg": 4.8985, "ground_speed_ft_s": 14.2941, "vel_north_m_s": 0.1329, "vel_east_m_s": -0.6087, "vel_down_m_s": -0.347, "usable_for_triangulation": true}
{"run_id": "SIM_TEST", "kraken_seq": 75, "telemetry_seq": 29, "t_rx_ms": 1774580912374, "dt_ms": 41, "doa_deg": 186.0, "confidence_0_1": 0.8063935607074074, "lat_deg": 34.005356725085264, "lon_deg": -117.99389471491565, "altitude_rel_ft": 67.7567, "yaw_deg": 161.8806, "pitch_deg": 1.5297, "roll_deg": 11.7229, "ground_speed_ft_s": 56.5768, "vel_north_m_s": -2.5547, "vel_east_m_s": 4.7655, "vel_down_m_s": 0.5303, "usable_for_triangulation": true}
{"run_id": "SIM_TEST", "kraken_seq": 76, "telemetry_seq": 30, "t_rx_ms": 1774580912475, "dt_ms": 41, "doa_deg": 338.0, "confidence_0_1": 0.6086628253512993, "lat_deg": 33.99956886570348, "lon_deg": -117.99668953880393, "altitude_rel_ft": 30.8435, "yaw_deg": 91.6205, "pitch_deg": 4.6187, "roll_deg": -11.3742, "ground_speed_ft_s": 39.4861, "vel_north_m_s": -7.5778, "vel_east_m_s": 8.5862, "vel_down_m_s": 0.3532, "usable_for_triangulation": true}
{"run_id": "SIM_TEST", "kraken_seq": 77, "telemetry_seq": 31, "t_rx_ms": 1774580912576, "dt_ms": 41, "doa_deg": 98.0, "confidence_0_1": 0.3631385493430148, "lat_deg": 33.993031892390306, "lon_deg": -118.0019435832089, "altitude_rel_ft": 98.3091, "yaw_deg": 132.0223, "pitch_deg": -8.9966, "roll_deg": 6.7827, "ground_speed_ft_s": 20.1688, "vel_north_m_s": 3.2643, "vel_east_m_s": -9.2273, "vel_down_m_s": -0.029, "usable_for_triangulation": false}
{"run_id": "SIM_TEST", "kraken_seq": 78, "telemetry_seq": 32, "t_rx_ms": 1774580912677, "dt_ms": 41, "doa_deg": 3.0, "confidence_0_1": 0.7456384261844207, "lat_deg": 33.99343611303237, "lon_deg": -118.00749420437656, "altitude_rel_ft": 97.6374, "yaw_deg": 183.8628, "pitch_deg": -6.2617, "roll_deg": 7.0275, "ground_speed_ft_s": 40.8003, "vel_north_m_s": -5.076, "vel_east_m_s": -0.9176, "vel_down_m_s": -0.8344, "usable_for_triangulation": true}
{"run_id": "SIM_TEST", "kraken_seq": 79, "telemetry_seq": 33, "t_rx_ms": 1774580912778, "dt_ms": 42, "doa_deg": 269.0, "confidence_0_1": 0.9084508086151173, "lat_deg": 34.007456965368, "lon_deg": -118.00398390576278, "altitude_rel_ft": 47.6401, "yaw_deg": 82.8723, "pitch_deg": 5.5091, "roll_deg": 7.4329, "ground_speed_ft_s": 57.3835, "vel_north_m_s": -6.6714, "vel_east_m_s": 9.8377, "vel_down_m_s": -0.8351, "usable_for_triangulation": true}
{"run_id": "SIM_TEST", "kraken_seq": 80, "telemetry_seq": 34, "t_rx_ms": 1774580912879, "dt_ms": 42, "doa_deg": 242.0, "confidence_0_1": 0.19801456464256828, "lat_deg": 34.00793868699838, "lon_deg": -117.9923261549175, "altitude_rel_ft": 72.181, "yaw_deg": 45.3883, "pitch_deg": 8.7388, "roll_deg": -14.7564, "ground_speed_ft_s": 14.1899, "vel_north_m_s": -1.076, "vel_east_m_s": -0.5725, "vel_down_m_s": -0.3803, "usable_for_triangulation": false}
{"run_id": "SIM_TEST", "kraken_seq": 81, "telemetry_seq": 35, "t_rx_ms": 1774580912979, "dt_ms": 43, "doa_deg": 3.0, "confidence_0_1": 0.7667930054112007, "lat_deg": 34.00854902945844, "lon_deg": -118.00835627647332, "altitude_rel_ft": 67.8054, "yaw_deg": 319.0905, "pitch_deg": 9.9091, "roll_deg": 6.9457, "ground_speed_ft_s": 27.4085, "vel_north_m_s": 3.2432, "vel_east_m_s": -3.5518, "vel_down_m_s": -0.7179, "usable_for_triangulation": true}
{"run_id": "SIM_TEST", "kraken_seq": 82, "telemetry_seq": 36, "t_rx_ms": 1774580913080, "dt_ms": 43, "doa_deg": 306.0, "confidence_0_1": 0.779949841452573, "lat_deg": 33.99128725383514, "lon_deg": -117.9941319622664, "altitude_rel_ft": 54.4155, "yaw_deg": 178.7691, "pitch_deg": -8.5383, "roll_deg": -11.0055, "ground_speed_ft_s": 43.2096, "vel_north_m_s": 8.1881, "vel_east_m_s": -7.9657, "vel_down_m_s": -0.8253, "usable_for_triangulation": true}
{"run_id": "SIM_TEST", "kraken_seq": 83, "telemetry_seq": 37, "t_rx_ms": 1774580913181, "dt_ms": 44, "doa_deg": 175.0, "confidence_0_1": 0.21928693758619655, "lat_deg": 33.99243263553086, "lon_deg": -117.99205761341051, "altitude_rel_ft": 51.8739, "yaw_deg": 231.9258, "pitch_deg": -0.1692, "roll_deg": 11.8964, "ground_speed_ft_s": 20.7908, "vel_north_m_s": 4.9922, "vel_east_m_s": -8.8492, "vel_down_m_s": -0.0398, "usable_for_triangulation": false}
{"run_id": "SIM_TEST", "kraken_seq": 84, "telemetry_seq": 38, "t_rx_ms": 1774580913282, "dt_ms": 44, "doa_deg": 115.0, "confidence_0_1": 0.17240178242247606, "lat_deg": 33.99470358340517, "lon_deg": -118.00977701506186, "altitude_rel_ft": 32.062, "yaw_deg": 276.1054, "pitch_deg": 2.1132, "roll_deg": -4.3715, "ground_speed_ft_s": 27.4995, "vel_north_m_s": -3.5004, "vel_east_m_s": 6.3313, "vel_down_m_s": 0.9802, "usable_for_triangulation": false}
{"run_id": "SIM_TEST", "kraken_seq": 85, "telemetry_seq": 39, "t_rx_ms": 1774580913384, "dt_ms": 43, "doa_deg": 123.0, "confidence_0_1": 0.8071816564785346, "lat_deg": 33.99929334481245, "lon_deg": -118.00981008594492, "altitude_rel_ft": 40.135, "yaw_deg": 104.5393, "pitch_deg": 4.083, "roll_deg": 11.7933, "ground_speed_ft_s": 33.7246, "vel_north_m_s": -8.5751, "vel_east_m_s": -1.1645, "vel_down_m_s": 0.7908, "usable_for_triangulation": true}
{"run_id": "SIM_TEST", "kraken_seq": 86, "telemetry_seq": 40, "t_rx_ms": 1774580913485, "dt_ms": 43, "doa_deg": 110.0, "confidence_0_1": 0.5497775196019471, "lat_deg": 34.001801086838995, "lon_deg": -118.00316046286446, "altitude_rel_ft": 74.045, "yaw_deg": 54.2031, "pitch_deg": 5.9094, "roll_deg": -1.4482, "ground_speed_ft_s": 57.9411, "vel_north_m_s": -3.6774, "vel_east_m_s": -2.9397, "vel_down_m_s": 0.5808, "usable_for_triangulation": true}
{"run_id": "SIM_TEST", "kraken_seq": 87, "telemetry_seq": 41, "t_rx_ms": 1774580913586, "dt_ms": 44, "doa_deg": 220.0, "confidence_0_1": 0.4537070575139277, "lat_deg": 33.99270432760183, "lon_deg": -118.00890038089925, "altitude_rel_ft": 91.8053, "yaw_deg": 342.1099, "pitch_deg": 9.7111, "roll_deg": -10.2816, "ground_speed_ft_s": 15.9912, "vel_north_m_s": 3.9868, "vel_east_m_s": 9.9661, "vel_down_m_s": 0.2957, "usable_for_triangulation": false}
{"run_id": "SIM_TEST", "kraken_seq": 88, "telemetry_seq": 42, "t_rx_ms": 1774580913687, "dt_ms": 44, "doa_deg": 18.0, "confidence_0_1": 0.4026563622544017, "lat_deg": 33.99153565027609, "lon_deg": -118.00769306153774, "altitude_rel_ft": 56.3677, "yaw_deg": 27.1219, "pitch_deg": -0.7652, "roll_deg": 9.5272, "ground_speed_ft_s": 18.4256, "vel_north_m_s": -5.0564, "vel_east_m_s": -8.2283, "vel_down_m_s": -0.8439, "usable_for_triangulation": false}
{"run_id": "SIM_TEST", "kraken_seq": 89, "telemetry_seq": 43, "t_rx_ms": 1774580913789, "dt_ms": 43, "doa_deg": 140.0, "confidence_0_1": 0.9100750016345156, "lat_deg": 34.001063895930315, "lon_deg": -117.99383725406598, "altitude_rel_ft": 97.0404, "yaw_deg": 210.8214, "pitch_deg": -8.7354, "roll_deg": -1.8727, "ground_speed_ft_s": 6.1313, "vel_north_m_s": -8.6294, "vel_east_m_s": -3.4584, "vel_down_m_s": 0.2219, "usable_for_triangulation": true}
{"run_id": "SIM_TEST", "kraken_seq": 90, "telemetry_seq": 44, "t_rx_ms": 1774580913890, "dt_ms": 43, "doa_deg": 179.0, "confidence_0_1": 0.8063602950125727, "lat_deg": 34.009850958171, "lon_deg": -117.99311090656283, "altitude_rel_ft": 65.617, "yaw_deg": 308.5992, "pitch_deg": 1.9247, "roll_deg": -10.0527, "ground_speed_ft_s": 19.1694, "vel_north_m_s": -6.1797, "vel_east_m_s": -1.3718, "vel_down_m_s": -0.1638, "usable_for_triangulation": true}
{"run_id": "SIM_TEST", "kraken_seq": 91, "telemetry_seq": 45, "t_rx_ms": 1774580913991, "dt_ms": 44, "doa_deg": 276.0, "confidence_0_1": 0.6861745996269168, "lat_deg": 33.992608949900315, "lon_deg": -118.00035438526447, "altitude_rel_ft": 48.1475, "yaw_deg": 8.6891, "pitch_deg": 5.0316, "roll_deg": 13.4648, "ground_speed_ft_s": 7.5503, "vel_north_m_s": 4.7275, "vel_east_m_s": 9.6226, "vel_down_m_s": -0.9698, "usable_for_triangulation": true}
{"run_id": "SIM_TEST", "kraken_seq": 92, "telemetry_seq": 46, "t_rx_ms": 1774580914092, "dt_ms": 45, "doa_deg": 149.0, "confidence_0_1": 0.06644608655971052, "lat_deg": 34.00173113825931, "lon_deg": -117.99016611515393, "altitude_rel_ft": 50.6426, "yaw_deg": 82.7886, "pitch_deg": 3.1048, "roll_deg": 4.6875, "ground_speed_ft_s": 43.1076, "vel_north_m_s": -9.4977, "vel_east_m_s": 5.9506, "vel_down_m_s": 0.876, "usable_for_triangulation": false}
{"run_id": "SIM_TEST", "kraken_seq": 93, "telemetry_seq": 47, "t_rx_ms": 1774580914193, "dt_ms": 45, "doa_deg": 306.0, "confidence_0_1": 0.7622234738308409, "lat_deg": 33.99293749347204, "lon_deg": -118.0009764029149, "altitude_rel_ft": 34.6538, "yaw_deg": 193.3701, "pitch_deg": -4.5617, "roll_deg": 9.6738, "ground_speed_ft_s": 6.5023, "vel_north_m_s": -0.0639, "vel_east_m_s": 5.0284, "vel_down_m_s": -0.1392, "usable_for_triangulation": true}
{"run_id": "SIM_TEST", "kraken_seq": 94, "telemetry_seq": 48, "t_rx_ms": 1774580914295, "dt_ms": 44, "doa_deg": 326.0, "confidence_0_1": 0.8640217040635195, "lat_deg": 34.00605474974739, "lon_deg": -118.00145702003186, "altitude_rel_ft": 52.7564, "yaw_deg": 317.2162, "pitch_deg": 9.6736, "roll_deg": -2.4605, "ground_speed_ft_s": 21.1726, "vel_north_m_s": -2.759, "vel_east_m_s": 8.5115, "vel_down_m_s": -0.052, "usable_for_triangulation": true}
{"run_id": "SIM_TEST", "kraken_seq": 95, "telemetry_seq": 49, "t_rx_ms": 1774580914396, "dt_ms": 46, "doa_deg": 242.0, "confidence_0_1": 0.8333360200663222, "lat_deg": 33.9911547584763, "lon_deg": -117.99089195402568, "altitude_rel_ft": 66.8916, "yaw_deg": 340.7287, "pitch_deg": -0.239, "roll_deg": -12.6314, "ground_speed_ft_s": 30.7812, "vel_north_m_s": -3.4538, "vel_east_m_s": 7.9367, "vel_down_m_s": -0.5003, "usable_for_triangulation": true}
{"run_id": "SIM_TEST", "kraken_seq": 96, "telemetry_seq": 50, "t_rx_ms": 1774580914497, "dt_ms": 46, "doa_deg": 172.0, "confidence_0_1": 0.9128935255809011, "lat_deg": 34.009289165831284, "lon_deg": -117.99814584508144, "altitude_rel_ft": 39.5082, "yaw_deg": 132.5415, "pitch_deg": -5.0773, "roll_deg": 4.9696, "ground_speed_ft_s": 58.0316, "vel_north_m_s": -8.9975, "vel_east_m_s": 3.3118, "vel_down_m_s": 0.9124, "usable_for_triangulation": true}
{"run_id": "SIM_TEST", "kraken_seq": 97, "telemetry_seq": 51, "t_rx_ms": 1774580914598, "dt_ms": 46, "doa_deg": 329.0, "confidence_0_1": 0.026505993205196976, "lat_deg": 34.00863396358993, "lon_deg": -117.99742499937258, "altitude_rel_ft": 35.1276, "yaw_deg": 38.2759, "pitch_deg": 1.8912, "roll_deg": 9.4111, "ground_speed_ft_s": 28.545, "vel_north_m_s": 0.9393, "vel_east_m_s": 1.7453, "vel_down_m_s": -0.3705, "usable_for_triangulation": false}
{"run_id": "SIM_TEST", "kraken_seq": 98, "telemetry_seq": 52, "t_rx_ms": 1774580914699, "dt_ms": 47, "doa_deg": 121.0, "confidence_0_1": 0.3121447825742426, "lat_deg": 33.99094346391733, "lon_deg": -118.00589811123888, "altitude_rel_ft": 87.6283, "yaw_deg": 253.1515, "pitch_deg": 1.9797, "roll_deg": -3.8265, "ground_speed_ft_s": 52.4975, "vel_north_m_s": -8.016, "vel_east_m_s": -0.8419, "vel_down_m_s": -0.5637, "usable_for_triangulation": false}
{"run_id": "SIM_TEST", "kraken_seq": 99, "telemetry_seq": 53, "t_rx_ms": 1774580914799, "dt_ms": 48, "doa_deg": 111.0, "confidence_0_1": 0.50379628682363, "lat_deg": 34.00294624441216, "lon_deg": -118.00968969502414, "altitude_rel_ft": 32.4066, "yaw_deg": 66.6585, "pitch_deg": -1.4513, "roll_deg": 8.5266, "ground_speed_ft_s": 43.9164, "vel_north_m_s": 3.3799, "vel_east_m_s": -7.216, "vel_down_m_s": 0.32, "usable_for_triangulation": true}
{"run_id": "SIM_TEST", "kraken_seq": 100, "telemetry_seq": 54, "t_rx_ms": 1774580914900, "dt_ms": 47, "doa_deg": 22.0, "confidence_0_1": 0.6229959545977063, "lat_deg": 34.00451397214207, "lon_deg": -118.00476642211093, "altitude_rel_ft": 40.5, "yaw_deg": 163.3215, "pitch_deg": 8.0985, "roll_deg": 10.5988, "ground_speed_ft_s": 59.6214, "vel_north_m_s": -2.572, "vel_east_m_s": -6.9496, "vel_down_m_s": 0.9423, "usable_for_triangulation": true}
{"run_id": "SIM_TEST", "kraken_seq": 101, "telemetry_seq": 55, "t_rx_ms": 1774580915001, "dt_ms": 48, "doa_deg": 227.0, "confidence_0_1": 0.3047533503070141, "lat_deg": 33.99113723950973, "lon_deg": -117.9980715852274, "altitude_rel_ft": 78.0498, "yaw_deg": 313.9894, "pitch_deg": 0.1129, "roll_deg": 12.9009, "ground_speed_ft_s": 15.427, "vel_north_m_s": -3.6236, "vel_east_m_s": -0.9452, "vel_down_m_s": -0.6476, "usable_for_triangulation": false}
{"run_id": "SIM_TEST", "kraken_seq": 102, "telemetry_seq": 56, "t_rx_ms": 1774580915102, "dt_ms": 48, "doa_deg": 76.0, "confidence_0_1": 0.6293591832398577, "lat_deg": 34.008555598060894, "lon_deg": -118.00085252348804, "altitude_rel_ft": 47.1816, "yaw_deg": 358.3042, "pitch_deg": -5.192, "roll_deg": -12.5458, "ground_speed_ft_s": 46.3353, "vel_north_m_s": 2.4932, "vel_east_m_s": 9.1931, "vel_down_m_s": -0.0239, "usable_for_triangulation": true}
{"run_id": "SIM_TEST", "kraken_seq": 103, "telemetry_seq": 57, "t_rx_ms": 1774580915203, "dt_ms": 48, "doa_deg": 348.0, "confidence_0_1": 0.8312779634666771, "lat_deg": 33.99730605786274, "lon_deg": -117.99081632830213, "altitude_rel_ft": 60.769, "yaw_deg": 310.4239, "pitch_deg": -1.4267, "roll_deg": 10.221, "ground_speed_ft_s": 34.705, "vel_north_m_s": 1.0782, "vel_east_m_s": 4.9016, "vel_down_m_s": -0.0858, "usable_for_triangulation": true}
{"run_id": "SIM_TEST", "kraken_seq": 104, "telemetry_seq": 58, "t_rx_ms": 1774580915303, "dt_ms": 49, "doa_deg": 264.0, "confidence_0_1": 0.20827124229175908, "lat_deg": 34.00342858348446, "lon_deg": -117.99928335868171, "altitude_rel_ft": 26.6223, "yaw_deg": 225.1734, "pitch_deg": 3.0588, "roll_deg": -3.3653, "ground_speed_ft_s": 36.3085, "vel_north_m_s": 8.6616, "vel_east_m_s": 8.505, "vel_down_m_s": -0.2486, "usable_for_triangulation": false}
{"run_id": "SIM_TEST", "kraken_seq": 105, "telemetry_seq": 59, "t_rx_ms": 1774580915404, "dt_ms": 49, "doa_deg": 189.0, "confidence_0_1": 0.37517569224679104, "lat_deg": 33.994131113721686, "lon_deg": -118.00498017003916, "altitude_rel_ft": 80.9887, "yaw_deg": 134.1266, "pitch_deg": -5.8076, "roll_deg": 8.295, "ground_speed_ft_s": 13.1025, "vel_north_m_s": 0.0457, "vel_east_m_s": 0.7084, "vel_down_m_s": -0.9422, "usable_for_triangulation": false}
{"run_id": "SIM_TEST", "kraken_seq": 106, "telemetry_seq": 60, "t_rx_ms": 1774580915505, "dt_ms": 49, "doa_deg": 262.0, "confidence_0_1": 0.8806702812998062, "lat_deg": 34.00638665079861, "lon_deg": -118.00368962971928, "altitude_rel_ft": 47.0724, "yaw_deg": 7.0539, "pitch_deg": -4.4549, "roll_deg": -7.5364, "ground_speed_ft_s": 37.1804, "vel_north_m_s": 3.282, "vel_east_m_s": -5.3099, "vel_down_m_s": -0.2925, "usable_for_triangulation": true}
{"run_id": "SIM_TEST", "kraken_seq": 107, "telemetry_seq": 61, "t_rx_ms": 1774580915606, "dt_ms": 49, "doa_deg": 194.0, "confidence_0_1": 0.6841099005028651, "lat_deg": 34.00720906901366, "lon_deg": -118.00778915080723, "altitude_rel_ft": 52.9415, "yaw_deg": 85.8679, "pitch_deg": -0.1626, "roll_deg": -4.7995, "ground_speed_ft_s": 48.2583, "vel_north_m_s": 7.6395, "vel_east_m_s": -4.963, "vel_down_m_s": -0.6902, "usable_for_triangulation": true}
{"run_id": "SIM_TEST", "kraken_seq": 108, "telemetry_seq": 62, "t_rx_ms": 1774580915707, "dt_ms": 50, "doa_deg": 255.0, "confidence_0_1": 0.3078734699195098, "lat_deg": 33.991753870943306, "lon_deg": -118.00530275993309, "altitude_rel_ft": 76.7021, "yaw_deg": 119.1048, "pitch_deg": -4.4417, "roll_deg": 1.6528, "ground_speed_ft_s": 19.3875, "vel_north_m_s": -4.1629, "vel_east_m_s": 9.2317, "vel_down_m_s": -0.4604, "usable_for_triangulation": false}
{"run_id": "SIM_TEST", "kraken_seq": 109, "telemetry_seq": 62, "t_rx_ms": 1774580915808, "dt_ms": -51, "doa_deg": 158.0, "confidence_0_1": 0.12420120650348832, "lat_deg": 33.991753870943306, "lon_deg": -118.00530275993309, "altitude_rel_ft": 76.7021, "yaw_deg": 119.1048, "pitch_deg": -4.4417, "roll_deg": 1.6528, "ground_speed_ft_s": 19.3875, "vel_north_m_s": -4.1629, "vel_east_m_s": 9.2317, "vel_down_m_s": -0.4604, "usable_for_triangulation": false}
{"run_id": "SIM_TEST", "kraken_seq": 110, "telemetry_seq": 63, "t_rx_ms": 1774580915909, "dt_ms": -49, "doa_deg": 116.0, "confidence_0_1": 0.7570171707217944, "lat_deg": 34.0092344677498, "lon_deg": -117.99293347187923, "altitude_rel_ft": 57.2289, "yaw_deg": 196.4564, "pitch_deg": -5.0355, "roll_deg": 0.8042, "ground_speed_ft_s": 59.7439, "vel_north_m_s": 4.8407, "vel_east_m_s": -2.6893, "vel_down_m_s": 0.6115, "usable_for_triangulation": true}
{"run_id": "SIM_TEST", "kraken_seq": 111, "telemetry_seq": 64, "t_rx_ms": 1774580916011, "dt_ms": -50, "doa_deg": 129.0, "confidence_0_1": 0.6160543026958089, "lat_deg": 33.99838622779972, "lon_deg": -117.99706946497417, "altitude_rel_ft": 59.651, "yaw_deg": 212.8634, "pitch_deg": 7.7857, "roll_deg": 8.6081, "ground_speed_ft_s": 26.4855, "vel_north_m_s": 8.9316, "vel_east_m_s": -8.2723, "vel_down_m_s": 0.2657, "usable_for_triangulation": true}
{"run_id": "SIM_TEST", "kraken_seq": 112, "telemetry_seq": 66, "t_rx_ms": 1774580916112, "dt_ms": 50, "doa_deg": 297.0, "confidence_0_1": 0.9642202268955459, "lat_deg": 34.00981889601433, "lon_deg": -117.9981323879448, "altitude_rel_ft": 28.3067, "yaw_deg": 258.8389, "pitch_deg": -1.5796, "roll_deg": -6.0693, "ground_speed_ft_s": 15.3209, "vel_north_m_s": -7.3944, "vel_east_m_s": -6.8956, "vel_down_m_s": 0.051, "usable_for_triangulation": true}
{"run_id": "SIM_TEST", "kraken_seq": 113, "telemetry_seq": 67, "t_rx_ms": 1774580916213, "dt_ms": 50, "doa_deg": 358.0, "confidence_0_1": 0.436778767880155, "lat_deg": 33.990157921105435, "lon_deg": -117.99148036241868, "altitude_rel_ft": 54.6265, "yaw_deg": 322.9429, "pitch_deg": 0.5292, "roll_deg": -9.1629, "ground_speed_ft_s": 32.0596, "vel_north_m_s": 6.9763, "vel_east_m_s": 3.5788, "vel_down_m_s": 0.2493, "usable_for_triangulation": false}
{"run_id": "SIM_TEST", "kraken_seq": 114, "telemetry_seq": 68, "t_rx_ms": 1774580916315, "dt_ms": 49, "doa_deg": 45.0, "confidence_0_1": 0.5555500757710828, "lat_deg": 34.00666287919482, "lon_deg": -117.99261964499631, "altitude_rel_ft": 83.2192, "yaw_deg": 274.447, "pitch_deg": 9.4337, "roll_deg": -4.4274, "ground_speed_ft_s": 23.6048, "vel_north_m_s": 7.6689, "vel_east_m_s": 5.1339, "vel_down_m_s": 0.6076, "usable_for_triangulation": true}
{"run_id": "SIM_TEST", "kraken_seq": 115, "telemetry_seq": 69, "t_rx_ms": 1774580916416, "dt_ms": 50, "doa_deg": 136.0, "confidence_0_1": 0.7638937507910268, "lat_deg": 34.00399404719242, "lon_deg": -118.00097828792236, "altitude_rel_ft": 71.1696, "yaw_deg": 337.9943, "pitch_deg": 6.1717, "roll_deg": -10.0478, "ground_speed_ft_s": 16.7051, "vel_north_m_s": 0.5771, "vel_east_m_s": -9.1103, "vel_down_m_s": -0.284, "usable_for_triangulation": true}
{"run_id": "SIM_TEST", "kraken_seq": 116, "telemetry_seq": 70, "t_rx_ms": 1774580916517, "dt_ms": 50, "doa_deg": 177.0, "confidence_0_1": 0.08756740060914803, "lat_deg": 34.00570983294272, "lon_deg": -117.99930651423807, "altitude_rel_ft": 99.8503, "yaw_deg": 195.9413, "pitch_deg": -8.2163, "roll_deg": 1.5166, "ground_speed_ft_s": 14.5181, "vel_north_m_s": 2.9254, "vel_east_m_s": 0.5028, "vel_down_m_s": 0.1444, "usable_for_triangulation": false}
{"run_id": "SIM_TEST", "kraken_seq": 117, "telemetry_seq": 71, "t_rx_ms": 1774580916618, "dt_ms": 50, "doa_deg": 304.0, "confidence_0_1": 0.8355791332466322, "lat_deg": 34.0008340862391, "lon_deg": -118.00340941430318, "altitude_rel_ft": 24.3923, "yaw_deg": 109.4712, "pitch_deg": -9.4909, "roll_deg": -3.7612, "ground_speed_ft_s": 33.8205, "vel_north_m_s": -2.9935, "vel_east_m_s": -0.6789, "vel_down_m_s": -0.6646, "usable_for_triangulation": true}
{"run_id": "SIM_TEST", "kraken_seq": 118, "telemetry_seq": 71, "t_rx_ms": 1774580916719, "dt_ms": -51, "doa_deg": 200.0, "confidence_0_1": 0.7490970659845004, "lat_deg": 34.0008340862391, "lon_deg": -118.00340941430318, "altitude_rel_ft": 24.3923, "yaw_deg": 109.4712, "pitch_deg": -9.4909, "roll_deg": -3.7612, "ground_speed_ft_s": 33.8205, "vel_north_m_s": -2.9935, "vel_east_m_s": -0.6789, "vel_down_m_s": -0.6646, "usable_for_triangulation": true}
{"run_id": "SIM_TEST", "kraken_seq": 119, "telemetry_seq": 72, "t_rx_ms": 1774580916821, "dt_ms": -49, "doa_deg": 330.0, "confidence_0_1": 0.3869299261390431, "lat_deg": 33.99014535660869, "lon_deg": -117.99900957703824, "altitude_rel_ft": 71.8594, "yaw_deg": 243.1052, "pitch_deg": -6.2707, "roll_deg": -6.851, "ground_speed_ft_s": 35.3047, "vel_north_m_s": -6.991, "vel_east_m_s": 9.1066, "vel_down_m_s": 0.6873, "usable_for_triangulation": false}
{"run_id": "SIM_TEST", "kraken_seq": 120, "telemetry_seq": 73, "t_rx_ms": 1774580916922, "dt_ms": -48, "doa_deg": 358.0, "confidence_0_1": 0.30467366358333536, "lat_deg": 33.999548040775814, "lon_deg": -118.00256212318607, "altitude_rel_ft": 70.9536, "yaw_deg": 51.1, "pitch_deg": -7.8633, "roll_deg": -9.1765, "ground_speed_ft_s": 42.1612, "vel_north_m_s": 7.0894, "vel_east_m_s": 5.058, "vel_down_m_s": -0.5276, "usable_for_triangulation": false}
{"run_id": "SIM_TEST", "kraken_seq": 121, "telemetry_seq": 74, "t_rx_ms": 1774580917023, "dt_ms": -48, "doa_deg": 140.0, "confidence_0_1": 0.7845322001372103, "lat_deg": 33.99868240110529, "lon_deg": -118.00734700426896, "altitude_rel_ft": 49.5942, "yaw_deg": 235.5598, "pitch_deg": -3.8485, "roll_deg": 6.5979, "ground_speed_ft_s": 57.78, "vel_north_m_s": -9.2767, "vel_east_m_s": 3.8911, "vel_down_m_s": -0.795, "usable_for_triangulation": true}
{"run_id": "SIM_TEST", "kraken_seq": 122, "telemetry_seq": 75, "t_rx_ms": 1774580917124, "dt_ms": -49, "doa_deg": 292.0, "confidence_0_1": 0.7624377728366493, "lat_deg": 34.00533095516469, "lon_deg": -118.0077557186218, "altitude_rel_ft": 72.6417, "yaw_deg": 98.9931, "pitch_deg": -6.1694, "roll_deg": -8.3423, "ground_speed_ft_s": 39.2529, "vel_north_m_s": -6.4985, "vel_east_m_s": -5.4402, "vel_down_m_s": -0.5046, "usable_for_triangulation": true}
{"run_id": "SIM_TEST", "kraken_seq": 123, "telemetry_seq": 76, "t_rx_ms": 1774580917224, "dt_ms": -47, "doa_deg": 77.0, "confidence_0_1": 0.5167186226928522, "lat_deg": 33.99651075592872, "lon_deg": -117.99737510596023, "altitude_rel_ft": 42.6267, "yaw_deg": 286.0456, "pitch_deg": 0.3426, "roll_deg": -14.4977, "ground_speed_ft_s": 23.8862, "vel_north_m_s": -4.5728, "vel_east_m_s": -0.0585, "vel_down_m_s": -0.0638, "usable_for_triangulation": true}
{"run_id": "SIM_TEST", "kraken_seq": 124, "telemetry_seq": 77, "t_rx_ms": 1774580917325, "dt_ms": -48, "doa_deg": 67.0, "confidence_0_1": 0.8199067933500866, "lat_deg": 33.99977498506343, "lon_deg": -118.00372229247998, "altitude_rel_ft": 39.9275, "yaw_deg": 5.9613, "pitch_deg": 0.5296, "roll_deg": 2.961, "ground_speed_ft_s": 10.9649, "vel_north_m_s": -6.1461, "vel_east_m_s": -4.1174, "vel_down_m_s": -0.3715, "usable_for_triangulation": true}
{"run_id": "SIM_TEST", "kraken_seq": 125, "telemetry_seq": 78, "t_rx_ms": 1774580917426, "dt_ms": -48, "doa_deg": 294.0, "confidence_0_1": 0.8348864155422523, "lat_deg": 34.001866463283605, "lon_deg": -117.99703091161193, "altitude_rel_ft": 36.5105, "yaw_deg": 195.0136, "pitch_deg": -3.8089, "roll_deg": -8.3601, "ground_speed_ft_s": 7.8892, "vel_north_m_s": 8.714, "vel_east_m_s": -8.8231, "vel_down_m_s": -0.5137, "usable_for_triangulation": true}
{"run_id": "SIM_TEST", "kraken_seq": 126, "telemetry_seq": 79, "t_rx_ms": 1774580917527, "dt_ms": -48, "doa_deg": 2.0, "confidence_0_1": 0.4488238049209271, "lat_deg": 34.007463802595055, "lon_deg": -117.99907711736317, "altitude_rel_ft": 58.1524, "yaw_deg": 201.0175, "pitch_deg": -0.6277, "roll_deg": 6.7494, "ground_speed_ft_s": 12.3455, "vel_north_m_s": -5.7869, "vel_east_m_s": 3.3533, "vel_down_m_s": 0.3731, "usable_for_triangulation": false}
{"run_id": "SIM_TEST", "kraken_seq": 127, "telemetry_seq": 80, "t_rx_ms": 1774580917628, "dt_ms": -49, "doa_deg": 216.0, "confidence_0_1": 0.1642652504027513, "lat_deg": 34.00916913130621, "lon_deg": -117.9930530696138, "altitude_rel_ft": 80.4637, "yaw_deg": 182.4408, "pitch_deg": -9.6416, "roll_deg": -8.0826, "ground_speed_ft_s": 38.1161, "vel_north_m_s": -5.8864, "vel_east_m_s": 9.6758, "vel_down_m_s": 0.0596, "usable_for_triangulation": false}
{"run_id": "SIM_TEST", "kraken_seq": 128, "telemetry_seq": 81, "t_rx_ms": 1774580917729, "dt_ms": -48, "doa_deg": 331.0, "confidence_0_1": 0.9860449268760328, "lat_deg": 33.998442243435676, "lon_deg": -118.00128069153044, "altitude_rel_ft": 92.5499, "yaw_deg": 64.1179, "pitch_deg": -1.9378, "roll_deg": 3.2299, "ground_speed_ft_s": 27.7354, "vel_north_m_s": 8.0033, "vel_east_m_s": 6.4537, "vel_down_m_s": 0.7728, "usable_for_triangulation": true}
{"run_id": "SIM_TEST", "kraken_seq": 129, "telemetry_seq": 82, "t_rx_ms": 1774580917829, "dt_ms": -47, "doa_deg": 130.0, "confidence_0_1": 0.2530456303241727, "lat_deg": 33.993036612879955, "lon_deg": -117.9927298535218, "altitude_rel_ft": 68.3613, "yaw_deg": 244.6329, "pitch_deg": -3.9638, "roll_deg": 10.0933, "ground_speed_ft_s": 27.4012, "vel_north_m_s": 6.5831, "vel_east_m_s": 8.4831, "vel_down_m_s": -0.8213, "usable_for_triangulation": false}
{"run_id": "SIM_TEST", "kraken_seq": 130, "telemetry_seq": 83, "t_rx_ms": 1774580917930, "dt_ms": -47, "doa_deg": 58.0, "confidence_0_1": 0.30493148540372994, "lat_deg": 33.99095725545115, "lon_deg": -118.00797519107056, "altitude_rel_ft": 91.9088, "yaw_deg": 81.3373, "pitch_deg": -3.2905, "roll_deg": -11.6685, "ground_speed_ft_s": 57.5272, "vel_north_m_s": -8.2006, "vel_east_m_s": -0.7296, "vel_down_m_s": 0.5325, "usable_for_triangulation": false}
{"run_id": "SIM_TEST", "kraken_seq": 131, "telemetry_seq": 84, "t_rx_ms": 1774580918032, "dt_ms": -48, "doa_deg": 10.0, "confidence_0_1": 0.030522963620346788, "lat_deg": 34.00646659118449, "lon_deg": -117.99852511372525, "altitude_rel_ft": 52.1589, "yaw_deg": 140.5701, "pitch_deg": 1.4121, "roll_deg": -1.0551, "ground_speed_ft_s": 6.7205, "vel_north_m_s": -2.874, "vel_east_m_s": -6.7428, "vel_down_m_s": -0.8063, "usable_for_triangulation": false}
{"run_id": "SIM_TEST", "kraken_seq": 132, "telemetry_seq": 85, "t_rx_ms": 1774580918133, "dt_ms": -48, "doa_deg": 275.0, "confidence_0_1": 0.6470335749115641, "lat_deg": 34.002374662236996, "lon_deg": -117.99722533419794, "altitude_rel_ft": 67.8478, "yaw_deg": 103.073, "pitch_deg": 3.2923, "roll_deg": 1.9148, "ground_speed_ft_s": 7.7008, "vel_north_m_s": -2.6419, "vel_east_m_s": -4.6765, "vel_down_m_s": -0.9413, "usable_for_triangulation": true}
{"run_id": "SIM_TEST", "kraken_seq": 133, "telemetry_seq": 86, "t_rx_ms": 1774580918235, "dt_ms": -49, "doa_deg": 65.0, "confidence_0_1": 0.33729310235116594, "lat_deg": 33.99485540518865, "lon_deg": -117.99984378553894, "altitude_rel_ft": 25.0635, "yaw_deg": 143.3979, "pitch_deg": 9.5228, "roll_deg": 14.5188, "ground_speed_ft_s": 48.4088, "vel_north_m_s": -0.608, "vel_east_m_s": -4.4511, "vel_down_m_s": -0.2194, "usable_for_triangulation": false}
{"run_id": "SIM_TEST", "kraken_seq": 134, "telemetry_seq": 87, "t_rx_ms": 1774580918335, "dt_ms": -48, "doa_deg": 312.0, "confidence_0_1": 0.3035046981938899, "lat_deg": 34.00789861498366, "lon_deg": -117.9924987719823, "altitude_rel_ft": 43.9072, "yaw_deg": 322.1213, "pitch_deg": -6.5987, "roll_deg": 12.4843, "ground_speed_ft_s": 43.6714, "vel_north_m_s": 6.9787, "vel_east_m_s": 3.8893, "vel_down_m_s": 0.6558, "usable_for_triangulation": false}
{"run_id": "SIM_TEST", "kraken_seq": 135, "telemetry_seq": 88, "t_rx_ms": 1774580918436, "dt_ms": -48, "doa_deg": 188.0, "confidence_0_1": 0.37444927512495185, "lat_deg": 34.00584695138696, "lon_deg": -118.00203222073804, "altitude_rel_ft": 26.6086, "yaw_deg": 91.379, "pitch_deg": -3.6294, "roll_deg": 9.9952, "ground_speed_ft_s": 25.2602, "vel_north_m_s": -4.609, "vel_east_m_s": 6.3631, "vel_down_m_s": -0.9827, "usable_for_triangulation": false}
{"run_id": "SIM_TEST", "kraken_seq": 136, "telemetry_seq": 89, "t_rx_ms": 1774580918538, "dt_ms": -49, "doa_deg": 27.0, "confidence_0_1": 0.9144112375604809, "lat_deg": 34.00464172284593, "lon_deg": -117.99497707417785, "altitude_rel_ft": 65.231, "yaw_deg": 187.7582, "pitch_deg": 1.8772, "roll_deg": -0.3733, "ground_speed_ft_s": 41.4237, "vel_north_m_s": -9.8403, "vel_east_m_s": -3.3505, "vel_down_m_s": 0.32, "usable_for_triangulation": true}
{"run_id": "SIM_TEST", "kraken_seq": 137, "telemetry_seq": 90, "t_rx_ms": 1774580918640, "dt_ms": -50, "doa_deg": 303.0, "confidence_0_1": 0.6576338460609095, "lat_deg": 34.00805313778174, "lon_deg": -118.0047744621879, "altitude_rel_ft": 79.1573, "yaw_deg": 355.2283, "pitch_deg": 7.7896, "roll_deg": 14.2485, "ground_speed_ft_s": 13.7127, "vel_north_m_s": 3.5806, "vel_east_m_s": -4.4673, "vel_down_m_s": 0.9792, "usable_for_triangulation": true}
{"run_id": "SIM_TEST", "kraken_seq": 138, "telemetry_seq": 91, "t_rx_ms": 1774580918740, "dt_ms": -50, "doa_deg": 101.0, "confidence_0_1": 0.6184582645878562, "lat_deg": 34.00954063493907, "lon_deg": -117.99684546959246, "altitude_rel_ft": 87.0279, "yaw_deg": 65.1618, "pitch_deg": 8.9989, "roll_deg": -2.4064, "ground_speed_ft_s": 25.3325, "vel_north_m_s": 2.2575, "vel_east_m_s": -5.5265, "vel_down_m_s": -0.451, "usable_for_triangulation": true}
{"run_id": "SIM_TEST", "kraken_seq": 139, "telemetry_seq": 92, "t_rx_ms": 1774580918841, "dt_ms": -50, "doa_deg": 247.0, "confidence_0_1": 0.1717412270569323, "lat_deg": 33.996759424681656, "lon_deg": -118.00677996087887, "altitude_rel_ft": 35.5636, "yaw_deg": 128.1431, "pitch_deg": 1.2031, "roll_deg": 8.5263, "ground_speed_ft_s": 11.0886, "vel_north_m_s": -1.2302, "vel_east_m_s": -1.6072, "vel_down_m_s": 0.9058, "usable_for_triangulation": false}
{"run_id": "SIM_TEST", "kraken_seq": 140, "telemetry_seq": 93, "t_rx_ms": 1774580918942, "dt_ms": -49, "doa_deg": 141.0, "confidence_0_1": 0.6684200456166005, "lat_deg": 33.99860360083988, "lon_deg": -117.99493495013508, "altitude_rel_ft": 50.1133, "yaw_deg": 343.2766, "pitch_deg": 2.2489, "roll_deg": 7.4503, "ground_speed_ft_s": 36.3628, "vel_north_m_s": -4.1458, "vel_east_m_s": -7.9731, "vel_down_m_s": -0.437, "usable_for_triangulation": true}
{"run_id": "SIM_TEST", "kraken_seq": 141, "telemetry_seq": 94, "t_rx_ms": 1774580919043, "dt_ms": -49, "doa_deg": 307.0, "confidence_0_1": 0.9466836749347299, "lat_deg": 34.00985556211089, "lon_deg": -118.00340067087426, "altitude_rel_ft": 59.4162, "yaw_deg": 290.8219, "pitch_deg": 2.1236, "roll_deg": 8.5973, "ground_speed_ft_s": 31.9165, "vel_north_m_s": 2.806, "vel_east_m_s": 1.1633, "vel_down_m_s": 0.6266, "usable_for_triangulation": true}
{"run_id": "SIM_TEST", "kraken_seq": 142, "telemetry_seq": 95, "t_rx_ms": 1774580919144, "dt_ms": -49, "doa_deg": 249.0, "confidence_0_1": 0.9637929103689, "lat_deg": 33.997317123177176, "lon_deg": -117.99402508168345, "altitude_rel_ft": 63.6118, "yaw_deg": 133.7846, "pitch_deg": 8.264, "roll_deg": -10.4458, "ground_speed_ft_s": 27.9298, "vel_north_m_s": -7.6326, "vel_east_m_s": -7.9273, "vel_down_m_s": 0.5856, "usable_for_triangulation": true}
{"run_id": "SIM_TEST", "kraken_seq": 143, "telemetry_seq": 96, "t_rx_ms": 1774580919245, "dt_ms": -49, "doa_deg": 2.0, "confidence_0_1": 0.41554775807455646, "lat_deg": 34.0023501959421, "lon_deg": -117.9958417627467, "altitude_rel_ft": 37.4252, "yaw_deg": 273.6455, "pitch_deg": -5.945, "roll_deg": 11.3227, "ground_speed_ft_s": 51.9103, "vel_north_m_s": -6.6712, "vel_east_m_s": -1.8421, "vel_down_m_s": -0.525, "usable_for_triangulation": false}
{"run_id": "SIM_TEST", "kraken_seq": 144, "telemetry_seq": 97, "t_rx_ms": 1774580919346, "dt_ms": -49, "doa_deg": 109.0, "confidence_0_1": 0.9892640036159344, "lat_deg": 33.994304066901385, "lon_deg": -117.99310211898089, "altitude_rel_ft": 89.3098, "yaw_deg": 187.052, "pitch_deg": 4.1688, "roll_deg": -6.9639, "ground_speed_ft_s": 48.3636, "vel_north_m_s": -6.5996, "vel_east_m_s": 7.7727, "vel_down_m_s": -0.1536, "usable_for_triangulation": true}
{"run_id": "SIM_TEST", "kraken_seq": 145, "telemetry_seq": 98, "t_rx_ms": 1774580919447, "dt_ms": -48, "doa_deg": 226.0, "confidence_0_1": 0.4603565754792731, "lat_deg": 34.001091912836955, "lon_deg": -117.99559044923885, "altitude_rel_ft": 21.6111, "yaw_deg": 335.6328, "pitch_deg": -4.7071, "roll_deg": -11.485, "ground_speed_ft_s": 14.4112, "vel_north_m_s": -0.377, "vel_east_m_s": 2.3144, "vel_down_m_s": 0.1077, "usable_for_triangulation": false}
{"run_id": "SIM_TEST", "kraken_seq": 146, "telemetry_seq": 99, "t_rx_ms": 1774580919547, "dt_ms": -48, "doa_deg": 312.0, "confidence_0_1": 0.5246674768576258, "lat_deg": 33.99130335647476, "lon_deg": -117.99136948838559, "altitude_rel_ft": 89.3744, "yaw_deg": 182.5569, "pitch_deg": -9.9573, "roll_deg": 4.2625, "ground_speed_ft_s": 21.5858, "vel_north_m_s": -8.2567, "vel_east_m_s": -2.1751, "vel_down_m_s": 0.9438, "usable_for_triangulation": true}
{"run_id": "SIM_TEST", "kraken_seq": 147, "telemetry_seq": 100, "t_rx_ms": 1774580919648, "dt_ms": -48, "doa_deg": 54.0, "confidence_0_1": 0.07007383754813412, "lat_deg": 34.00891049891265, "lon_deg": -118.00754658188913, "altitude_rel_ft": 32.9077, "yaw_deg": 137.0617, "pitch_deg": 7.6474, "roll_deg": -2.9312, "ground_speed_ft_s": 5.0244, "vel_north_m_s": 6.7959, "vel_east_m_s": 2.1214, "vel_down_m_s": -0.6012, "usable_for_triangulation": false}
{"run_id": "SIM_TEST", "kraken_seq": 148, "telemetry_seq": 101, "t_rx_ms": 1774580919749, "dt_ms": -48, "doa_deg": 343.0, "confidence_0_1": 0.5701473565438019, "lat_deg": 34.00841891252543, "lon_deg": -117.99579467669925, "altitude_rel_ft": 86.9441, "yaw_deg": 122.9876, "pitch_deg": 8.7951, "roll_deg": -12.7198, "ground_speed_ft_s": 27.8207, "vel_north_m_s": -5.9775, "vel_east_m_s": -7.078, "vel_down_m_s": 0.8384, "usable_for_triangulation": true}
{"run_id": "SIM_TEST", "kraken_seq": 149, "telemetry_seq": 102, "t_rx_ms": 1774580919850, "dt_ms": -48, "doa_deg": 15.0, "confidence_0_1": 0.291572899046886, "lat_deg": 34.00375058768102, "lon_deg": -117.99336751315549, "altitude_rel_ft": 75.4089, "yaw_deg": 322.294, "pitch_deg": -7.0022, "roll_deg": 3.4258, "ground_speed_ft_s": 23.0142, "vel_north_m_s": -1.1086, "vel_east_m_s": -4.7888, "vel_down_m_s": 0.6872, "usable_for_triangulation": false}
{"run_id": "SIM_TEST", "kraken_seq": 150, "telemetry_seq": 103, "t_rx_ms": 1774580919951, "dt_ms": -47, "doa_deg": 320.0, "confidence_0_1": 0.061850685555469354, "lat_deg": 34.001024507481375, "lon_deg": -117.99162327000619, "altitude_rel_ft": 79.5664, "yaw_deg": 51.5876, "pitch_deg": 6.6902, "roll_deg": -5.8173, "ground_speed_ft_s": 5.5247, "vel_north_m_s": -5.5694, "vel_east_m_s": -4.0794, "vel_down_m_s": -0.9474, "usable_for_triangulation": false}
{"run_id": "SIM_TEST", "kraken_seq": 151, "telemetry_seq": 104, "t_rx_ms": 1774580920053, "dt_ms": -48, "doa_deg": 135.0, "confidence_0_1": 0.17444140120603846, "lat_deg": 34.00548647388711, "lon_deg": -117.99044154097098, "altitude_rel_ft": 55.3013, "yaw_deg": 65.0327, "pitch_deg": 6.2991, "roll_deg": -12.0816, "ground_speed_ft_s": 38.2339, "vel_north_m_s": 6.7989, "vel_east_m_s": -1.0135, "vel_down_m_s": -0.4133, "usable_for_triangulation": false}
{"run_id": "SIM_TEST", "kraken_seq": 152, "telemetry_seq": 105, "t_rx_ms": 1774580920154, "dt_ms": -48, "doa_deg": 132.0, "confidence_0_1": 0.40415998459792946, "lat_deg": 33.99707635793486, "lon_deg": -117.99942401346121, "altitude_rel_ft": 70.9141, "yaw_deg": 90.773, "pitch_deg": 6.4931, "roll_deg": -13.1527, "ground_speed_ft_s": 17.1579, "vel_north_m_s": 3.6506, "vel_east_m_s": 2.7682, "vel_down_m_s": -0.395, "usable_for_triangulation": false}
{"run_id": "SIM_TEST", "kraken_seq": 153, "telemetry_seq": 106, "t_rx_ms": 1774580920255, "dt_ms": -48, "doa_deg": 153.0, "confidence_0_1": 0.8681543423440172, "lat_deg": 34.00304350806794, "lon_deg": -118.00447437094311, "altitude_rel_ft": 40.3099, "yaw_deg": 194.5209, "pitch_deg": 3.9062, "roll_deg": -11.9905, "ground_speed_ft_s": 53.4793, "vel_north_m_s": 1.0828, "vel_east_m_s": 9.1613, "vel_down_m_s": -0.8162, "usable_for_triangulation": true}
{"run_id": "SIM_TEST", "kraken_seq": 154, "telemetry_seq": 107, "t_rx_ms": 1774580920356, "dt_ms": -48, "doa_deg": 118.0, "confidence_0_1": 0.5114191609691254, "lat_deg": 33.99745661617578, "lon_deg": -117.9958933618455, "altitude_rel_ft": 43.8027, "yaw_deg": 240.1152, "pitch_deg": 6.9154, "roll_deg": -1.8552, "ground_speed_ft_s": 45.9351, "vel_north_m_s": 7.506, "vel_east_m_s": 3.5453, "vel_down_m_s": -0.8487, "usable_for_triangulation": true}
{"run_id": "SIM_TEST", "kraken_seq": 155, "telemetry_seq": 108, "t_rx_ms": 1774580920457, "dt_ms": -47, "doa_deg": 143.0, "confidence_0_1": 0.901851515868543, "lat_deg": 33.994920219577, "lon_deg": -118.00577904656022, "altitude_rel_ft": 60.698, "yaw_deg": 180.6139, "pitch_deg": -6.7531, "roll_deg": 8.1047, "ground_speed_ft_s": 23.9468, "vel_north_m_s": 3.957, "vel_east_m_s": -7.5582, "vel_down_m_s": 0.551, "usable_for_triangulation": true}
{"run_id": "SIM_TEST", "kraken_seq": 156, "telemetry_seq": 109, "t_rx_ms": 1774580920558, "dt_ms": -47, "doa_deg": 192.0, "confidence_0_1": 0.28108153656214996, "lat_deg": 33.99639889198899, "lon_deg": -117.99590610430569, "altitude_rel_ft": 36.2672, "yaw_deg": 89.977, "pitch_deg": 1.3405, "roll_deg": 11.221, "ground_speed_ft_s": 36.6157, "vel_north_m_s": 5.8848, "vel_east_m_s": -8.5985, "vel_down_m_s": 0.1397, "usable_for_triangulation": false}
{"run_id": "SIM_TEST", "kraken_seq": 157, "telemetry_seq": 110, "t_rx_ms": 1774580920659, "dt_ms": -47, "doa_deg": 253.0, "confidence_0_1": 0.6360981963018523, "lat_deg": 33.998432277655226, "lon_deg": -118.00274663695149, "altitude_rel_ft": 65.1107, "yaw_deg": 319.4502, "pitch_deg": 6.583, "roll_deg": -10.0826, "ground_speed_ft_s": 39.6396, "vel_north_m_s": -2.7761, "vel_east_m_s": -6.0835, "vel_down_m_s": -0.1681, "usable_for_triangulation": true}
{"run_id": "SIM_TEST", "kraken_seq": 158, "telemetry_seq": 111, "t_rx_ms": 1774580920760, "dt_ms": -46, "doa_deg": 97.0, "confidence_0_1": 0.7325122294841366, "lat_deg": 34.00951065592473, "lon_deg": -117.99863907509557, "altitude_rel_ft": 96.6662, "yaw_deg": 299.1801, "pitch_deg": -4.1222, "roll_deg": -14.6179, "ground_speed_ft_s": 48.3939, "vel_north_m_s": 8.5131, "vel_east_m_s": -6.2081, "vel_down_m_s": 0.6707, "usable_for_triangulation": true}
{"run_id": "SIM_TEST", "kraken_seq": 159, "telemetry_seq": 112, "t_rx_ms": 1774580920861, "dt_ms": -46, "doa_deg": 324.0, "confidence_0_1": 0.926126759695632, "lat_deg": 33.991353208843016, "lon_deg": -118.007670566624, "altitude_rel_ft": 76.7385, "yaw_deg": 181.6265, "pitch_deg": 0.5139, "roll_deg": -2.1388, "ground_speed_ft_s": 50.2515, "vel_north_m_s": -7.9442, "vel_east_m_s": 4.5114, "vel_down_m_s": -0.968, "usable_for_triangulation": true}
{"run_id": "SIM_TEST", "kraken_seq": 160, "telemetry_seq": 113, "t_rx_ms": 1774580920962, "dt_ms": -46, "doa_deg": 10.0, "confidence_0_1": 0.15689026668245287, "lat_deg": 34.00778707767803, "lon_deg": -118.00017024221515, "altitude_rel_ft": 62.8789, "yaw_deg": 125.667, "pitch_deg": 3.5258, "roll_deg": 13.5706, "ground_speed_ft_s": 18.953, "vel_north_m_s": 0.7581, "vel_east_m_s": -4.4125, "vel_down_m_s": 0.7017, "usable_for_triangulation": false}
{"run_id": "SIM_TEST", "kraken_seq": 161, "telemetry_seq": 114, "t_rx_ms": 1774580921063, "dt_ms": -46, "doa_deg": 50.0, "confidence_0_1": 0.8846065566313083, "lat_deg": 33.99302694236749, "lon_deg": -117.99163971007634, "altitude_rel_ft": 49.7765, "yaw_deg": 289.12, "pitch_deg": 8.1171, "roll_deg": -14.0166, "ground_speed_ft_s": 34.1499, "vel_north_m_s": -9.0068, "vel_east_m_s": -9.5767, "vel_down_m_s": -0.3035, "usable_for_triangulation": true}
{"run_id": "SIM_TEST", "kraken_seq": 162, "telemetry_seq": 115, "t_rx_ms": 1774580921164, "dt_ms": -46, "doa_deg": 49.0, "confidence_0_1": 0.8787854069926685, "lat_deg": 34.00706255611597, "lon_deg": -118.00118034718558, "altitude_rel_ft": 69.7572, "yaw_deg": 139.3, "pitch_deg": 1.0568, "roll_deg": 4.566, "ground_speed_ft_s": 31.1368, "vel_north_m_s": 7.5599, "vel_east_m_s": -2.2994, "vel_down_m_s": -0.8517, "usable_for_triangulation": true}
{"run_id": "SIM_TEST", "kraken_seq": 163, "telemetry_seq": 116, "t_rx_ms": 1774580921266, "dt_ms": -47, "doa_deg": 185.0, "confidence_0_1": 0.61078429449954, "lat_deg": 34.00852050041025, "lon_deg": -117.99515287802294, "altitude_rel_ft": 24.6847, "yaw_deg": 13.8925, "pitch_deg": 0.9741, "roll_deg": -7.3097, "ground_speed_ft_s": 56.7868, "vel_north_m_s": 5.246, "vel_east_m_s": 6.5377, "vel_down_m_s": -0.1389, "usable_for_triangulation": true}
{"run_id": "SIM_TEST", "kraken_seq": 164, "telemetry_seq": 117, "t_rx_ms": 1774580921366, "dt_ms": -45, "doa_deg": 213.0, "confidence_0_1": 0.9331860428044929, "lat_deg": 34.0041487574576, "lon_deg": -117.99434017036953, "altitude_rel_ft": 89.9701, "yaw_deg": 57.632, "pitch_deg": 4.3349, "roll_deg": 14.2821, "ground_speed_ft_s": 10.1777, "vel_north_m_s": -2.8332, "vel_east_m_s": 5.1818, "vel_down_m_s": 0.3578, "usable_for_triangulation": true}
{"run_id": "SIM_TEST", "kraken_seq": 165, "telemetry_seq": 118, "t_rx_ms": 1774580921467, "dt_ms": -45, "doa_deg": 193.0, "confidence_0_1": 0.17546026254474179, "lat_deg": 34.008739087501276, "lon_deg": -118.00238653573334, "altitude_rel_ft": 88.7658, "yaw_deg": 196.6202, "pitch_deg": -9.8546, "roll_deg": 0.8689, "ground_speed_ft_s": 29.0749, "vel_north_m_s": -5.5327, "vel_east_m_s": -3.4436, "vel_down_m_s": 0.791, "usable_for_triangulation": false}
{"run_id": "SIM_TEST", "kraken_seq": 166, "telemetry_seq": 119, "t_rx_ms": 1774580921568, "dt_ms": -45, "doa_deg": 119.0, "confidence_0_1": 0.685535286785349, "lat_deg": 34.00585298349813, "lon_deg": -117.99166836250535, "altitude_rel_ft": 89.4168, "yaw_deg": 8.502, "pitch_deg": 5.5333, "roll_deg": 9.1187, "ground_speed_ft_s": 27.5343, "vel_north_m_s": 4.1991, "vel_east_m_s": 4.9859, "vel_down_m_s": 0.9561, "usable_for_triangulation": true}
{"run_id": "SIM_TEST", "kraken_seq": 167, "telemetry_seq": 120, "t_rx_ms": 1774580921669, "dt_ms": -45, "doa_deg": 314.0, "confidence_0_1": 0.4459851099211387, "lat_deg": 33.993957958384186, "lon_deg": -118.00263711692045, "altitude_rel_ft": 67.705, "yaw_deg": 97.5902, "pitch_deg": 7.9146, "roll_deg": -13.8072, "ground_speed_ft_s": 49.7841, "vel_north_m_s": -2.3969, "vel_east_m_s": 3.7982, "vel_down_m_s": 0.1175, "usable_for_triangulation": false}
{"run_id": "SIM_TEST", "kraken_seq": 168, "telemetry_seq": 121, "t_rx_ms": 1774580921770, "dt_ms": -45, "doa_deg": 280.0, "confidence_0_1": 0.7923535728244462, "lat_deg": 33.99112060838134, "lon_deg": -118.00112323273089, "altitude_rel_ft": 21.2399, "yaw_deg": 225.9901, "pitch_deg": -5.8687, "roll_deg": -1.5509, "ground_speed_ft_s": 31.1185, "vel_north_m_s": 1.7344, "vel_east_m_s": 7.9848, "vel_down_m_s": 0.2058, "usable_for_triangulation": true}
{"run_id": "SIM_TEST", "kraken_seq": 169, "telemetry_seq": 122, "t_rx_ms": 1774580921871, "dt_ms": -44, "doa_deg": 265.0, "confidence_0_1": 0.5518461737805949, "lat_deg": 33.99089552354881, "lon_deg": -117.992777093565, "altitude_rel_ft": 93.955, "yaw_deg": 214.2477, "pitch_deg": 2.8478, "roll_deg": -4.8653, "ground_speed_ft_s": 6.343, "vel_north_m_s": 2.8258, "vel_east_m_s": -1.943, "vel_down_m_s": -0.305, "usable_for_triangulation": true}
{"run_id": "SIM_TEST", "kraken_seq": 170, "telemetry_seq": 123, "t_rx_ms": 1774580921973, "dt_ms": -45, "doa_deg": 254.0, "confidence_0_1": 0.23506090200094165, "lat_deg": 33.997276605098754, "lon_deg": -117.99631234143571, "altitude_rel_ft": 23.4466, "yaw_deg": 331.2876, "pitch_deg": -3.2026, "roll_deg": -3.4083, "ground_speed_ft_s": 30.1108, "vel_north_m_s": 9.8923, "vel_east_m_s": 7.8603, "vel_down_m_s": -0.9953, "usable_for_triangulation": false}
{"run_id": "SIM_TEST", "kraken_seq": 171, "telemetry_seq": 124, "t_rx_ms": 1774580922074, "dt_ms": -45, "doa_deg": 18.0, "confidence_0_1": 0.3798463141608319, "lat_deg": 34.001856178720445, "lon_deg": -117.9959271433778, "altitude_rel_ft": 34.8909, "yaw_deg": 207.5117, "pitch_deg": -9.7598, "roll_deg": 5.2579, "ground_speed_ft_s": 6.1392, "vel_north_m_s": 5.1134, "vel_east_m_s": -6.3478, "vel_down_m_s": -0.2052, "usable_for_triangulation": false}
{"run_id": "SIM_TEST", "kraken_seq": 172, "telemetry_seq": 125, "t_rx_ms": 1774580922175, "dt_ms": -45, "doa_deg": 211.0, "confidence_0_1": 0.3890643215691013, "lat_deg": 34.009331137376826, "lon_deg": -117.99736164311781, "altitude_rel_ft": 46.1398, "yaw_deg": 244.4223, "pitch_deg": 9.8433, "roll_deg": 13.11, "ground_speed_ft_s": 40.3352, "vel_north_m_s": -5.3473, "vel_east_m_s": -5.8674, "vel_down_m_s": 0.9404, "usable_for_triangulation": false}
{"run_id": "SIM_TEST", "kraken_seq": 173, "telemetry_seq": 126, "t_rx_ms": 1774580922275, "dt_ms": -45, "doa_deg": 84.0, "confidence_0_1": 0.7267403319653943, "lat_deg": 33.99127437086252, "lon_deg": -117.9979216328548, "altitude_rel_ft": 28.1752, "yaw_deg": 244.7654, "pitch_deg": 6.653, "roll_deg": 2.8734, "ground_speed_ft_s": 18.8673, "vel_north_m_s": -9.2373, "vel_east_m_s": -8.4344, "vel_down_m_s": -0.2051, "usable_for_triangulation": true}
{"run_id": "SIM_TEST", "kraken_seq": 174, "telemetry_seq": 127, "t_rx_ms": 1774580922376, "dt_ms": -45, "doa_deg": 339.0, "confidence_0_1": 0.610265425182287, "lat_deg": 34.005555138440414, "lon_deg": -117.99426767344676, "altitude_rel_ft": 27.5314, "yaw_deg": 239.9094, "pitch_deg": 7.2366, "roll_deg": 5.5407, "ground_speed_ft_s": 13.4522, "vel_north_m_s": -7.0838, "vel_east_m_s": -1.5944, "vel_down_m_s": -0.7185, "usable_for_triangulation": true}
{"run_id": "SIM_TEST", "kraken_seq": 175, "telemetry_seq": 128, "t_rx_ms": 1774580922476, "dt_ms": -44, "doa_deg": 260.0, "confidence_0_1": 0.6169781402943386, "lat_deg": 34.00319714220633, "lon_deg": -117.99199937839647, "altitude_rel_ft": 55.6795, "yaw_deg": 103.2733, "pitch_deg": -4.4734, "roll_deg": 13.8826, "ground_speed_ft_s": 11.9341, "vel_north_m_s": 5.2469, "vel_east_m_s": -5.2823, "vel_down_m_s": 0.9232, "usable_for_triangulation": true}
{"run_id": "SIM_TEST", "kraken_seq": 176, "telemetry_seq": 129, "t_rx_ms": 1774580922577, "dt_ms": -44, "doa_deg": 220.0, "confidence_0_1": 0.09313838242186812, "lat_deg": 34.0034215870882, "lon_deg": -118.00676265420995, "altitude_rel_ft": 71.0988, "yaw_deg": 126.3845, "pitch_deg": 5.2392, "roll_deg": -2.6391, "ground_speed_ft_s": 44.475, "vel_north_m_s": 5.8584, "vel_east_m_s": -2.2657, "vel_down_m_s": -0.7283, "usable_for_triangulation": false}
