{"t_rx_ms": 1773434917442, "run_id": "20260313_130557", "seq": 102, "pitch_deg": 1.0115, "yaw_deg": 31.866, "roll_deg": -0.8756, "lat_deg": 34.0410131, "lon_deg": -117.8175005, "altitude_rel_ft": 0.3445, "ground_speed_ft_s": 13.9838, "vel_north_m_s": 3.62, "vel_east_m_s": 2.25, "vel_down_m_s": 0.0, "battery_remain_pct": 9900.0}
{"t_rx_ms": 1773434917641, "run_id": "20260313_130557", "seq": 103, "pitch_deg": 1.0115, "yaw_deg": 31.866, "roll_deg": -0.8756, "lat_deg": 34.0410131, "lon_deg": -117.8175005, "altitude_rel_ft": 0.3445, "ground_speed_ft_s": 13.9838, "vel_north_m_s": 3.62, "vel_east_m_s": 2.25, "vel_down_m_s": 0.0, "battery_remain_pct": 9900.0}
{"t_rx_ms": 1773434917842, "run_id": "20260313_130557", "seq": 104, "pitch_deg": 1.0115, "yaw_deg": 31.866, "roll_deg": -0.8756, "lat_deg": 34.0410131, "lon_deg": -117.8175005, "altitude_rel_ft": 0.3445, "ground_speed_ft_s": 13.9838, "vel_north_m_s": 3.62, "vel_east_m_s": 2.25, "vel_down_m_s": 0.0, "battery_remain_pct": 9900.0}
{"t_rx_ms": 1773434918044, "run_id": "20260313_130557", "seq": 105, "pitch_deg": 2.2899, "yaw_deg": 31.3112, "roll_deg": 0.5855, "lat_deg": 34.041045499999996, "lon_deg": -117.81747589999999, "altitude_rel_ft": 1.0499, "ground_speed_ft_s": 13.9251, "vel_north_m_s": 3.58, "vel_east_m_s": 2.28, "vel_down_m_s": -0.06, "battery_remain_pct": 9900.0}
{"t_rx_ms": 1773434918244, "run_id": "20260313_130557", "seq": 106, "pitch_deg": 2.2899, "yaw_deg": 31.3112, "roll_deg": 0.5855, "lat_deg": 34.041045499999996, "lon_deg": -117.81747589999999, "altitude_rel_ft": 1.0499, "ground_speed_ft_s": 13.9251, "vel_north_m_s": 3.58, "vel_east_m_s": 2.28, "vel_down_m_s": -0.06, "battery_remain_pct": 9900.0}
{"t_rx_ms": 1773434918445, "run_id": "20260313_130557", "seq": 107, "pitch_deg": 2.2899, "yaw_deg": 31.3112, "roll_deg": 0.5855, "lat_deg": 34.041045499999996, "lon_deg": -117.81747589999999, "altitude_rel_ft": 1.0499, "ground_speed_ft_s": 13.9251, "vel_north_m_s": 3.58, "vel_east_m_s": 2.28, "vel_down_m_s": -0.06, "battery_remain_pct": 9900.0}
{"t_rx_ms": 1773434918645, "run_id": "20260313_130557", "seq": 108, "pitch_deg": 2.2899, "yaw_deg": 31.3112, "roll_deg": 0.5855, "lat_deg": 34.041045499999996, "lon_deg": -117.81747589999999, "altitude_rel_ft": 1.0499, "ground_speed_ft_s": 13.9251, "vel_north_m_s": 3.58, "vel_east_m_s": 2.28, "vel_down_m_s": -0.06, "battery_remain_pct": 9900.0}
{"t_rx_ms": 1773434918845, "run_id": "20260313_130557", "seq": 109, "pitch_deg": 2.2899, "yaw_deg": 31.3112, "roll_deg": 0.5855, "lat_deg": 34.041045499999996, "lon_deg": -117.81747589999999, "altitude_rel_ft": 1.0499, "ground_speed_ft_s": 13.9251, "vel_north_m_s": 3.58, "vel_east_m_s": 2.28, "vel_down_m_s": -0.06, "battery_remain_pct": 9900.0}
{"t_rx_ms": 1773434919046, "run_id": "20260313_130557", "seq": 110, "pitch_deg": 3.4425, "yaw_deg": 31.3973, "roll_deg": 2.0408, "lat_deg": 34.0410773, "lon_deg": -117.81745169999999, "altitude_rel_ft": 0.7119, "ground_speed_ft_s": 13.5352, "vel_north_m_s": 3.49, "vel_east_m_s": 2.2, "vel_down_m_s": -0.05, "battery_remain_pct": 9900.0}
{"t_rx_ms": 1773434919247, "run_id": "20260313_130557", "seq": 111, "pitch_deg": 3.4425, "yaw_deg": 31.3973, "roll_deg": 2.0408, "lat_deg": 34.0410773, "lon_deg": -117.81745169999999, "altitude_rel_ft": 0.7119, "ground_speed_ft_s": 13.5352, "vel_north_m_s": 3.49, "vel_east_m_s": 2.2, "vel_down_m_s": -0.05, "battery_remain_pct": 9900.0}
{"t_rx_ms": 1773434919447, "run_id": "20260313_130557", "seq": 112, "pitch_deg": 3.4425, "yaw_deg": 31.3973, "roll_deg": 2.0408, "lat_deg": 34.0410773, "lon_deg": -117.81745169999999, "altitude_rel_ft": 0.7119, "ground_speed_ft_s": 13.5352, "vel_north_m_s": 3.49, "vel_east_m_s": 2.2, "vel_down_m_s": -0.05, "battery_remain_pct": 9900.0}
{"t_rx_ms": 1773434919648, "run_id": "20260313_130557", "seq": 113, "pitch_deg": 3.4425, "yaw_deg": 31.3973, "roll_deg": 2.0408, "lat_deg": 34.0410773, "lon_deg": -117.81745169999999, "altitude_rel_ft": 0.7119, "ground_speed_ft_s": 13.5352, "vel_north_m_s": 3.49, "vel_east_m_s": 2.2, "vel_down_m_s": -0.05, "battery_remain_pct": 9900.0}
{"t_rx_ms": 1773434919848, "run_id": "20260313_130557", "seq": 114, "pitch_deg": 3.4425, "yaw_deg": 31.3973, "roll_deg": 2.0408, "lat_deg": 34.0410773, "lon_deg": -117.81745169999999, "altitude_rel_ft": 0.7119, "ground_speed_ft_s": 13.5352, "vel_north_m_s": 3.49, "vel_east_m_s": 2.2, "vel_down_m_s": -0.05, "battery_remain_pct": 9900.0}
{"t_rx_ms": 1773434920050, "run_id": "20260313_130557", "seq": 115, "pitch_deg": 3.1281, "yaw_deg": 31.2548, "roll_deg": 0.6877, "lat_deg": 34.0411079, "lon_deg": -117.8174282, "altitude_rel_ft": 0.4888, "ground_speed_ft_s": 13.0774, "vel_north_m_s": 3.35, "vel_east_m_s": 2.16, "vel_down_m_s": 0.01, "battery_remain_pct": 9900.0}
{"t_rx_ms": 1773434920250, "run_id": "20260313_130557", "seq": 116, "pitch_deg": 3.1281, "yaw_deg": 31.2548, "roll_deg": 0.6877, "lat_deg": 34.0411079, "lon_deg": -117.8174282, "altitude_rel_ft": 0.4888, "ground_speed_ft_s": 13.0774, "vel_north_m_s": 3.35, "vel_east_m_s": 2.16, "vel_down_m_s": 0.01, "battery_remain_pct": 9900.0}
{"t_rx_ms": 1773434920451, "run_id": "20260313_130557", "seq": 117, "pitch_deg": 3.1281, "yaw_deg": 31.2548, "roll_deg": 0.6877, "lat_deg": 34.0411079, "lon_deg": -117.8174282, "altitude_rel_ft": 0.4888, "ground_speed_ft_s": 13.0774, "vel_north_m_s": 3.35, "vel_east_m_s": 2.16, "vel_down_m_s": 0.01, "battery_remain_pct": 9900.0}
{"t_rx_ms": 1773434920651, "run_id": "20260313_130557", "seq": 118, "pitch_deg": 3.1281, "yaw_deg": 31.2548, "roll_deg": 0.6877, "lat_deg": 34.0411079, "lon_deg": -117.8174282, "altitude_rel_ft": 0.4888, "ground_speed_ft_s": 13.0774, "vel_north_m_s": 3.35, "vel_east_m_s": 2.16, "vel_down_m_s": 0.01, "battery_remain_pct": 9900.0}
{"t_rx_ms": 1773434920851, "run_id": "20260313_130557", "seq": 119, "pitch_deg": 3.1281, "yaw_deg": 31.2548, "roll_deg": 0.6877, "lat_deg": 34.0411079, "lon_deg": -117.8174282, "altitude_rel_ft": 0.4888, "ground_speed_ft_s": 13.0774, "vel_north_m_s": 3.35, "vel_east_m_s": 2.16, "vel_down_m_s": 0.01, "battery_remain_pct": 9900.0}
{"t_rx_ms": 1773434921052, "run_id": "20260313_130557", "seq": 120, "pitch_deg": 3.2833, "yaw_deg": 31.1206, "roll_deg": 1.9636, "lat_deg": 34.041139, "lon_deg": -117.8174049, "altitude_rel_ft": 1.4272, "ground_speed_ft_s": 13.3821, "vel_north_m_s": 3.46, "vel_east_m_s": 2.16, "vel_down_m_s": -0.08, "battery_remain_pct": 9900.0}
{"t_rx_ms": 1773434921252, "run_id": "20260313_130557", "seq": 121, "pitch_deg": 3.2833, "yaw_deg": 31.1206, "roll_deg": 1.9636, "lat_deg": 34.041139, "lon_deg": -117.8174049, "altitude_rel_ft": 1.4272, "ground_speed_ft_s": 13.3821, "vel_north_m_s": 3.46, "vel_east_m_s": 2.16, "vel_down_m_s": -0.08, "battery_remain_pct": 9900.0}
{"t_rx_ms": 1773434921453, "run_id": "20260313_130557", "seq": 122, "pitch_deg": 3.2833, "yaw_deg": 31.1206, "roll_deg": 1.9636, "lat_deg": 34.041139, "lon_deg": -117.8174049, "altitude_rel_ft": 1.4272, "ground_speed_ft_s": 13.3821, "vel_north_m_s": 3.46, "vel_east_m_s": 2.16, "vel_down_m_s": -0.08, "battery_remain_pct": 9900.0}
{"t_rx_ms": 1773434921654, "run_id": "20260313_130557", "seq": 123, "pitch_deg": 3.2833, "yaw_deg": 31.1206, "roll_deg": 1.9636, "lat_deg": 34.041139, "lon_deg": -117.8174049, "altitude_rel_ft": 1.4272, "ground_speed_ft_s": 13.3821, "vel_north_m_s": 3.46, "vel_east_m_s": 2.16, "vel_down_m_s": -0.08, "battery_remain_pct": 9900.0}
{"t_rx_ms": 1773434921854, "run_id": "20260313_130557", "seq": 124, "pitch_deg": 3.2833, "yaw_deg": 31.1206, "roll_deg": 1.9636, "lat_deg": 34.041139, "lon_deg": -117.8174049, "altitude_rel_ft": 1.4272, "ground_speed_ft_s": 13.3821, "vel_north_m_s": 3.46, "vel_east_m_s": 2.16, "vel_down_m_s": -0.08, "battery_remain_pct": 9900.0}
{"t_rx_ms": 1773434922055, "run_id": "20260313_130557", "seq": 125, "pitch_deg": 3.5303, "yaw_deg": 30.8622, "roll_deg": 3.3893, "lat_deg": 34.0411698, "lon_deg": -117.8173822, "altitude_rel_ft": 1.0597, "ground_speed_ft_s": 13.7129, "vel_north_m_s": 3.56, "vel_east_m_s": 2.19, "vel_down_m_s": -0.01, "battery_remain_pct": 9900.0}
{"t_rx_ms": 1773434922255, "run_id": "20260313_130557", "seq": 126, "pitch_deg": 3.5303, "yaw_deg": 30.8622, "roll_deg": 3.3893, "lat_deg": 34.0411698, "lon_deg": -117.8173822, "altitude_rel_ft": 1.0597, "ground_speed_ft_s": 13.7129, "vel_north_m_s": 3.56, "vel_east_m_s": 2.19, "vel_down_m_s": -0.01, "battery_remain_pct": 9900.0}
{"t_rx_ms": 1773434922456, "run_id": "20260313_130557", "seq": 127, "pitch_deg": 3.5303, "yaw_deg": 30.8622, "roll_deg": 3.3893, "lat_deg": 34.0411698, "lon_deg": -117.8173822, "altitude_rel_ft": 1.0597, "ground_speed_ft_s": 13.7129, "vel_north_m_s": 3.56, "vel_east_m_s": 2.19, "vel_down_m_s": -0.01, "battery_remain_pct": 9900.0}
{"t_rx_ms": 1773434922656, "run_id": "20260313_130557", "seq": 128, "pitch_deg": 3.5303, "yaw_deg": 30.8622, "roll_deg": 3.3893, "lat_deg": 34.0411698, "lon_deg": -117.8173822, "altitude_rel_ft": 1.0597, "ground_speed_ft_s": 13.7129, "vel_north_m_s": 3.56, "vel_east_m_s": 2.19, "vel_down_m_s": -0.01, "battery_remain_pct": 9900.0}
{"t_rx_ms": 1773434922857, "run_id": "20260313_130557", "seq": 129, "pitch_deg": 3.5303, "yaw_deg": 30.8622, "roll_deg": 3.3893, "lat_deg": 34.0411698, "lon_deg": -117.8173822, "altitude_rel_ft": 1.0597, "ground_speed_ft_s": 13.7129, "vel_north_m_s": 3.56, "vel_east_m_s": 2.19, "vel_down_m_s": -0.01, "battery_remain_pct": 9900.0}
{"t_rx_ms": 1773434923058, "run_id": "20260313_130557", "seq": 130, "pitch_deg": 4.221, "yaw_deg": 30.8173, "roll_deg": 3.9971, "lat_deg": 34.0412028, "lon_deg": -117.817358, "altitude_rel_ft": 1.7454, "ground_speed_ft_s": 13.5388, "vel_north_m_s": 3.51, "vel_east_m_s": 2.17, "vel_down_m_s": -0.11, "battery_remain_pct": 9900.0}
{"t_rx_ms": 1773434923258, "run_id": "20260313_130557", "seq": 131, "pitch_deg": 4.221, "yaw_deg": 30.8173, "roll_deg": 3.9971, "lat_deg": 34.0412028, "lon_deg": -117.817358, "altitude_rel_ft": 1.7454, "ground_speed_ft_s": 13.5388, "vel_north_m_s": 3.51, "vel_east_m_s": 2.17, "vel_down_m_s": -0.11, "battery_remain_pct": 9900.0}
{"t_rx_ms": 1773434923459, "run_id": "20260313_130557", "seq": 132, "pitch_deg": 4.221, "yaw_deg": 30.8173, "roll_deg": 3.9971, "lat_deg": 34.0412028, "lon_deg": -117.817358, "altitude_rel_ft": 1.7454, "ground_speed_ft_s": 13.5388, "vel_north_m_s": 3.51, "vel_east_m_s": 2.17, "vel_down_m_s": -0.11, "battery_remain_pct": 9900.0}
{"t_rx_ms": 1773434923659, "run_id": "20260313_130557", "seq": 133, "pitch_deg": 4.221, "yaw_deg": 30.8173, "roll_deg": 3.9971, "lat_deg": 34.0412028, "lon_deg": -117.817358, "altitude_rel_ft": 1.7454, "ground_speed_ft_s": 13.5388, "vel_north_m_s": 3.51, "vel_east_m_s": 2.17, "vel_down_m_s": -0.11, "battery_remain_pct": 9900.0}
{"t_rx_ms": 1773434923860, "run_id": "20260313_130557", "seq": 134, "pitch_deg": 4.221, "yaw_deg": 30.8173, "roll_deg": 3.9971, "lat_deg": 34.0412028, "lon_deg": -117.817358, "altitude_rel_ft": 1.7454, "ground_speed_ft_s": 13.5388, "vel_north_m_s": 3.51, "vel_east_m_s": 2.17, "vel_down_m_s": -0.11, "battery_remain_pct": 9900.0}
{"t_rx_ms": 1773434924061, "run_id": "20260313_130557", "seq": 135, "pitch_deg": 3.9416, "yaw_deg": 30.8334, "roll_deg": 1.7245, "lat_deg": 34.0412349, "lon_deg": -117.81733469999999, "altitude_rel_ft": 0.0951, "ground_speed_ft_s": 13.832, "vel_north_m_s": 3.65, "vel_east_m_s": 2.11, "vel_down_m_s": -0.04, "battery_remain_pct": 9900.0}
{"t_rx_ms": 1773434924261, "run_id": "20260313_130557", "seq": 136, "pitch_deg": 3.9416, "yaw_deg": 30.8334, "roll_deg": 1.7245, "lat_deg": 34.0412349, "lon_deg": -117.81733469999999, "altitude_rel_ft": 0.0951, "ground_speed_ft_s": 13.832, "vel_north_m_s": 3.65, "vel_east_m_s": 2.11, "vel_down_m_s": -0.04, "battery_remain_pct": 9900.0}
{"t_rx_ms": 1773434924462, "run_id": "20260313_130557", "seq": 137, "pitch_deg": 3.9416, "yaw_deg": 30.8334, "roll_deg": 1.7245, "lat_deg": 34.0412349, "lon_deg": -117.81733469999999, "altitude_rel_ft": 0.0951, "ground_speed_ft_s": 13.832, "vel_north_m_s": 3.65, "vel_east_m_s": 2.11, "vel_down_m_s": -0.04, "battery_remain_pct": 9900.0}
{"t_rx_ms": 1773434924662, "run_id": "20260313_130557", "seq": 138, "pitch_deg": 3.9416, "yaw_deg": 30.8334, "roll_deg": 1.7245, "lat_deg": 34.0412349, "lon_deg": -117.81733469999999, "altitude_rel_ft": 0.0951, "ground_speed_ft_s": 13.832, "vel_north_m_s": 3.65, "vel_east_m_s": 2.11, "vel_down_m_s": -0.04, "battery_remain_pct": 9900.0}
{"t_rx_ms": 1773434924863, "run_id": "20260313_130557", "seq": 139, "pitch_deg": 3.9416, "yaw_deg": 30.8334, "roll_deg": 1.7245, "lat_deg": 34.0412349, "lon_deg": -117.81733469999999, "altitude_rel_ft": 0.0951, "ground_speed_ft_s": 13.832, "vel_north_m_s": 3.65, "vel_east_m_s": 2.11, "vel_down_m_s": -0.04, "battery_remain_pct": 9900.0}
{"t_rx_ms": 1773434925064, "run_id": "20260313_130557", "seq": 140, "pitch_deg": 3.8474, "yaw_deg": 30.8201, "roll_deg": 0.5949, "lat_deg": 34.0412673, "lon_deg": -117.81731049999999, "altitude_rel_ft": -0.4528, "ground_speed_ft_s": 13.7237, "vel_north_m_s": 3.57, "vel_east_m_s": 2.18, "vel_down_m_s": -0.04, "battery_remain_pct": 9900.0}
{"t_rx_ms": 1773434925264, "run_id": "20260313_130557", "seq": 141, "pitch_deg": 3.8474, "yaw_deg": 30.8201, "roll_deg": 0.5949, "lat_deg": 34.0412673, "lon_deg": -117.81731049999999, "altitude_rel_ft": -0.4528, "ground_speed_ft_s": 13.7237, "vel_north_m_s": 3.57, "vel_east_m_s": 2.18, "vel_down_m_s": -0.04, "battery_remain_pct": 9900.0}
{"t_rx_ms": 1773434925465, "run_id": "20260313_130557", "seq": 142, "pitch_deg": 3.8474, "yaw_deg": 30.8201, "roll_deg": 0.5949, "lat_deg": 34.0412673, "lon_deg": -117.81731049999999, "altitude_rel_ft": -0.4528, "ground_speed_ft_s": 13.7237, "vel_north_m_s": 3.57, "vel_east_m_s": 2.18, "vel_down_m_s": -0.04, "battery_remain_pct": 9900.0}
{"t_rx_ms": 1773434925665, "run_id": "20260313_130557", "seq": 143, "pitch_deg": 3.8474, "yaw_deg": 30.8201, "roll_deg": 0.5949, "lat_deg": 34.0412673, "lon_deg": -117.81731049999999, "altitude_rel_ft": -0.4528, "ground_speed_ft_s": 13.7237, "vel_north_m_s": 3.57, "vel_east_m_s": 2.18, "vel_down_m_s": -0.04, "battery_remain_pct": 9900.0}
{"t_rx_ms": 1773434925866, "run_id": "20260313_130557", "seq": 144, "pitch_deg": 3.8474, "yaw_deg": 30.8201, "roll_deg": 0.5949, "lat_deg": 34.0412673, "lon_deg": -117.81731049999999, "altitude_rel_ft": -0.4528, "ground_speed_ft_s": 13.7237, "vel_north_m_s": 3.57, "vel_east_m_s": 2.18, "vel_down_m_s": -0.04, "battery_remain_pct": 9900.0}
{"t_rx_ms": 1773434926067, "run_id": "20260313_130557", "seq": 145, "pitch_deg": 4.3324, "yaw_deg": 31.2678, "roll_deg": 3.6547, "lat_deg": 34.0412999, "lon_deg": -117.8172871, "altitude_rel_ft": 0.3346, "ground_speed_ft_s": 13.7627, "vel_north_m_s": 3.59, "vel_east_m_s": 2.17, "vel_down_m_s": -0.01, "battery_remain_pct": 9900.0}
{"t_rx_ms": 1773434926267, "run_id": "20260313_130557", "seq": 146, "pitch_deg": 4.3324, "yaw_deg": 31.2678, "roll_deg": 3.6547, "lat_deg": 34.0412999, "lon_deg": -117.8172871, "altitude_rel_ft": 0.3346, "ground_speed_ft_s": 13.7627, "vel_north_m_s": 3.59, "vel_east_m_s": 2.17, "vel_down_m_s": -0.01, "battery_remain_pct": 9900.0}
{"t_rx_ms": 1773434926467, "run_id": "20260313_130557", "seq": 147, "pitch_deg": 4.3324, "yaw_deg": 31.2678, "roll_deg": 3.6547, "lat_deg": 34.0412999, "lon_deg": -117.8172871, "altitude_rel_ft": 0.3346, "ground_speed_ft_s": 13.7627, "vel_north_m_s": 3.59, "vel_east_m_s": 2.17, "vel_down_m_s": -0.01, "battery_remain_pct": 9900.0}
{"t_rx_ms": 1773434926668, "run_id": "20260313_130557", "seq": 148, "pitch_deg": 4.3324, "yaw_deg": 31.2678, "roll_deg": 3.6547, "lat_deg": 34.0412999, "lon_deg": -117.8172871, "altitude_rel_ft": 0.3346, "ground_speed_ft_s": 13.7627, "vel_north_m_s": 3.59, "vel_east_m_s": 2.17, "vel_down_m_s": -0.01, "battery_remain_pct": 9900.0}
{"t_rx_ms": 1773434926868, "run_id": "20260313_130557", "seq": 149, "pitch_deg": 4.3324, "yaw_deg": 31.2678, "roll_deg": 3.6547, "lat_deg": 34.0412999, "lon_deg": -117.8172871, "altitude_rel_ft": 0.3346, "ground_speed_ft_s": 13.7627, "vel_north_m_s": 3.59, "vel_east_m_s": 2.17, "vel_down_m_s": -0.01, "battery_remain_pct": 9900.0}
{"t_rx_ms": 1773434927069, "run_id": "20260313_130557", "seq": 150, "pitch_deg": 5.2624, "yaw_deg": 31.3219, "roll_deg": 7.3439, "lat_deg": 34.041332499999996, "lon_deg": -117.8172633, "altitude_rel_ft": -0.0459, "ground_speed_ft_s": 13.9652, "vel_north_m_s": 3.65, "vel_east_m_s": 2.19, "vel_down_m_s": -0.02, "battery_remain_pct": 9900.0}
{"t_rx_ms": 1773434927270, "run_id": "20260313_130557", "seq": 151, "pitch_deg": 5.2624, "yaw_deg": 31.3219, "roll_deg": 7.3439, "lat_deg": 34.041332499999996, "lon_deg": -117.8172633, "altitude_rel_ft": -0.0459, "ground_speed_ft_s": 13.9652, "vel_north_m_s": 3.65, "vel_east_m_s": 2.19, "vel_down_m_s": -0.02, "battery_remain_pct": 9900.0}
{"t_rx_ms": 1773434927470, "run_id": "20260313_130557", "seq": 152, "pitch_deg": 5.2624, "yaw_deg": 31.3219, "roll_deg": 7.3439, "lat_deg": 34.041332499999996, "lon_deg": -117.8172633, "altitude_rel_ft": -0.0459, "ground_speed_ft_s": 13.9652, "vel_north_m_s": 3.65, "vel_east_m_s": 2.19, "vel_down_m_s": -0.02, "battery_remain_pct": 9900.0}
{"t_rx_ms": 1773434927670, "run_id": "20260313_130557", "seq": 153, "pitch_deg": 5.2624, "yaw_deg": 31.3219, "roll_deg": 7.3439, "lat_deg": 34.041332499999996, "lon_deg": -117.8172633, "altitude_rel_ft": -0.0459, "ground_speed_ft_s": 13.9652, "vel_north_m_s": 3.65, "vel_east_m_s": 2.19, "vel_down_m_s": -0.02, "battery_remain_pct": 9900.0}
{"t_rx_ms": 1773434927871, "run_id": "20260313_130557", "seq": 154, "pitch_deg": 5.2624, "yaw_deg": 31.3219, "roll_deg": 7.3439, "lat_deg": 34.041332499999996, "lon_deg": -117.8172633, "altitude_rel_ft": -0.0459, "ground_speed_ft_s": 13.9652, "vel_north_m_s": 3.65, "vel_east_m_s": 2.19, "vel_down_m_s": -0.02, "battery_remain_pct": 9900.0}
{"t_rx_ms": 1773434928072, "run_id": "20260313_130557", "seq": 155, "pitch_deg": 4.5448, "yaw_deg": 32.9532, "roll_deg": 1.0385, "lat_deg": 34.041363, "lon_deg": -117.81724109999999, "altitude_rel_ft": -0.0951, "ground_speed_ft_s": 12.6092, "vel_north_m_s": 3.3, "vel_east_m_s": 1.97, "vel_down_m_s": 0.0, "battery_remain_pct": 9900.0}
{"t_rx_ms": 1773434928272, "run_id": "20260313_130557", "seq": 156, "pitch_deg": 4.5448, "yaw_deg": 32.9532, "roll_deg": 1.0385, "lat_deg": 34.041363, "lon_deg": -117.81724109999999, "altitude_rel_ft": -0.0951, "ground_speed_ft_s": 12.6092, "vel_north_m_s": 3.3, "vel_east_m_s": 1.97, "vel_down_m_s": 0.0, "battery_remain_pct": 9900.0}
{"t_rx_ms": 1773434928473, "run_id": "20260313_130557", "seq": 157, "pitch_deg": 4.5448, "yaw_deg": 32.9532, "roll_deg": 1.0385, "lat_deg": 34.041363, "lon_deg": -117.81724109999999, "altitude_rel_ft": -0.0951, "ground_speed_ft_s": 12.6092, "vel_north_m_s": 3.3, "vel_east_m_s": 1.97, "vel_down_m_s": 0.0, "battery_remain_pct": 9900.0}
{"t_rx_ms": 1773434928673, "run_id": "20260313_130557", "seq": 158, "pitch_deg": 4.5448, "yaw_deg": 32.9532, "roll_deg": 1.0385, "lat_deg": 34.041363, "lon_deg": -117.81724109999999, "altitude_rel_ft": -0.0951, "ground_speed_ft_s": 12.6092, "vel_north_m_s": 3.3, "vel_east_m_s": 1.97, "vel_down_m_s": 0.0, "battery_remain_pct": 9900.0}
{"t_rx_ms": 1773434928874, "run_id": "20260313_130557", "seq": 159, "pitch_deg": 4.5448, "yaw_deg": 32.9532, "roll_deg": 1.0385, "lat_deg": 34.041363, "lon_deg": -117.81724109999999, "altitude_rel_ft": -0.0951, "ground_speed_ft_s": 12.6092, "vel_north_m_s": 3.3, "vel_east_m_s": 1.97, "vel_down_m_s": 0.0, "battery_remain_pct": 9900.0}
{"t_rx_ms": 1773434929074, "run_id": "20260313_130557", "seq": 160, "pitch_deg": 6.3206, "yaw_deg": 33.0518, "roll_deg": 1.4974, "lat_deg": 34.0413905, "lon_deg": -117.8172206, "altitude_rel_ft": -0.4724, "ground_speed_ft_s": 11.5914, "vel_north_m_s": 3.01, "vel_east_m_s": 1.85, "vel_down_m_s": -0.02, "battery_remain_pct": 9900.0}
{"t_rx_ms": 1773434929274, "run_id": "20260313_130557", "seq": 161, "pitch_deg": 6.3206, "yaw_deg": 33.0518, "roll_deg": 1.4974, "lat_deg": 34.0413905, "lon_deg": -117.8172206, "altitude_rel_ft": -0.4724, "ground_speed_ft_s": 11.5914, "vel_north_m_s": 3.01, "vel_east_m_s": 1.85, "vel_down_m_s": -0.02, "battery_remain_pct": 9900.0}
{"t_rx_ms": 1773434929475, "run_id": "20260313_130557", "seq": 162, "pitch_deg": 6.3206, "yaw_deg": 33.0518, "roll_deg": 1.4974, "lat_deg": 34.0413905, "lon_deg": -117.8172206, "altitude_rel_ft": -0.4724, "ground_speed_ft_s": 11.5914, "vel_north_m_s": 3.01, "vel_east_m_s": 1.85, "vel_down_m_s": -0.02, "battery_remain_pct": 9900.0}
{"t_rx_ms": 1773434929675, "run_id": "20260313_130557", "seq": 163, "pitch_deg": 6.3206, "yaw_deg": 33.0518, "roll_deg": 1.4974, "lat_deg": 34.0413905, "lon_deg": -117.8172206, "altitude_rel_ft": -0.4724, "ground_speed_ft_s": 11.5914, "vel_north_m_s": 3.01, "vel_east_m_s": 1.85, "vel_down_m_s": -0.02, "battery_remain_pct": 9900.0}
{"t_rx_ms": 1773434929876, "run_id": "20260313_130557", "seq": 164, "pitch_deg": 6.3206, "yaw_deg": 33.0518, "roll_deg": 1.4974, "lat_deg": 34.0413905, "lon_deg": -117.8172206, "altitude_rel_ft": -0.4724, "ground_speed_ft_s": 11.5914, "vel_north_m_s": 3.01, "vel_east_m_s": 1.85, "vel_down_m_s": -0.02, "battery_remain_pct": 9900.0}
{"t_rx_ms": 1773434930077, "run_id": "20260313_130557", "seq": 165, "pitch_deg": 6.3524, "yaw_deg": 32.7556, "roll_deg": 1.9868, "lat_deg": 34.0414154, "lon_deg": -117.8172022, "altitude_rel_ft": 0.5577, "ground_speed_ft_s": 10.5667, "vel_north_m_s": 2.76, "vel_east_m_s": 1.66, "vel_down_m_s": 0.03, "battery_remain_pct": 9900.0}
{"t_rx_ms": 1773434930278, "run_id": "20260313_130557", "seq": 166, "pitch_deg": 6.3524, "yaw_deg": 32.7556, "roll_deg": 1.9868, "lat_deg": 34.0414154, "lon_deg": -117.8172022, "altitude_rel_ft": 0.5577, "ground_speed_ft_s": 10.5667, "vel_north_m_s": 2.76, "vel_east_m_s": 1.66, "vel_down_m_s": 0.03, "battery_remain_pct": 9900.0}
{"t_rx_ms": 1773434930478, "run_id": "20260313_130557", "seq": 167, "pitch_deg": 6.3524, "yaw_deg": 32.7556, "roll_deg": 1.9868, "lat_deg": 34.0414154, "lon_deg": -117.8172022, "altitude_rel_ft": 0.5577, "ground_speed_ft_s": 10.5667, "vel_north_m_s": 2.76, "vel_east_m_s": 1.66, "vel_down_m_s": 0.03, "battery_remain_pct": 9900.0}
{"t_rx_ms": 1773434930679, "run_id": "20260313_130557", "seq": 168, "pitch_deg": 6.3524, "yaw_deg": 32.7556, "roll_deg": 1.9868, "lat_deg": 34.0414154, "lon_deg": -117.8172022, "altitude_rel_ft": 0.5577, "ground_speed_ft_s": 10.5667, "vel_north_m_s": 2.76, "vel_east_m_s": 1.66, "vel_down_m_s": 0.03, "battery_remain_pct": 9900.0}
{"t_rx_ms": 1773434930880, "run_id": "20260313_130557", "seq": 169, "pitch_deg": 6.3524, "yaw_deg": 32.7556, "roll_deg": 1.9868, "lat_deg": 34.0414154, "lon_deg": -117.8172022, "altitude_rel_ft": 0.5577, "ground_speed_ft_s": 10.5667, "vel_north_m_s": 2.76, "vel_east_m_s": 1.66, "vel_down_m_s": 0.03, "battery_remain_pct": 9900.0}
{"t_rx_ms": 1773434931080, "run_id": "20260313_130557", "seq": 170, "pitch_deg": 6.9369, "yaw_deg": 32.6602, "roll_deg": 2.279, "lat_deg": 34.0414387, "lon_deg": -117.81718509999999, "altitude_rel_ft": 0.0066, "ground_speed_ft_s": 9.678, "vel_north_m_s": 2.54, "vel_east_m_s": 1.5, "vel_down_m_s": 0.02, "battery_remain_pct": 9900.0}
{"t_rx_ms": 1773434931281, "run_id": "20260313_130557", "seq": 171, "pitch_deg": 6.9369, "yaw_deg": 32.6602, "roll_deg": 2.279, "lat_deg": 34.0414387, "lon_deg": -117.81718509999999, "altitude_rel_ft": 0.0066, "ground_speed_ft_s": 9.678, "vel_north_m_s": 2.54, "vel_east_m_s": 1.5, "vel_down_m_s": 0.02, "battery_remain_pct": 9900.0}
{"t_rx_ms": 1773434931481, "run_id": "20260313_130557", "seq": 172, "pitch_deg": 6.9369, "yaw_deg": 32.6602, "roll_deg": 2.279, "lat_deg": 34.0414387, "lon_deg": -117.81718509999999, "altitude_rel_ft": 0.0066, "ground_speed_ft_s": 9.678, "vel_north_m_s": 2.54, "vel_east_m_s": 1.5, "vel_down_m_s": 0.02, "battery_remain_pct": 9900.0}
{"t_rx_ms": 1773434931682, "run_id": "20260313_130557", "seq": 173, "pitch_deg": 6.9369, "yaw_deg": 32.6602, "roll_deg": 2.279, "lat_deg": 34.0414387, "lon_deg": -117.81718509999999, "altitude_rel_ft": 0.0066, "ground_speed_ft_s": 9.678, "vel_north_m_s": 2.54, "vel_east_m_s": 1.5, "vel_down_m_s": 0.02, "battery_remain_pct": 9900.0}
{"t_rx_ms": 1773434931882, "run_id": "20260313_130557", "seq": 174, "pitch_deg": 6.9369, "yaw_deg": 32.6602, "roll_deg": 2.279, "lat_deg": 34.0414387, "lon_deg": -117.81718509999999, "altitude_rel_ft": 0.0066, "ground_speed_ft_s": 9.678, "vel_north_m_s": 2.54, "vel_east_m_s": 1.5, "vel_down_m_s": 0.02, "battery_remain_pct": 9900.0}
{"t_rx_ms": 1773434932083, "run_id": "20260313_130557", "seq": 175, "pitch_deg": 6.9427, "yaw_deg": 32.8112, "roll_deg": 2.1883, "lat_deg": 34.0414595, "lon_deg": -117.81716979999999, "altitude_rel_ft": 0.0066, "ground_speed_ft_s": 8.7608, "vel_north_m_s": 2.28, "vel_east_m_s": 1.39, "vel_down_m_s": -0.01, "battery_remain_pct": 9900.0}
{"t_rx_ms": 1773434932283, "run_id": "20260313_130557", "seq": 176, "pitch_deg": 6.9427, "yaw_deg": 32.8112, "roll_deg": 2.1883, "lat_deg": 34.0414595, "lon_deg": -117.81716979999999, "altitude_rel_ft": 0.0066, "ground_speed_ft_s": 8.7608, "vel_north_m_s": 2.28, "vel_east_m_s": 1.39, "vel_down_m_s": -0.01, "battery_remain_pct": 9900.0}
{"t_rx_ms": 1773434932484, "run_id": "20260313_130557", "seq": 177, "pitch_deg": 6.9427, "yaw_deg": 32.8112, "roll_deg": 2.1883, "lat_deg": 34.0414595, "lon_deg": -117.81716979999999, "altitude_rel_ft": 0.0066, "ground_speed_ft_s": 8.7608, "vel_north_m_s": 2.28, "vel_east_m_s": 1.39, "vel_down_m_s": -0.01, "battery_remain_pct": 9900.0}
{"t_rx_ms": 1773434932684, "run_id": "20260313_130557", "seq": 178, "pitch_deg": 6.9427, "yaw_deg": 32.8112, "roll_deg": 2.1883, "lat_deg": 34.0414595, "lon_deg": -117.81716979999999, "altitude_rel_ft": 0.0066, "ground_speed_ft_s": 8.7608, "vel_north_m_s": 2.28, "vel_east_m_s": 1.39, "vel_down_m_s": -0.01, "battery_remain_pct": 9900.0}
{"t_rx_ms": 1773434932884, "run_id": "20260313_130557", "seq": 179, "pitch_deg": 6.9427, "yaw_deg": 32.8112, "roll_deg": 2.1883, "lat_deg": 34.0414595, "lon_deg": -117.81716979999999, "altitude_rel_ft": 0.0066, "ground_speed_ft_s": 8.7608, "vel_north_m_s": 2.28, "vel_east_m_s": 1.39, "vel_down_m_s": -0.01, "battery_remain_pct": 9900.0}
{"t_rx_ms": 1773434933085, "run_id": "20260313_130557", "seq": 180, "pitch_deg": 7.4047, "yaw_deg": 33.0246, "roll_deg": 2.8207, "lat_deg": 34.0414794, "lon_deg": -117.8171545, "altitude_rel_ft": -0.3346, "ground_speed_ft_s": 8.7116, "vel_north_m_s": 2.25, "vel_east_m_s": 1.41, "vel_down_m_s": 0.11, "battery_remain_pct": 9900.0}
{"t_rx_ms": 1773434933286, "run_id": "20260313_130557", "seq": 181, "pitch_deg": 7.4047, "yaw_deg": 33.0246, "roll_deg": 2.8207, "lat_deg": 34.0414794, "lon_deg": -117.8171545, "altitude_rel_ft": -0.3346, "ground_speed_ft_s": 8.7116, "vel_north_m_s": 2.25, "vel_east_m_s": 1.41, "vel_down_m_s": 0.11, "battery_remain_pct": 9900.0}
{"t_rx_ms": 1773434933486, "run_id": "20260313_130557", "seq": 182, "pitch_deg": 7.4047, "yaw_deg": 33.0246, "roll_deg": 2.8207, "lat_deg": 34.0414794, "lon_deg": -117.8171545, "altitude_rel_ft": -0.3346, "ground_speed_ft_s": 8.7116, "vel_north_m_s": 2.25, "vel_east_m_s": 1.41, "vel_down_m_s": 0.11, "battery_remain_pct": 9900.0}
{"t_rx_ms": 1773434933687, "run_id": "20260313_130557", "seq": 183, "pitch_deg": 7.4047, "yaw_deg": 33.0246, "roll_deg": 2.8207, "lat_deg": 34.0414794, "lon_deg": -117.8171545, "altitude_rel_ft": -0.3346, "ground_speed_ft_s": 8.7116, "vel_north_m_s": 2.25, "vel_east_m_s": 1.41, "vel_down_m_s": 0.11, "battery_remain_pct": 9900.0}
{"t_rx_ms": 1773434933887, "run_id": "20260313_130557", "seq": 184, "pitch_deg": 7.4047, "yaw_deg": 33.0246, "roll_deg": 2.8207, "lat_deg": 34.0414794, "lon_deg": -117.8171545, "altitude_rel_ft": -0.3346, "ground_speed_ft_s": 8.7116, "vel_north_m_s": 2.25, "vel_east_m_s": 1.41, "vel_down_m_s": 0.11, "battery_remain_pct": 9900.0}
{"t_rx_ms": 1773434934088, "run_id": "20260313_130557", "seq": 185, "pitch_deg": 7.0449, "yaw_deg": 33.0076, "roll_deg": 2.4583, "lat_deg": 34.0415001, "lon_deg": -117.817139, "altitude_rel_ft": 0.4035, "ground_speed_ft_s": 8.8021, "vel_north_m_s": 2.27, "vel_east_m_s": 1.43, "vel_down_m_s": 0.01, "battery_remain_pct": 9900.0}
{"t_rx_ms": 1773434934288, "run_id": "20260313_130557", "seq": 186, "pitch_deg": 7.0449, "yaw_deg": 33.0076, "roll_deg": 2.4583, "lat_deg": 34.0415001, "lon_deg": -117.817139, "altitude_rel_ft": 0.4035, "ground_speed_ft_s": 8.8021, "vel_north_m_s": 2.27, "vel_east_m_s": 1.43, "vel_down_m_s": 0.01, "battery_remain_pct": 9900.0}
{"t_rx_ms": 1773434934489, "run_id": "20260313_130557", "seq": 187, "pitch_deg": 7.0449, "yaw_deg": 33.0076, "roll_deg": 2.4583, "lat_deg": 34.0415001, "lon_deg": -117.817139, "altitude_rel_ft": 0.4035, "ground_speed_ft_s": 8.8021, "vel_north_m_s": 2.27, "vel_east_m_s": 1.43, "vel_down_m_s": 0.01, "battery_remain_pct": 9900.0}
{"t_rx_ms": 1773434934689, "run_id": "20260313_130557", "seq": 188, "pitch_deg": 7.0449, "yaw_deg": 33.0076, "roll_deg": 2.4583, "lat_deg": 34.0415001, "lon_deg": -117.817139, "altitude_rel_ft": 0.4035, "ground_speed_ft_s": 8.8021, "vel_north_m_s": 2.27, "vel_east_m_s": 1.43, "vel_down_m_s": 0.01, "battery_remain_pct": 9900.0}
{"t_rx_ms": 1773434934890, "run_id": "20260313_130557", "seq": 189, "pitch_deg": 7.0449, "yaw_deg": 33.0076, "roll_deg": 2.4583, "lat_deg": 34.0415001, "lon_deg": -117.817139, "altitude_rel_ft": 0.4035, "ground_speed_ft_s": 8.8021, "vel_north_m_s": 2.27, "vel_east_m_s": 1.43, "vel_down_m_s": 0.01, "battery_remain_pct": 9900.0}
{"t_rx_ms": 1773434935090, "run_id": "20260313_130557", "seq": 190, "pitch_deg": 6.6946, "yaw_deg": 33.0591, "roll_deg": 2.2536, "lat_deg": 34.0415206, "lon_deg": -117.8171241, "altitude_rel_ft": 0.4626, "ground_speed_ft_s": 8.7221, "vel_north_m_s": 2.26, "vel_east_m_s": 1.4, "vel_down_m_s": 0.01, "battery_remain_pct": 9900.0}
{"t_rx_ms": 1773434935290, "run_id": "20260313_130557", "seq": 191, "pitch_deg": 6.6946, "yaw_deg": 33.0591, "roll_deg": 2.2536, "lat_deg": 34.0415206, "lon_deg": -117.8171241, "altitude_rel_ft": 0.4626, "ground_speed_ft_s": 8.7221, "vel_north_m_s": 2.26, "vel_east_m_s": 1.4, "vel_down_m_s": 0.01, "battery_remain_pct": 9900.0}
{"t_rx_ms": 1773434935491, "run_id": "20260313_130557", "seq": 192, "pitch_deg": 6.6946, "yaw_deg": 33.0591, "roll_deg": 2.2536, "lat_deg": 34.0415206, "lon_deg": -117.8171241, "altitude_rel_ft": 0.4626, "ground_speed_ft_s": 8.7221, "vel_north_m_s": 2.26, "vel_east_m_s": 1.4, "vel_down_m_s": 0.01, "battery_remain_pct": 9900.0}
{"t_rx_ms": 1773434935691, "run_id": "20260313_130557", "seq": 193, "pitch_deg": 6.6946, "yaw_deg": 33.0591, "roll_deg": 2.2536, "lat_deg": 34.0415206, "lon_deg": -117.8171241, "altitude_rel_ft": 0.4626, "ground_speed_ft_s": 8.7221, "vel_north_m_s": 2.26, "vel_east_m_s": 1.4, "vel_down_m_s": 0.01, "battery_remain_pct": 9900.0}
{"t_rx_ms": 1773434935892, "run_id": "20260313_130557", "seq": 194, "pitch_deg": 6.8713, "yaw_deg": 33.3184, "roll_deg": 2.2124, "lat_deg": 34.0415206, "lon_deg": -117.8171241, "altitude_rel_ft": 0.4626, "ground_speed_ft_s": 8.7221, "vel_north_m_s": 2.26, "vel_east_m_s": 1.4, "vel_down_m_s": 0.01, "battery_remain_pct": 9900.0}
{"t_rx_ms": 1773434936093, "run_id": "20260313_130557", "seq": 195, "pitch_deg": 6.8713, "yaw_deg": 33.3184, "roll_deg": 2.2124, "lat_deg": 34.0415408, "lon_deg": -117.8171091, "altitude_rel_ft": 0.4724, "ground_speed_ft_s": 8.6664, "vel_north_m_s": 2.24, "vel_east_m_s": 1.4, "vel_down_m_s": -0.02, "battery_remain_pct": 9900.0}
{"t_rx_ms": 1773434936293, "run_id": "20260313_130557", "seq": 196, "pitch_deg": 6.8713, "yaw_deg": 33.3184, "roll_deg": 2.2124, "lat_deg": 34.0415408, "lon_deg": -117.8171091, "altitude_rel_ft": 0.4724, "ground_speed_ft_s": 8.6664, "vel_north_m_s": 2.24, "vel_east_m_s": 1.4, "vel_down_m_s": -0.02, "battery_remain_pct": 9900.0}
{"t_rx_ms": 1773434936494, "run_id": "20260313_130557", "seq": 197, "pitch_deg": 6.8713, "yaw_deg": 33.3184, "roll_deg": 2.2124, "lat_deg": 34.0415408, "lon_deg": -117.8171091, "altitude_rel_ft": 0.4724, "ground_speed_ft_s": 8.6664, "vel_north_m_s": 2.24, "vel_east_m_s": 1.4, "vel_down_m_s": -0.02, "battery_remain_pct": 9900.0}
{"t_rx_ms": 1773434936696, "run_id": "20260313_130557", "seq": 198, "pitch_deg": 6.8713, "yaw_deg": 33.3184, "roll_deg": 2.2124, "lat_deg": 34.0415408, "lon_deg": -117.8171091, "altitude_rel_ft": 0.4724, "ground_speed_ft_s": 8.6664, "vel_north_m_s": 2.24, "vel_east_m_s": 1.4, "vel_down_m_s": -0.02, "battery_remain_pct": 9900.0}
{"t_rx_ms": 1773434936896, "run_id": "20260313_130557", "seq": 199, "pitch_deg": 6.8713, "yaw_deg": 33.3184, "roll_deg": 2.2124, "lat_deg": 34.0415408, "lon_deg": -117.8171091, "altitude_rel_ft": 0.4724, "ground_speed_ft_s": 8.6664, "vel_north_m_s": 2.24, "vel_east_m_s": 1.4, "vel_down_m_s": -0.02, "battery_remain_pct": 9900.0}
{"t_rx_ms": 1773434937097, "run_id": "20260313_130557", "seq": 200, "pitch_deg": 6.219, "yaw_deg": 33.4676, "roll_deg": 1.4433, "lat_deg": 34.0415619, "lon_deg": -117.81709339999999, "altitude_rel_ft": -0.0853, "ground_speed_ft_s": 9.0363, "vel_north_m_s": 2.36, "vel_east_m_s": 1.42, "vel_down_m_s": -0.07, "battery_remain_pct": 9900.0}
{"t_rx_ms": 1773434937298, "run_id": "20260313_130557", "seq": 201, "pitch_deg": 6.219, "yaw_deg": 33.4676, "roll_deg": 1.4433, "lat_deg": 34.0415619, "lon_deg": -117.81709339999999, "altitude_rel_ft": -0.0853, "ground_speed_ft_s": 9.0363, "vel_north_m_s": 2.36, "vel_east_m_s": 1.42, "vel_down_m_s": -0.07, "battery_remain_pct": 9900.0}
{"t_rx_ms": 1773434937498, "run_id": "20260313_130557", "seq": 202, "pitch_deg": 6.219, "yaw_deg": 33.4676, "roll_deg": 1.4433, "lat_deg": 34.0415619, "lon_deg": -117.81709339999999, "altitude_rel_ft": -0.0853, "ground_speed_ft_s": 9.0363, "vel_north_m_s": 2.36, "vel_east_m_s": 1.42, "vel_down_m_s": -0.07, "battery_remain_pct": 9900.0}
{"t_rx_ms": 1773434937699, "run_id": "20260313_130557", "seq": 203, "pitch_deg": 6.219, "yaw_deg": 33.4676, "roll_deg": 1.4433, "lat_deg": 34.0415619, "lon_deg": -117.81709339999999, "altitude_rel_ft": -0.0853, "ground_speed_ft_s": 9.0363, "vel_north_m_s": 2.36, "vel_east_m_s": 1.42, "vel_down_m_s": -0.07, "battery_remain_pct": 9900.0}
{"t_rx_ms": 1773434937899, "run_id": "20260313_130557", "seq": 204, "pitch_deg": 6.219, "yaw_deg": 33.4676, "roll_deg": 1.4433, "lat_deg": 34.0415619, "lon_deg": -117.81709339999999, "altitude_rel_ft": -0.0853, "ground_speed_ft_s": 9.0363, "vel_north_m_s": 2.36, "vel_east_m_s": 1.42, "vel_down_m_s": -0.07, "battery_remain_pct": 9900.0}
{"t_rx_ms": 1773434938100, "run_id": "20260313_130557", "seq": 205, "pitch_deg": 5.7961, "yaw_deg": 33.6562, "roll_deg": 1.6118, "lat_deg": 34.041584799999995, "lon_deg": -117.81707569999999, "altitude_rel_ft": -0.0066, "ground_speed_ft_s": 10.4753, "vel_north_m_s": 2.69, "vel_east_m_s": 1.72, "vel_down_m_s": 0.01, "battery_remain_pct": 9900.0}
{"t_rx_ms": 1773434938300, "run_id": "20260313_130557", "seq": 206, "pitch_deg": 5.7961, "yaw_deg": 33.6562, "roll_deg": 1.6118, "lat_deg": 34.041584799999995, "lon_deg": -117.81707569999999, "altitude_rel_ft": -0.0066, "ground_speed_ft_s": 10.4753, "vel_north_m_s": 2.69, "vel_east_m_s": 1.72, "vel_down_m_s": 0.01, "battery_remain_pct": 9900.0}
{"t_rx_ms": 1773434938501, "run_id": "20260313_130557", "seq": 207, "pitch_deg": 5.7961, "yaw_deg": 33.6562, "roll_deg": 1.6118, "lat_deg": 34.041584799999995, "lon_deg": -117.81707569999999, "altitude_rel_ft": -0.0066, "ground_speed_ft_s": 10.4753, "vel_north_m_s": 2.69, "vel_east_m_s": 1.72, "vel_down_m_s": 0.01, "battery_remain_pct": 9900.0}
{"t_rx_ms": 1773434938702, "run_id": "20260313_130557", "seq": 208, "pitch_deg": 5.7961, "yaw_deg": 33.6562, "roll_deg": 1.6118, "lat_deg": 34.041584799999995, "lon_deg": -117.81707569999999, "altitude_rel_ft": -0.0066, "ground_speed_ft_s": 10.4753, "vel_north_m_s": 2.69, "vel_east_m_s": 1.72, "vel_down_m_s": 0.01, "battery_remain_pct": 9900.0}
{"t_rx_ms": 1773434938906, "run_id": "20260313_130557", "seq": 209, "pitch_deg": 5.3549, "yaw_deg": 33.7952, "roll_deg": 1.2448, "lat_deg": 34.0416124, "lon_deg": -117.8170542, "altitude_rel_ft": 0.1148, "ground_speed_ft_s": 12.2842, "vel_north_m_s": 3.12, "vel_east_m_s": 2.07, "vel_down_m_s": -0.08, "battery_remain_pct": 9900.0}
{"t_rx_ms": 1773434939107, "run_id": "20260313_130557", "seq": 210, "pitch_deg": 5.3549, "yaw_deg": 33.7952, "roll_deg": 1.2448, "lat_deg": 34.0416124, "lon_deg": -117.8170542, "altitude_rel_ft": 0.1148, "ground_speed_ft_s": 12.2842, "vel_north_m_s": 3.12, "vel_east_m_s": 2.07, "vel_down_m_s": -0.08, "battery_remain_pct": 9900.0}
{"t_rx_ms": 1773434939308, "run_id": "20260313_130557", "seq": 211, "pitch_deg": 5.3549, "yaw_deg": 33.7952, "roll_deg": 1.2448, "lat_deg": 34.0416124, "lon_deg": -117.8170542, "altitude_rel_ft": 0.1148, "ground_speed_ft_s": 12.2842, "vel_north_m_s": 3.12, "vel_east_m_s": 2.07, "vel_down_m_s": -0.08, "battery_remain_pct": 9900.0}
{"t_rx_ms": 1773434939508, "run_id": "20260313_130557", "seq": 212, "pitch_deg": 5.3549, "yaw_deg": 33.7952, "roll_deg": 1.2448, "lat_deg": 34.0416124, "lon_deg": -117.8170542, "altitude_rel_ft": 0.1148, "ground_speed_ft_s": 12.2842, "vel_north_m_s": 3.12, "vel_east_m_s": 2.07, "vel_down_m_s": -0.08, "battery_remain_pct": 9900.0}
{"t_rx_ms": 1773434939712, "run_id": "20260313_130557", "seq": 213, "pitch_deg": 5.3549, "yaw_deg": 33.7952, "roll_deg": 1.2448, "lat_deg": 34.0416124, "lon_deg": -117.8170542, "altitude_rel_ft": 0.1148, "ground_speed_ft_s": 12.2842, "vel_north_m_s": 3.12, "vel_east_m_s": 2.07, "vel_down_m_s": -0.08, "battery_remain_pct": 9900.0}
{"t_rx_ms": 1773434939913, "run_id": "20260313_130557", "seq": 214, "pitch_deg": 6.9401, "yaw_deg": 34.1636, "roll_deg": 0.9212, "lat_deg": 34.0416424, "lon_deg": -117.8170308, "altitude_rel_ft": 0.4724, "ground_speed_ft_s": 12.8215, "vel_north_m_s": 3.27, "vel_east_m_s": 2.14, "vel_down_m_s": 0.0, "battery_remain_pct": 9900.0}
{"t_rx_ms": 1773434940115, "run_id": "20260313_130557", "seq": 215, "pitch_deg": 6.9401, "yaw_deg": 34.1636, "roll_deg": 0.9212, "lat_deg": 34.0416424, "lon_deg": -117.8170308, "altitude_rel_ft": 0.4724, "ground_speed_ft_s": 12.8215, "vel_north_m_s": 3.27, "vel_east_m_s": 2.14, "vel_down_m_s": 0.0, "battery_remain_pct": 9900.0}
{"t_rx_ms": 1773434940316, "run_id": "20260313_130557", "seq": 216, "pitch_deg": 6.9401, "yaw_deg": 34.1636, "roll_deg": 0.9212, "lat_deg": 34.0416424, "lon_deg": -117.8170308, "altitude_rel_ft": 0.4724, "ground_speed_ft_s": 12.8215, "vel_north_m_s": 3.27, "vel_east_m_s": 2.14, "vel_down_m_s": 0.0, "battery_remain_pct": 9900.0}
{"t_rx_ms": 1773434940517, "run_id": "20260313_130557", "seq": 217, "pitch_deg": 6.9401, "yaw_deg": 34.1636, "roll_deg": 0.9212, "lat_deg": 34.0416424, "lon_deg": -117.8170308, "altitude_rel_ft": 0.4724, "ground_speed_ft_s": 12.8215, "vel_north_m_s": 3.27, "vel_east_m_s": 2.14, "vel_down_m_s": 0.0, "battery_remain_pct": 9900.0}
{"t_rx_ms": 1773434940718, "run_id": "20260313_130557", "seq": 218, "pitch_deg": 6.9401, "yaw_deg": 34.1636, "roll_deg": 0.9212, "lat_deg": 34.0416424, "lon_deg": -117.8170308, "altitude_rel_ft": 0.4724, "ground_speed_ft_s": 12.8215, "vel_north_m_s": 3.27, "vel_east_m_s": 2.14, "vel_down_m_s": 0.0, "battery_remain_pct": 9900.0}
{"t_rx_ms": 1773434940918, "run_id": "20260313_130557", "seq": 219, "pitch_deg": 6.9401, "yaw_deg": 34.1636, "roll_deg": 0.9212, "lat_deg": 34.0416424, "lon_deg": -117.8170308, "altitude_rel_ft": 0.4724, "ground_speed_ft_s": 12.8215, "vel_north_m_s": 3.27, "vel_east_m_s": 2.14, "vel_down_m_s": 0.0, "battery_remain_pct": 9900.0}
{"t_rx_ms": 1773434941120, "run_id": "20260313_130557", "seq": 220, "pitch_deg": 6.5948, "yaw_deg": 34.2798, "roll_deg": 0.714, "lat_deg": 34.0416722, "lon_deg": -117.8170071, "altitude_rel_ft": 0.6168, "ground_speed_ft_s": 13.0033, "vel_north_m_s": 3.31, "vel_east_m_s": 2.18, "vel_down_m_s": 0.05, "battery_remain_pct": 9900.0}
{"t_rx_ms": 1773434941321, "run_id": "20260313_130557", "seq": 221, "pitch_deg": 6.5948, "yaw_deg": 34.2798, "roll_deg": 0.714, "lat_deg": 34.0416722, "lon_deg": -117.8170071, "altitude_rel_ft": 0.6168, "ground_speed_ft_s": 13.0033, "vel_north_m_s": 3.31, "vel_east_m_s": 2.18, "vel_down_m_s": 0.05, "battery_remain_pct": 9900.0}
{"t_rx_ms": 1773434941521, "run_id": "20260313_130557", "seq": 222, "pitch_deg": 6.5948, "yaw_deg": 34.2798, "roll_deg": 0.714, "lat_deg": 34.0416722, "lon_deg": -117.8170071, "altitude_rel_ft": 0.6168, "ground_speed_ft_s": 13.0033, "vel_north_m_s": 3.31, "vel_east_m_s": 2.18, "vel_down_m_s": 0.05, "battery_remain_pct": 9900.0}
{"t_rx_ms": 1773434941724, "run_id": "20260313_130557", "seq": 223, "pitch_deg": 6.5948, "yaw_deg": 34.2798, "roll_deg": 0.714, "lat_deg": 34.0416722, "lon_deg": -117.8170071, "altitude_rel_ft": 0.6168, "ground_speed_ft_s": 13.0033, "vel_north_m_s": 3.31, "vel_east_m_s": 2.18, "vel_down_m_s": 0.05, "battery_remain_pct": 9900.0}
{"t_rx_ms": 1773434941924, "run_id": "20260313_130557", "seq": 224, "pitch_deg": 6.9183, "yaw_deg": 34.3177, "roll_deg": 0.1393, "lat_deg": 34.0417012, "lon_deg": -117.8169844, "altitude_rel_ft": 0.1247, "ground_speed_ft_s": 12.7574, "vel_north_m_s": 3.24, "vel_east_m_s": 2.15, "vel_down_m_s": -0.08, "battery_remain_pct": 9900.0}
{"t_rx_ms": 1773434942125, "run_id": "20260313_130557", "seq": 225, "pitch_deg": 6.9183, "yaw_deg": 34.3177, "roll_deg": 0.1393, "lat_deg": 34.0417012, "lon_deg": -117.8169844, "altitude_rel_ft": 0.1247, "ground_speed_ft_s": 12.7574, "vel_north_m_s": 3.24, "vel_east_m_s": 2.15, "vel_down_m_s": -0.08, "battery_remain_pct": 9900.0}
{"t_rx_ms": 1773434942329, "run_id": "20260313_130557", "seq": 226, "pitch_deg": 6.9183, "yaw_deg": 34.3177, "roll_deg": 0.1393, "lat_deg": 34.0417012, "lon_deg": -117.8169844, "altitude_rel_ft": 0.1247, "ground_speed_ft_s": 12.7574, "vel_north_m_s": 3.24, "vel_east_m_s": 2.15, "vel_down_m_s": -0.08, "battery_remain_pct": 9900.0}
{"t_rx_ms": 1773434942530, "run_id": "20260313_130557", "seq": 227, "pitch_deg": 6.9183, "yaw_deg": 34.3177, "roll_deg": 0.1393, "lat_deg": 34.0417012, "lon_deg": -117.8169844, "altitude_rel_ft": 0.1247, "ground_speed_ft_s": 12.7574, "vel_north_m_s": 3.24, "vel_east_m_s": 2.15, "vel_down_m_s": -0.08, "battery_remain_pct": 9900.0}
{"t_rx_ms": 1773434942730, "run_id": "20260313_130557", "seq": 228, "pitch_deg": 6.9183, "yaw_deg": 34.3177, "roll_deg": 0.1393, "lat_deg": 34.0417012, "lon_deg": -117.8169844, "altitude_rel_ft": 0.1247, "ground_speed_ft_s": 12.7574, "vel_north_m_s": 3.24, "vel_east_m_s": 2.15, "vel_down_m_s": -0.08, "battery_remain_pct": 9900.0}
{"t_rx_ms": 1773434942931, "run_id": "20260313_130557", "seq": 229, "pitch_deg": 5.9988, "yaw_deg": 34.1706, "roll_deg": 0.196, "lat_deg": 34.041731899999995, "lon_deg": -117.8169604, "altitude_rel_ft": 0.6824, "ground_speed_ft_s": 13.2313, "vel_north_m_s": 3.38, "vel_east_m_s": 2.2, "vel_down_m_s": 0.08, "battery_remain_pct": 9900.0}
{"t_rx_ms": 1773434943132, "run_id": "20260313_130557", "seq": 230, "pitch_deg": 5.9988, "yaw_deg": 34.1706, "roll_deg": 0.196, "lat_deg": 34.041731899999995, "lon_deg": -117.8169604, "altitude_rel_ft": 0.6824, "ground_speed_ft_s": 13.2313, "vel_north_m_s": 3.38, "vel_east_m_s": 2.2, "vel_down_m_s": 0.08, "battery_remain_pct": 9900.0}
{"t_rx_ms": 1773434943333, "run_id": "20260313_130557", "seq": 231, "pitch_deg": 5.9988, "yaw_deg": 34.1706, "roll_deg": 0.196, "lat_deg": 34.041731899999995, "lon_deg": -117.8169604, "altitude_rel_ft": 0.6824, "ground_speed_ft_s": 13.2313, "vel_north_m_s": 3.38, "vel_east_m_s": 2.2, "vel_down_m_s": 0.08, "battery_remain_pct": 9900.0}
{"t_rx_ms": 1773434943533, "run_id": "20260313_130557", "seq": 232, "pitch_deg": 5.9988, "yaw_deg": 34.1706, "roll_deg": 0.196, "lat_deg": 34.041731899999995, "lon_deg": -117.8169604, "altitude_rel_ft": 0.6824, "ground_speed_ft_s": 13.2313, "vel_north_m_s": 3.38, "vel_east_m_s": 2.2, "vel_down_m_s": 0.08, "battery_remain_pct": 9900.0}
{"t_rx_ms": 1773434943737, "run_id": "20260313_130557", "seq": 233, "pitch_deg": 5.9988, "yaw_deg": 34.1706, "roll_deg": 0.196, "lat_deg": 34.041731899999995, "lon_deg": -117.8169604, "altitude_rel_ft": 0.6824, "ground_speed_ft_s": 13.2313, "vel_north_m_s": 3.38, "vel_east_m_s": 2.2, "vel_down_m_s": 0.08, "battery_remain_pct": 9900.0}
{"t_rx_ms": 1773434943937, "run_id": "20260313_130557", "seq": 234, "pitch_deg": 5.7003, "yaw_deg": 33.6826, "roll_deg": 0.7483, "lat_deg": 34.0417632, "lon_deg": -117.81693589999999, "altitude_rel_ft": 0.5577, "ground_speed_ft_s": 13.4068, "vel_north_m_s": 3.45, "vel_east_m_s": 2.19, "vel_down_m_s": 0.05, "battery_remain_pct": 9900.0}
{"t_rx_ms": 1773434944137, "run_id": "20260313_130557", "seq": 235, "pitch_deg": 5.7003, "yaw_deg": 33.6826, "roll_deg": 0.7483, "lat_deg": 34.0417632, "lon_deg": -117.81693589999999, "altitude_rel_ft": 0.5577, "ground_speed_ft_s": 13.4068, "vel_north_m_s": 3.45, "vel_east_m_s": 2.19, "vel_down_m_s": 0.05, "battery_remain_pct": 9900.0}
{"t_rx_ms": 1773434944338, "run_id": "20260313_130557", "seq": 236, "pitch_deg": 5.7003, "yaw_deg": 33.6826, "roll_deg": 0.7483, "lat_deg": 34.0417632, "lon_deg": -117.81693589999999, "altitude_rel_ft": 0.5577, "ground_speed_ft_s": 13.4068, "vel_north_m_s": 3.45, "vel_east_m_s": 2.19, "vel_down_m_s": 0.05, "battery_remain_pct": 9900.0}
{"t_rx_ms": 1773434944539, "run_id": "20260313_130557", "seq": 237, "pitch_deg": 5.7003, "yaw_deg": 33.6826, "roll_deg": 0.7483, "lat_deg": 34.0417632, "lon_deg": -117.81693589999999, "altitude_rel_ft": 0.5577, "ground_speed_ft_s": 13.4068, "vel_north_m_s": 3.45, "vel_east_m_s": 2.19, "vel_down_m_s": 0.05, "battery_remain_pct": 9900.0}
{"t_rx_ms": 1773434944739, "run_id": "20260313_130557", "seq": 238, "pitch_deg": 5.7003, "yaw_deg": 33.6826, "roll_deg": 0.7483, "lat_deg": 34.0417632, "lon_deg": -117.81693589999999, "altitude_rel_ft": 0.5577, "ground_speed_ft_s": 13.4068, "vel_north_m_s": 3.45, "vel_east_m_s": 2.19, "vel_down_m_s": 0.05, "battery_remain_pct": 9900.0}
{"t_rx_ms": 1773434944942, "run_id": "20260313_130557", "seq": 239, "pitch_deg": 7.4435, "yaw_deg": 33.2645, "roll_deg": 1.2293, "lat_deg": 34.0417938, "lon_deg": -117.8169123, "altitude_rel_ft": 1.0597, "ground_speed_ft_s": 13.4322, "vel_north_m_s": 3.44, "vel_east_m_s": 2.22, "vel_down_m_s": -0.11, "battery_remain_pct": 9900.0}
{"t_rx_ms": 1773434945143, "run_id": "20260313_130557", "seq": 240, "pitch_deg": 7.4435, "yaw_deg": 33.2645, "roll_deg": 1.2293, "lat_deg": 34.0417938, "lon_deg": -117.8169123, "altitude_rel_ft": 1.0597, "ground_speed_ft_s": 13.4322, "vel_north_m_s": 3.44, "vel_east_m_s": 2.22, "vel_down_m_s": -0.11, "battery_remain_pct": 9900.0}
{"t_rx_ms": 1773434945345, "run_id": "20260313_130557", "seq": 241, "pitch_deg": 7.4435, "yaw_deg": 33.2645, "roll_deg": 1.2293, "lat_deg": 34.0417938, "lon_deg": -117.8169123, "altitude_rel_ft": 1.0597, "ground_speed_ft_s": 13.4322, "vel_north_m_s": 3.44, "vel_east_m_s": 2.22, "vel_down_m_s": -0.11, "battery_remain_pct": 9900.0}
{"t_rx_ms": 1773434945545, "run_id": "20260313_130557", "seq": 242, "pitch_deg": 7.4435, "yaw_deg": 33.2645, "roll_deg": 1.2293, "lat_deg": 34.0417938, "lon_deg": -117.8169123, "altitude_rel_ft": 1.0597, "ground_speed_ft_s": 13.4322, "vel_north_m_s": 3.44, "vel_east_m_s": 2.22, "vel_down_m_s": -0.11, "battery_remain_pct": 9900.0}
{"t_rx_ms": 1773434945748, "run_id": "20260313_130557", "seq": 243, "pitch_deg": 7.4435, "yaw_deg": 33.2645, "roll_deg": 1.2293, "lat_deg": 34.0417938, "lon_deg": -117.8169123, "altitude_rel_ft": 1.0597, "ground_speed_ft_s": 13.4322, "vel_north_m_s": 3.44, "vel_east_m_s": 2.22, "vel_down_m_s": -0.11, "battery_remain_pct": 9900.0}
{"t_rx_ms": 1773434945949, "run_id": "20260313_130557", "seq": 244, "pitch_deg": 5.6724, "yaw_deg": 32.8359, "roll_deg": 1.5276, "lat_deg": 34.0418259, "lon_deg": -117.81688779999999, "altitude_rel_ft": 1.0007, "ground_speed_ft_s": 13.7141, "vel_north_m_s": 3.51, "vel_east_m_s": 2.27, "vel_down_m_s": -0.05, "battery_remain_pct": 9900.0}
{"t_rx_ms": 1773434946149, "run_id": "20260313_130557", "seq": 245, "pitch_deg": 5.6724, "yaw_deg": 32.8359, "roll_deg": 1.5276, "lat_deg": 34.0418259, "lon_deg": -117.81688779999999, "altitude_rel_ft": 1.0007, "ground_speed_ft_s": 13.7141, "vel_north_m_s": 3.51, "vel_east_m_s": 2.27, "vel_down_m_s": -0.05, "battery_remain_pct": 9900.0}
{"t_rx_ms": 1773434946352, "run_id": "20260313_130557", "seq": 246, "pitch_deg": 5.6724, "yaw_deg": 32.8359, "roll_deg": 1.5276, "lat_deg": 34.0418259, "lon_deg": -117.81688779999999, "altitude_rel_ft": 1.0007, "ground_speed_ft_s": 13.7141, "vel_north_m_s": 3.51, "vel_east_m_s": 2.27, "vel_down_m_s": -0.05, "battery_remain_pct": 9900.0}
{"t_rx_ms": 1773434946553, "run_id": "20260313_130557", "seq": 247, "pitch_deg": 5.6724, "yaw_deg": 32.8359, "roll_deg": 1.5276, "lat_deg": 34.0418259, "lon_deg": -117.81688779999999, "altitude_rel_ft": 1.0007, "ground_speed_ft_s": 13.7141, "vel_north_m_s": 3.51, "vel_east_m_s": 2.27, "vel_down_m_s": -0.05, "battery_remain_pct": 9900.0}
{"t_rx_ms": 1773434946754, "run_id": "20260313_130557", "seq": 248, "pitch_deg": 5.6724, "yaw_deg": 32.8359, "roll_deg": 1.5276, "lat_deg": 34.0418259, "lon_deg": -117.81688779999999, "altitude_rel_ft": 1.0007, "ground_speed_ft_s": 13.7141, "vel_north_m_s": 3.51, "vel_east_m_s": 2.27, "vel_down_m_s": -0.05, "battery_remain_pct": 9900.0}
{"t_rx_ms": 1773434946954, "run_id": "20260313_130557", "seq": 249, "pitch_deg": 5.5301, "yaw_deg": 32.4723, "roll_deg": 1.3081, "lat_deg": 34.0418565, "lon_deg": -117.8168649, "altitude_rel_ft": 0.9055, "ground_speed_ft_s": 13.1909, "vel_north_m_s": 3.41, "vel_east_m_s": 2.13, "vel_down_m_s": 0.01, "battery_remain_pct": 9900.0}
{"t_rx_ms": 1773434947155, "run_id": "20260313_130557", "seq": 250, "pitch_deg": 5.5301, "yaw_deg": 32.4723, "roll_deg": 1.3081, "lat_deg": 34.0418565, "lon_deg": -117.8168649, "altitude_rel_ft": 0.9055, "ground_speed_ft_s": 13.1909, "vel_north_m_s": 3.41, "vel_east_m_s": 2.13, "vel_down_m_s": 0.01, "battery_remain_pct": 9900.0}
{"t_rx_ms": 1773434947355, "run_id": "20260313_130557", "seq": 251, "pitch_deg": 5.5301, "yaw_deg": 32.4723, "roll_deg": 1.3081, "lat_deg": 34.0418565, "lon_deg": -117.8168649, "altitude_rel_ft": 0.9055, "ground_speed_ft_s": 13.1909, "vel_north_m_s": 3.41, "vel_east_m_s": 2.13, "vel_down_m_s": 0.01, "battery_remain_pct": 9900.0}
{"t_rx_ms": 1773434947557, "run_id": "20260313_130557", "seq": 252, "pitch_deg": 5.5301, "yaw_deg": 32.4723, "roll_deg": 1.3081, "lat_deg": 34.0418565, "lon_deg": -117.8168649, "altitude_rel_ft": 0.9055, "ground_speed_ft_s": 13.1909, "vel_north_m_s": 3.41, "vel_east_m_s": 2.13, "vel_down_m_s": 0.01, "battery_remain_pct": 9900.0}
{"t_rx_ms": 1773434947757, "run_id": "20260313_130557", "seq": 253, "pitch_deg": 5.5301, "yaw_deg": 32.4723, "roll_deg": 1.3081, "lat_deg": 34.0418565, "lon_deg": -117.8168649, "altitude_rel_ft": 0.9055, "ground_speed_ft_s": 13.1909, "vel_north_m_s": 3.41, "vel_east_m_s": 2.13, "vel_down_m_s": 0.01, "battery_remain_pct": 9900.0}
{"t_rx_ms": 1773434947958, "run_id": "20260313_130557", "seq": 254, "pitch_deg": 5.9539, "yaw_deg": 32.1025, "roll_deg": 0.2875, "lat_deg": 34.0418869, "lon_deg": -117.81684209999999, "altitude_rel_ft": -0.0951, "ground_speed_ft_s": 13.344, "vel_north_m_s": 3.44, "vel_east_m_s": 2.17, "vel_down_m_s": -0.08, "battery_remain_pct": 9900.0}
{"t_rx_ms": 1773434948159, "run_id": "20260313_130557", "seq": 255, "pitch_deg": 5.9539, "yaw_deg": 32.1025, "roll_deg": 0.2875, "lat_deg": 34.0418869, "lon_deg": -117.81684209999999, "altitude_rel_ft": -0.0951, "ground_speed_ft_s": 13.344, "vel_north_m_s": 3.44, "vel_east_m_s": 2.17, "vel_down_m_s": -0.08, "battery_remain_pct": 9900.0}
{"t_rx_ms": 1773434948360, "run_id": "20260313_130557", "seq": 256, "pitch_deg": 5.9539, "yaw_deg": 32.1025, "roll_deg": 0.2875, "lat_deg": 34.0418869, "lon_deg": -117.81684209999999, "altitude_rel_ft": -0.0951, "ground_speed_ft_s": 13.344, "vel_north_m_s": 3.44, "vel_east_m_s": 2.17, "vel_down_m_s": -0.08, "battery_remain_pct": 9900.0}
{"t_rx_ms": 1773434948562, "run_id": "20260313_130557", "seq": 257, "pitch_deg": 5.9539, "yaw_deg": 32.1025, "roll_deg": 0.2875, "lat_deg": 34.0418869, "lon_deg": -117.81684209999999, "altitude_rel_ft": -0.0951, "ground_speed_ft_s": 13.344, "vel_north_m_s": 3.44, "vel_east_m_s": 2.17, "vel_down_m_s": -0.08, "battery_remain_pct": 9900.0}
{"t_rx_ms": 1773434948763, "run_id": "20260313_130557", "seq": 258, "pitch_deg": 5.9539, "yaw_deg": 32.1025, "roll_deg": 0.2875, "lat_deg": 34.0418869, "lon_deg": -117.81684209999999, "altitude_rel_ft": -0.0951, "ground_speed_ft_s": 13.344, "vel_north_m_s": 3.44, "vel_east_m_s": 2.17, "vel_down_m_s": -0.08, "battery_remain_pct": 9900.0}
{"t_rx_ms": 1773434948964, "run_id": "20260313_130557", "seq": 259, "pitch_deg": 6.2311, "yaw_deg": 31.6891, "roll_deg": 0.6677, "lat_deg": 34.0419166, "lon_deg": -117.81682049999999, "altitude_rel_ft": 0.4724, "ground_speed_ft_s": 13.155, "vel_north_m_s": 3.44, "vel_east_m_s": 2.06, "vel_down_m_s": 0.0, "battery_remain_pct": 9900.0}
{"t_rx_ms": 1773434949164, "run_id": "20260313_130557", "seq": 260, "pitch_deg": 6.2311, "yaw_deg": 31.6891, "roll_deg": 0.6677, "lat_deg": 34.0419166, "lon_deg": -117.81682049999999, "altitude_rel_ft": 0.4724, "ground_speed_ft_s": 13.155, "vel_north_m_s": 3.44, "vel_east_m_s": 2.06, "vel_down_m_s": 0.0, "battery_remain_pct": 9900.0}
{"t_rx_ms": 1773434949369, "run_id": "20260313_130557", "seq": 261, "pitch_deg": 6.2311, "yaw_deg": 31.6891, "roll_deg": 0.6677, "lat_deg": 34.0419166, "lon_deg": -117.81682049999999, "altitude_rel_ft": 0.4724, "ground_speed_ft_s": 13.155, "vel_north_m_s": 3.44, "vel_east_m_s": 2.06, "vel_down_m_s": 0.0, "battery_remain_pct": 9900.0}
{"t_rx_ms": 1773434949570, "run_id": "20260313_130557", "seq": 262, "pitch_deg": 6.2311, "yaw_deg": 31.6891, "roll_deg": 0.6677, "lat_deg": 34.0419166, "lon_deg": -117.81682049999999, "altitude_rel_ft": 0.4724, "ground_speed_ft_s": 13.155, "vel_north_m_s": 3.44, "vel_east_m_s": 2.06, "vel_down_m_s": 0.0, "battery_remain_pct": 9900.0}
{"t_rx_ms": 1773434949771, "run_id": "20260313_130557", "seq": 263, "pitch_deg": 6.2311, "yaw_deg": 31.6891, "roll_deg": 0.6677, "lat_deg": 34.0419166, "lon_deg": -117.81682049999999, "altitude_rel_ft": 0.4724, "ground_speed_ft_s": 13.155, "vel_north_m_s": 3.44, "vel_east_m_s": 2.06, "vel_down_m_s": 0.0, "battery_remain_pct": 9900.0}
{"t_rx_ms": 1773434949971, "run_id": "20260313_130557", "seq": 264, "pitch_deg": 6.1757, "yaw_deg": 31.7641, "roll_deg": 0.6452, "lat_deg": 34.0419474, "lon_deg": -117.81679749999999, "altitude_rel_ft": 0.6627, "ground_speed_ft_s": 12.9996, "vel_north_m_s": 3.36, "vel_east_m_s": 2.1, "vel_down_m_s": -0.08, "battery_remain_pct": 9900.0}
{"t_rx_ms": 1773434950172, "run_id": "20260313_130557", "seq": 265, "pitch_deg": 6.1757, "yaw_deg": 31.7641, "roll_deg": 0.6452, "lat_deg": 34.0419474, "lon_deg": -117.81679749999999, "altitude_rel_ft": 0.6627, "ground_speed_ft_s": 12.9996, "vel_north_m_s": 3.36, "vel_east_m_s": 2.1, "vel_down_m_s": -0.08, "battery_remain_pct": 9900.0}
{"t_rx_ms": 1773434950373, "run_id": "20260313_130557", "seq": 266, "pitch_deg": 6.1757, "yaw_deg": 31.7641, "roll_deg": 0.6452, "lat_deg": 34.0419474, "lon_deg": -117.81679749999999, "altitude_rel_ft": 0.6627, "ground_speed_ft_s": 12.9996, "vel_north_m_s": 3.36, "vel_east_m_s": 2.1, "vel_down_m_s": -0.08, "battery_remain_pct": 9900.0}
{"t_rx_ms": 1773434950573, "run_id": "20260313_130557", "seq": 267, "pitch_deg": 6.1757, "yaw_deg": 31.7641, "roll_deg": 0.6452, "lat_deg": 34.0419474, "lon_deg": -117.81679749999999, "altitude_rel_ft": 0.6627, "ground_speed_ft_s": 12.9996, "vel_north_m_s": 3.36, "vel_east_m_s": 2.1, "vel_down_m_s": -0.08, "battery_remain_pct": 9900.0}
{"t_rx_ms": 1773434950774, "run_id": "20260313_130557", "seq": 268, "pitch_deg": 6.1757, "yaw_deg": 31.7641, "roll_deg": 0.6452, "lat_deg": 34.0419474, "lon_deg": -117.81679749999999, "altitude_rel_ft": 0.6627, "ground_speed_ft_s": 12.9996, "vel_north_m_s": 3.36, "vel_east_m_s": 2.1, "vel_down_m_s": -0.08, "battery_remain_pct": 9900.0}
{"t_rx_ms": 1773434950975, "run_id": "20260313_130557", "seq": 269, "pitch_deg": 5.6913, "yaw_deg": 31.9007, "roll_deg": 0.8215, "lat_deg": 34.0419785, "lon_deg": -117.8167747, "altitude_rel_ft": 0.8465, "ground_speed_ft_s": 13.2639, "vel_north_m_s": 3.43, "vel_east_m_s": 2.14, "vel_down_m_s": -0.09, "battery_remain_pct": 9900.0}
{"t_rx_ms": 1773434951176, "run_id": "20260313_130557", "seq": 270, "pitch_deg": 5.6913, "yaw_deg": 31.9007, "roll_deg": 0.8215, "lat_deg": 34.0419785, "lon_deg": -117.8167747, "altitude_rel_ft": 0.8465, "ground_speed_ft_s": 13.2639, "vel_north_m_s": 3.43, "vel_east_m_s": 2.14, "vel_down_m_s": -0.09, "battery_remain_pct": 9900.0}
{"t_rx_ms": 1773434951377, "run_id": "20260313_130557", "seq": 271, "pitch_deg": 5.6913, "yaw_deg": 31.9007, "roll_deg": 0.8215, "lat_deg": 34.0419785, "lon_deg": -117.8167747, "altitude_rel_ft": 0.8465, "ground_speed_ft_s": 13.2639, "vel_north_m_s": 3.43, "vel_east_m_s": 2.14, "vel_down_m_s": -0.09, "battery_remain_pct": 9900.0}
{"t_rx_ms": 1773434951577, "run_id": "20260313_130557", "seq": 272, "pitch_deg": 5.6913, "yaw_deg": 31.9007, "roll_deg": 0.8215, "lat_deg": 34.0419785, "lon_deg": -117.8167747, "altitude_rel_ft": 0.8465, "ground_speed_ft_s": 13.2639, "vel_north_m_s": 3.43, "vel_east_m_s": 2.14, "vel_down_m_s": -0.09, "battery_remain_pct": 9900.0}
{"t_rx_ms": 1773434951778, "run_id": "20260313_130557", "seq": 273, "pitch_deg": 5.6913, "yaw_deg": 31.9007, "roll_deg": 0.8215, "lat_deg": 34.0419785, "lon_deg": -117.8167747, "altitude_rel_ft": 0.8465, "ground_speed_ft_s": 13.2639, "vel_north_m_s": 3.43, "vel_east_m_s": 2.14, "vel_down_m_s": -0.09, "battery_remain_pct": 9900.0}
{"t_rx_ms": 1773434951978, "run_id": "20260313_130557", "seq": 274, "pitch_deg": 6.024, "yaw_deg": 32.0819, "roll_deg": 1.2461, "lat_deg": 34.0420083, "lon_deg": -117.81675279999999, "altitude_rel_ft": 0.9711, "ground_speed_ft_s": 12.5079, "vel_north_m_s": 3.27, "vel_east_m_s": 1.96, "vel_down_m_s": -0.06, "battery_remain_pct": 9900.0}
{"t_rx_ms": 1773434952182, "run_id": "20260313_130557", "seq": 275, "pitch_deg": 6.024, "yaw_deg": 32.0819, "roll_deg": 1.2461, "lat_deg": 34.0420083, "lon_deg": -117.81675279999999, "altitude_rel_ft": 0.9711, "ground_speed_ft_s": 12.5079, "vel_north_m_s": 3.27, "vel_east_m_s": 1.96, "vel_down_m_s": -0.06, "battery_remain_pct": 9900.0}
{"t_rx_ms": 1773434952382, "run_id": "20260313_130557", "seq": 276, "pitch_deg": 6.024, "yaw_deg": 32.0819, "roll_deg": 1.2461, "lat_deg": 34.0420083, "lon_deg": -117.81675279999999, "altitude_rel_ft": 0.9711, "ground_speed_ft_s": 12.5079, "vel_north_m_s": 3.27, "vel_east_m_s": 1.96, "vel_down_m_s": -0.06, "battery_remain_pct": 9900.0}
{"t_rx_ms": 1773434952583, "run_id": "20260313_130557", "seq": 277, "pitch_deg": 6.024, "yaw_deg": 32.0819, "roll_deg": 1.2461, "lat_deg": 34.0420083, "lon_deg": -117.81675279999999, "altitude_rel_ft": 0.9711, "ground_speed_ft_s": 12.5079, "vel_north_m_s": 3.27, "vel_east_m_s": 1.96, "vel_down_m_s": -0.06, "battery_remain_pct": 9900.0}
{"t_rx_ms": 1773434952784, "run_id": "20260313_130557", "seq": 278, "pitch_deg": 6.024, "yaw_deg": 32.0819, "roll_deg": 1.2461, "lat_deg": 34.0420083, "lon_deg": -117.81675279999999, "altitude_rel_ft": 0.9711, "ground_speed_ft_s": 12.5079, "vel_north_m_s": 3.27, "vel_east_m_s": 1.96, "vel_down_m_s": -0.06, "battery_remain_pct": 9900.0}
{"t_rx_ms": 1773434952985, "run_id": "20260313_130557", "seq": 279, "pitch_deg": 5.7967, "yaw_deg": 32.363, "roll_deg": 1.1593, "lat_deg": 34.0420381, "lon_deg": -117.81673049999999, "altitude_rel_ft": 0.8366, "ground_speed_ft_s": 12.9718, "vel_north_m_s": 3.35, "vel_east_m_s": 2.1, "vel_down_m_s": -0.02, "battery_remain_pct": 9900.0}
{"t_rx_ms": 1773434953185, "run_id": "20260313_130557", "seq": 280, "pitch_deg": 5.7967, "yaw_deg": 32.363, "roll_deg": 1.1593, "lat_deg": 34.0420381, "lon_deg": -117.81673049999999, "altitude_rel_ft": 0.8366, "ground_speed_ft_s": 12.9718, "vel_north_m_s": 3.35, "vel_east_m_s": 2.1, "vel_down_m_s": -0.02, "battery_remain_pct": 9900.0}
