{"t_rx_ms": 1775685327911, "run_id": "SIM_TEST", "seq": 0, "pitch_deg": -6.2841, "yaw_deg": 266.7508, "roll_deg": 3.6997, "lat_deg": 34.007533369131146, "lon_deg": -117.9904121545765, "altitude_rel_ft": 71.6074, "ground_speed_ft_s": 10.9473, "vel_north_m_s": 0.1331, "vel_east_m_s": 8.6789, "vel_down_m_s": -0.1757, "battery_remain_pct": 50.3637}
{"t_rx_ms": 1775685328012, "run_id": "SIM_TEST", "seq": 1, "pitch_deg": 9.6614, "yaw_deg": 354.502, "roll_deg": -14.3666, "lat_deg": 34.00592917548967, "lon_deg": -118.0029580449935, "altitude_rel_ft": 21.6183, "ground_speed_ft_s": 9.2487, "vel_north_m_s": -6.2673, "vel_east_m_s": -2.4233, "vel_down_m_s": 0.8439, "battery_remain_pct": 59.3057}
{"t_rx_ms": 1775685328116, "run_id": "SIM_TEST", "seq": 2, "pitch_deg": 8.4029, "yaw_deg": 134.8158, "roll_deg": -12.8345, "lat_deg": 34.000443156123886, "lon_deg": -118.00795150449106, "altitude_rel_ft": 70.0586, "ground_speed_ft_s": 57.6271, "vel_north_m_s": -9.883, "vel_east_m_s": -7.0176, "vel_down_m_s": -0.1006, "battery_remain_pct": 54.5979}
{"t_rx_ms": 1775685328217, "run_id": "SIM_TEST", "seq": 3, "pitch_deg": 4.3217, "yaw_deg": 263.4391, "roll_deg": -6.8367, "lat_deg": 34.00086638430693, "lon_deg": -118.00825336152735, "altitude_rel_ft": 40.9345, "ground_speed_ft_s": 36.4668, "vel_north_m_s": -7.5822, "vel_east_m_s": -3.0545, "vel_down_m_s": -0.7562, "battery_remain_pct": 91.5092}
{"t_rx_ms": 1775685328319, "run_id": "SIM_TEST", "seq": 4, "pitch_deg": -1.2834, "yaw_deg": 257.6817, "roll_deg": 12.5551, "lat_deg": 33.99712185556841, "lon_deg": -118.0011815927155, "altitude_rel_ft": 32.2621, "ground_speed_ft_s": 56.1972, "vel_north_m_s": 2.1315, "vel_east_m_s": 2.2751, "vel_down_m_s": -0.034, "battery_remain_pct": 95.444}
{"t_rx_ms": 1775685328420, "run_id": "SIM_TEST", "seq": 5, "pitch_deg": 5.3863, "yaw_deg": 191.9863, "roll_deg": -13.3218, "lat_deg": 33.9908289612824, "lon_deg": -117.99797069978753, "altitude_rel_ft": 67.2338, "ground_speed_ft_s": 54.0554, "vel_north_m_s": 7.2834, "vel_east_m_s": 1.0848, "vel_down_m_s": -0.7215, "battery_remain_pct": 69.2052}
{"t_rx_ms": 1775685328521, "run_id": "SIM_TEST", "seq": 6, "pitch_deg": 7.2611, "yaw_deg": 347.7563, "roll_deg": 7.469, "lat_deg": 34.00731224215719, "lon_deg": -118.00057057090059, "altitude_rel_ft": 68.7658, "ground_speed_ft_s": 8.8916, "vel_north_m_s": 9.233, "vel_east_m_s": 2.6247, "vel_down_m_s": 0.8846, "battery_remain_pct": 54.2638}
{"t_rx_ms": 1775685328621, "run_id": "SIM_TEST", "seq": 7, "pitch_deg": 1.9889, "yaw_deg": 302.8205, "roll_deg": -3.8333, "lat_deg": 34.00861335143716, "lon_deg": -117.99048321430364, "altitude_rel_ft": 86.6775, "ground_speed_ft_s": 29.1779, "vel_north_m_s": 8.8752, "vel_east_m_s": -7.0845, "vel_down_m_s": -0.1893, "battery_remain_pct": 57.0514}
{"t_rx_ms": 1775685328722, "run_id": "SIM_TEST", "seq": 8, "pitch_deg": 4.5042, "yaw_deg": 229.3057, "roll_deg": -6.3151, "lat_deg": 33.99777328743428, "lon_deg": -118.00474807397313, "altitude_rel_ft": 74.4282, "ground_speed_ft_s": 25.0712, "vel_north_m_s": 1.907, "vel_east_m_s": 7.8408, "vel_down_m_s": 0.4845, "battery_remain_pct": 63.4284}
{"t_rx_ms": 1775685328823, "run_id": "SIM_TEST", "seq": 9, "pitch_deg": 8.619, "yaw_deg": 332.8816, "roll_deg": -3.2396, "lat_deg": 34.00697056781263, "lon_deg": -117.99987326545052, "altitude_rel_ft": 35.3669, "ground_speed_ft_s": 10.2767, "vel_north_m_s": -9.9021, "vel_east_m_s": 8.5139, "vel_down_m_s": 0.6946, "battery_remain_pct": 59.4814}
{"t_rx_ms": 1775685328924, "run_id": "SIM_TEST", "seq": 10, "pitch_deg": 1.2011, "yaw_deg": 166.1959, "roll_deg": 7.2256, "lat_deg": 33.9958938257532, "lon_deg": -118.00478535466418, "altitude_rel_ft": 55.6664, "ground_speed_ft_s": 33.6197, "vel_north_m_s": 7.2629, "vel_east_m_s": -2.56, "vel_down_m_s": -0.3694, "battery_remain_pct": 99.1625}
{"t_rx_ms": 1775685329024, "run_id": "SIM_TEST", "seq": 11, "pitch_deg": -4.998, "yaw_deg": 237.2301, "roll_deg": -0.423, "lat_deg": 33.99810783672947, "lon_deg": -117.99668856725758, "altitude_rel_ft": 25.0606, "ground_speed_ft_s": 15.5904, "vel_north_m_s": 6.3418, "vel_east_m_s": -2.8126, "vel_down_m_s": -0.1467, "battery_remain_pct": 59.6318}
{"t_rx_ms": 1775685329125, "run_id": "SIM_TEST", "seq": 12, "pitch_deg": -5.9992, "yaw_deg": 269.55, "roll_deg": -8.6708, "lat_deg": 34.00468686669806, "lon_deg": -117.99710822744241, "altitude_rel_ft": 90.373, "ground_speed_ft_s": 35.9117, "vel_north_m_s": -5.8744, "vel_east_m_s": 0.5729, "vel_down_m_s": -0.3576, "battery_remain_pct": 69.8404}
{"t_rx_ms": 1775685329226, "run_id": "SIM_TEST", "seq": 13, "pitch_deg": -7.623, "yaw_deg": 276.1338, "roll_deg": 9.5879, "lat_deg": 34.00355950355004, "lon_deg": -118.00973443051993, "altitude_rel_ft": 99.7347, "ground_speed_ft_s": 30.8633, "vel_north_m_s": 5.2984, "vel_east_m_s": -6.5254, "vel_down_m_s": -0.6677, "battery_remain_pct": 52.7992}
{"t_rx_ms": 1775685329327, "run_id": "SIM_TEST", "seq": 14, "pitch_deg": -3.2035, "yaw_deg": 27.4342, "roll_deg": 9.1757, "lat_deg": 33.99327883312229, "lon_deg": -117.993129935493, "altitude_rel_ft": 53.1925, "ground_speed_ft_s": 7.1015, "vel_north_m_s": -8.7017, "vel_east_m_s": -5.612, "vel_down_m_s": -0.8163, "battery_remain_pct": 84.9624}
{"t_rx_ms": 1775685329427, "run_id": "SIM_TEST", "seq": 15, "pitch_deg": -7.8339, "yaw_deg": 347.4822, "roll_deg": 2.7964, "lat_deg": 34.006976954127786, "lon_deg": -117.99727053170132, "altitude_rel_ft": 26.9049, "ground_speed_ft_s": 30.0078, "vel_north_m_s": -7.0861, "vel_east_m_s": 8.8902, "vel_down_m_s": -0.0389, "battery_remain_pct": 71.0799}
{"t_rx_ms": 1775685329528, "run_id": "SIM_TEST", "seq": 16, "pitch_deg": 9.768, "yaw_deg": 306.2244, "roll_deg": 0.7897, "lat_deg": 33.990660816253175, "lon_deg": -118.00467842168902, "altitude_rel_ft": 44.8095, "ground_speed_ft_s": 11.3001, "vel_north_m_s": 9.8482, "vel_east_m_s": 9.6433, "vel_down_m_s": 0.1418, "battery_remain_pct": 58.5654}
{"t_rx_ms": 1775685329629, "run_id": "SIM_TEST", "seq": 17, "pitch_deg": -7.7817, "yaw_deg": 296.7381, "roll_deg": 3.4444, "lat_deg": 33.99009347088045, "lon_deg": -118.00062044381616, "altitude_rel_ft": 90.6013, "ground_speed_ft_s": 26.2179, "vel_north_m_s": 3.816, "vel_east_m_s": 8.7699, "vel_down_m_s": -0.5466, "battery_remain_pct": 94.9211}
{"t_rx_ms": 1775685329730, "run_id": "SIM_TEST", "seq": 18, "pitch_deg": -8.5998, "yaw_deg": 161.4677, "roll_deg": 3.0183, "lat_deg": 33.99232801769298, "lon_deg": -118.00869992006727, "altitude_rel_ft": 52.2457, "ground_speed_ft_s": 24.2832, "vel_north_m_s": -3.6287, "vel_east_m_s": -3.4094, "vel_down_m_s": 0.535, "battery_remain_pct": 62.5682}
{"t_rx_ms": 1775685329830, "run_id": "SIM_TEST", "seq": 19, "pitch_deg": 8.389, "yaw_deg": 229.0635, "roll_deg": -8.9574, "lat_deg": 34.00936122137411, "lon_deg": -118.00185081924566, "altitude_rel_ft": 74.7804, "ground_speed_ft_s": 38.5985, "vel_north_m_s": 3.9961, "vel_east_m_s": -9.4767, "vel_down_m_s": -0.798, "battery_remain_pct": 76.595}
{"t_rx_ms": 1775685329931, "run_id": "SIM_TEST", "seq": 20, "pitch_deg": -5.8331, "yaw_deg": 171.6408, "roll_deg": -12.5734, "lat_deg": 34.00618240710911, "lon_deg": -117.99334038617911, "altitude_rel_ft": 79.6821, "ground_speed_ft_s": 26.9617, "vel_north_m_s": 8.3648, "vel_east_m_s": 6.0692, "vel_down_m_s": 0.4562, "battery_remain_pct": 50.527}
{"t_rx_ms": 1775685330031, "run_id": "SIM_TEST", "seq": 21, "pitch_deg": -4.2349, "yaw_deg": 267.1792, "roll_deg": 9.914, "lat_deg": 34.00357637563428, "lon_deg": -118.00097266265061, "altitude_rel_ft": 88.057, "ground_speed_ft_s": 10.1305, "vel_north_m_s": -4.8694, "vel_east_m_s": 0.8511, "vel_down_m_s": 0.1319, "battery_remain_pct": 71.3285}
{"t_rx_ms": 1775685330132, "run_id": "SIM_TEST", "seq": 22, "pitch_deg": -1.4008, "yaw_deg": 297.5371, "roll_deg": 14.0046, "lat_deg": 34.002147703796446, "lon_deg": -117.99489234530942, "altitude_rel_ft": 28.2916, "ground_speed_ft_s": 55.6492, "vel_north_m_s": -7.6057, "vel_east_m_s": -5.5241, "vel_down_m_s": 0.3547, "battery_remain_pct": 89.9283}
{"t_rx_ms": 1775685330233, "run_id": "SIM_TEST", "seq": 23, "pitch_deg": -4.4071, "yaw_deg": 86.4856, "roll_deg": -11.2309, "lat_deg": 33.99832761104851, "lon_deg": -118.00795661464879, "altitude_rel_ft": 85.3103, "ground_speed_ft_s": 43.0085, "vel_north_m_s": -3.3597, "vel_east_m_s": 8.4977, "vel_down_m_s": -0.9824, "battery_remain_pct": 57.4102}
{"t_rx_ms": 1775685330333, "run_id": "SIM_TEST", "seq": 24, "pitch_deg": -6.4503, "yaw_deg": 149.4938, "roll_deg": 7.6117, "lat_deg": 34.00362916657489, "lon_deg": -117.99680283412701, "altitude_rel_ft": 53.9911, "ground_speed_ft_s": 6.8117, "vel_north_m_s": 8.4453, "vel_east_m_s": 4.009, "vel_down_m_s": -0.7032, "battery_remain_pct": 86.5139}
{"t_rx_ms": 1775685330434, "run_id": "SIM_TEST", "seq": 25, "pitch_deg": -3.0275, "yaw_deg": 311.4706, "roll_deg": -4.0557, "lat_deg": 34.00223859131527, "lon_deg": -118.00879285896671, "altitude_rel_ft": 49.2563, "ground_speed_ft_s": 45.8634, "vel_north_m_s": -0.7999, "vel_east_m_s": -8.573, "vel_down_m_s": 0.0598, "battery_remain_pct": 66.3592}
{"t_rx_ms": 1775685330535, "run_id": "SIM_TEST", "seq": 26, "pitch_deg": 9.5518, "yaw_deg": 178.0321, "roll_deg": 5.4621, "lat_deg": 34.00797592909589, "lon_deg": -118.00521583083477, "altitude_rel_ft": 93.9474, "ground_speed_ft_s": 5.8938, "vel_north_m_s": 0.5873, "vel_east_m_s": -1.4146, "vel_down_m_s": -0.1493, "battery_remain_pct": 83.6004}
{"t_rx_ms": 1775685330636, "run_id": "SIM_TEST", "seq": 27, "pitch_deg": -9.716, "yaw_deg": 214.0769, "roll_deg": -8.0272, "lat_deg": 34.00488497922937, "lon_deg": -118.00345803308932, "altitude_rel_ft": 49.1619, "ground_speed_ft_s": 21.7016, "vel_north_m_s": 2.2914, "vel_east_m_s": -9.3696, "vel_down_m_s": 0.0486, "battery_remain_pct": 64.2017}
{"t_rx_ms": 1775685330737, "run_id": "SIM_TEST", "seq": 28, "pitch_deg": -3.5789, "yaw_deg": 12.5741, "roll_deg": 12.5103, "lat_deg": 33.99462989471238, "lon_deg": -118.00916505806427, "altitude_rel_ft": 84.9032, "ground_speed_ft_s": 50.7756, "vel_north_m_s": 4.6814, "vel_east_m_s": -9.1313, "vel_down_m_s": 0.6993, "battery_remain_pct": 76.2369}
{"t_rx_ms": 1775685330839, "run_id": "SIM_TEST", "seq": 29, "pitch_deg": 4.9596, "yaw_deg": 274.3083, "roll_deg": -8.7512, "lat_deg": 33.993685221127656, "lon_deg": -118.00097245988849, "altitude_rel_ft": 81.202, "ground_speed_ft_s": 11.8805, "vel_north_m_s": 7.591, "vel_east_m_s": -8.8526, "vel_down_m_s": 0.5285, "battery_remain_pct": 58.8914}
{"t_rx_ms": 1775685330939, "run_id": "SIM_TEST", "seq": 30, "pitch_deg": -4.8254, "yaw_deg": 54.1271, "roll_deg": 9.6428, "lat_deg": 33.99672150226529, "lon_deg": -117.9985337397409, "altitude_rel_ft": 52.806, "ground_speed_ft_s": 53.3374, "vel_north_m_s": -7.9661, "vel_east_m_s": 1.9598, "vel_down_m_s": 0.2661, "battery_remain_pct": 50.7067}
{"t_rx_ms": 1775685331041, "run_id": "SIM_TEST", "seq": 31, "pitch_deg": -8.4893, "yaw_deg": 89.626, "roll_deg": -14.1862, "lat_deg": 33.99121122431475, "lon_deg": -117.99016845649689, "altitude_rel_ft": 41.2902, "ground_speed_ft_s": 44.5412, "vel_north_m_s": 2.8439, "vel_east_m_s": -1.8887, "vel_down_m_s": 0.5704, "battery_remain_pct": 58.5198}
{"t_rx_ms": 1775685331141, "run_id": "SIM_TEST", "seq": 32, "pitch_deg": -3.8073, "yaw_deg": 231.2752, "roll_deg": 3.8672, "lat_deg": 34.00299390336454, "lon_deg": -118.00111962636544, "altitude_rel_ft": 88.7472, "ground_speed_ft_s": 45.1881, "vel_north_m_s": 3.7139, "vel_east_m_s": -9.6031, "vel_down_m_s": 0.1908, "battery_remain_pct": 88.1561}
{"t_rx_ms": 1775685331242, "run_id": "SIM_TEST", "seq": 33, "pitch_deg": 0.6307, "yaw_deg": 140.9402, "roll_deg": -8.9314, "lat_deg": 33.99680840221323, "lon_deg": -118.00686388801596, "altitude_rel_ft": 36.1719, "ground_speed_ft_s": 32.3339, "vel_north_m_s": 0.6626, "vel_east_m_s": -5.9536, "vel_down_m_s": -0.927, "battery_remain_pct": 60.1413}
{"t_rx_ms": 1775685331342, "run_id": "SIM_TEST", "seq": 34, "pitch_deg": 4.7321, "yaw_deg": 259.732, "roll_deg": -6.7582, "lat_deg": 33.99025759495618, "lon_deg": -118.0029900197196, "altitude_rel_ft": 70.3704, "ground_speed_ft_s": 37.75, "vel_north_m_s": -1.1121, "vel_east_m_s": -3.9536, "vel_down_m_s": -0.312, "battery_remain_pct": 86.3962}
{"t_rx_ms": 1775685331443, "run_id": "SIM_TEST", "seq": 35, "pitch_deg": -3.6601, "yaw_deg": 84.1621, "roll_deg": -7.22, "lat_deg": 34.00339249135496, "lon_deg": -118.00548888874272, "altitude_rel_ft": 78.8821, "ground_speed_ft_s": 24.3904, "vel_north_m_s": -9.0107, "vel_east_m_s": -7.2839, "vel_down_m_s": 0.1263, "battery_remain_pct": 61.8327}
{"t_rx_ms": 1775685331544, "run_id": "SIM_TEST", "seq": 36, "pitch_deg": -6.6527, "yaw_deg": 203.4022, "roll_deg": 9.2439, "lat_deg": 34.00076655673318, "lon_deg": -118.0035479860782, "altitude_rel_ft": 91.1023, "ground_speed_ft_s": 48.6595, "vel_north_m_s": -0.6333, "vel_east_m_s": 3.0305, "vel_down_m_s": 0.1517, "battery_remain_pct": 99.8657}
{"t_rx_ms": 1775685331645, "run_id": "SIM_TEST", "seq": 37, "pitch_deg": 6.6987, "yaw_deg": 173.1097, "roll_deg": -8.6588, "lat_deg": 34.004756675360724, "lon_deg": -117.99352535161239, "altitude_rel_ft": 72.5535, "ground_speed_ft_s": 14.5275, "vel_north_m_s": -3.9344, "vel_east_m_s": 3.7152, "vel_down_m_s": -0.6785, "battery_remain_pct": 64.4577}
{"t_rx_ms": 1775685331746, "run_id": "SIM_TEST", "seq": 38, "pitch_deg": -3.4672, "yaw_deg": 101.2838, "roll_deg": 8.8849, "lat_deg": 33.99332424974256, "lon_deg": -117.99629212882168, "altitude_rel_ft": 90.6352, "ground_speed_ft_s": 11.3933, "vel_north_m_s": -6.1926, "vel_east_m_s": -2.534, "vel_down_m_s": 0.3546, "battery_remain_pct": 80.6158}
{"t_rx_ms": 1775685331847, "run_id": "SIM_TEST", "seq": 39, "pitch_deg": 7.4445, "yaw_deg": 2.8304, "roll_deg": -11.1153, "lat_deg": 33.996276849471414, "lon_deg": -118.00870038954278, "altitude_rel_ft": 29.1231, "ground_speed_ft_s": 13.9555, "vel_north_m_s": -5.5668, "vel_east_m_s": -1.4008, "vel_down_m_s": -0.5853, "battery_remain_pct": 51.39}
{"t_rx_ms": 1775685331948, "run_id": "SIM_TEST", "seq": 40, "pitch_deg": -3.1255, "yaw_deg": 200.4946, "roll_deg": -12.562, "lat_deg": 34.00411736106358, "lon_deg": -118.00733177709468, "altitude_rel_ft": 21.9934, "ground_speed_ft_s": 51.0829, "vel_north_m_s": -7.6099, "vel_east_m_s": -9.6374, "vel_down_m_s": 0.3374, "battery_remain_pct": 98.0178}
{"t_rx_ms": 1775685332049, "run_id": "SIM_TEST", "seq": 41, "pitch_deg": 3.014, "yaw_deg": 124.9627, "roll_deg": 6.0208, "lat_deg": 33.995432521940884, "lon_deg": -118.00745162661163, "altitude_rel_ft": 89.447, "ground_speed_ft_s": 13.8843, "vel_north_m_s": 8.2383, "vel_east_m_s": 5.289, "vel_down_m_s": -0.9691, "battery_remain_pct": 90.9286}
{"t_rx_ms": 1775685332150, "run_id": "SIM_TEST", "seq": 42, "pitch_deg": 1.962, "yaw_deg": 311.7396, "roll_deg": -1.7852, "lat_deg": 33.990946152976, "lon_deg": -117.99920304115021, "altitude_rel_ft": 83.1564, "ground_speed_ft_s": 24.1091, "vel_north_m_s": -4.5639, "vel_east_m_s": -7.7802, "vel_down_m_s": 0.8187, "battery_remain_pct": 86.9826}
{"t_rx_ms": 1775685332251, "run_id": "SIM_TEST", "seq": 43, "pitch_deg": 4.2433, "yaw_deg": 219.5943, "roll_deg": -11.3939, "lat_deg": 33.995226354570235, "lon_deg": -118.00088544803945, "altitude_rel_ft": 47.5926, "ground_speed_ft_s": 36.9333, "vel_north_m_s": 3.3199, "vel_east_m_s": 4.1888, "vel_down_m_s": 0.6195, "battery_remain_pct": 73.1783}
{"t_rx_ms": 1775685332351, "run_id": "SIM_TEST", "seq": 44, "pitch_deg": 9.1384, "yaw_deg": 201.8242, "roll_deg": 7.7833, "lat_deg": 34.00575644269476, "lon_deg": -117.9967957802106, "altitude_rel_ft": 52.541, "ground_speed_ft_s": 59.4116, "vel_north_m_s": 0.7052, "vel_east_m_s": 2.6805, "vel_down_m_s": 0.8632, "battery_remain_pct": 91.8591}
{"t_rx_ms": 1775685332453, "run_id": "SIM_TEST", "seq": 45, "pitch_deg": -2.1531, "yaw_deg": 226.1, "roll_deg": -10.8269, "lat_deg": 34.00332203472366, "lon_deg": -117.991284427709, "altitude_rel_ft": 36.1472, "ground_speed_ft_s": 18.8237, "vel_north_m_s": -1.8354, "vel_east_m_s": -0.9722, "vel_down_m_s": 0.3214, "battery_remain_pct": 63.868}
{"t_rx_ms": 1775685332554, "run_id": "SIM_TEST", "seq": 46, "pitch_deg": -6.887, "yaw_deg": 337.3962, "roll_deg": 6.2105, "lat_deg": 34.00369056018456, "lon_deg": -117.99612356403597, "altitude_rel_ft": 35.5008, "ground_speed_ft_s": 33.1668, "vel_north_m_s": 6.9951, "vel_east_m_s": -3.6582, "vel_down_m_s": -0.4649, "battery_remain_pct": 65.4496}
{"t_rx_ms": 1775685332655, "run_id": "SIM_TEST", "seq": 47, "pitch_deg": 1.9353, "yaw_deg": 130.8648, "roll_deg": -8.1284, "lat_deg": 34.00934125692032, "lon_deg": -117.99976102870444, "altitude_rel_ft": 70.9848, "ground_speed_ft_s": 22.97, "vel_north_m_s": 7.9568, "vel_east_m_s": -5.7388, "vel_down_m_s": 0.4726, "battery_remain_pct": 68.9244}
{"t_rx_ms": 1775685332755, "run_id": "SIM_TEST", "seq": 48, "pitch_deg": 0.3389, "yaw_deg": 338.8422, "roll_deg": 9.5893, "lat_deg": 33.999497238625096, "lon_deg": -117.9904205953914, "altitude_rel_ft": 32.8866, "ground_speed_ft_s": 5.5932, "vel_north_m_s": -0.3106, "vel_east_m_s": 4.8832, "vel_down_m_s": 0.5895, "battery_remain_pct": 56.4679}
{"t_rx_ms": 1775685332856, "run_id": "SIM_TEST", "seq": 49, "pitch_deg": -5.5855, "yaw_deg": 143.3123, "roll_deg": 11.9808, "lat_deg": 33.99854165001106, "lon_deg": -118.00156244584909, "altitude_rel_ft": 77.4108, "ground_speed_ft_s": 13.2896, "vel_north_m_s": 1.9021, "vel_east_m_s": -8.7991, "vel_down_m_s": 0.3199, "battery_remain_pct": 97.1144}
{"t_rx_ms": 1775685332957, "run_id": "SIM_TEST", "seq": 50, "pitch_deg": -1.3803, "yaw_deg": 258.9329, "roll_deg": 0.0387, "lat_deg": 33.99341174506504, "lon_deg": -117.99367860270955, "altitude_rel_ft": 52.1463, "ground_speed_ft_s": 56.2368, "vel_north_m_s": -3.0761, "vel_east_m_s": -9.7688, "vel_down_m_s": -0.3015, "battery_remain_pct": 70.3367}
{"t_rx_ms": 1775685333059, "run_id": "SIM_TEST", "seq": 51, "pitch_deg": 0.4958, "yaw_deg": 70.7891, "roll_deg": -13.0205, "lat_deg": 34.00130800740475, "lon_deg": -118.00018693031782, "altitude_rel_ft": 98.6785, "ground_speed_ft_s": 21.5574, "vel_north_m_s": 7.6978, "vel_east_m_s": 0.1031, "vel_down_m_s": 0.9987, "battery_remain_pct": 71.68}
{"t_rx_ms": 1775685333159, "run_id": "SIM_TEST", "seq": 52, "pitch_deg": -1.2292, "yaw_deg": 217.8969, "roll_deg": 4.8426, "lat_deg": 34.000003320671766, "lon_deg": -117.99364941084865, "altitude_rel_ft": 77.0456, "ground_speed_ft_s": 37.6659, "vel_north_m_s": 0.3628, "vel_east_m_s": -5.2128, "vel_down_m_s": 0.292, "battery_remain_pct": 55.981}
{"t_rx_ms": 1775685333260, "run_id": "SIM_TEST", "seq": 53, "pitch_deg": -3.4966, "yaw_deg": 100.7613, "roll_deg": -2.7249, "lat_deg": 34.008632918880316, "lon_deg": -117.99939718672184, "altitude_rel_ft": 71.2484, "ground_speed_ft_s": 18.8811, "vel_north_m_s": 2.133, "vel_east_m_s": -4.0718, "vel_down_m_s": 0.8472, "battery_remain_pct": 66.2777}
{"t_rx_ms": 1775685333361, "run_id": "SIM_TEST", "seq": 54, "pitch_deg": -1.3587, "yaw_deg": 184.4009, "roll_deg": -7.0578, "lat_deg": 33.995950026591714, "lon_deg": -118.00701998528693, "altitude_rel_ft": 47.2626, "ground_speed_ft_s": 41.9332, "vel_north_m_s": 1.573, "vel_east_m_s": 3.0724, "vel_down_m_s": 0.4966, "battery_remain_pct": 91.4845}
{"t_rx_ms": 1775685333462, "run_id": "SIM_TEST", "seq": 55, "pitch_deg": -9.0458, "yaw_deg": 219.1583, "roll_deg": 2.3813, "lat_deg": 33.99275470038212, "lon_deg": -117.9926836453562, "altitude_rel_ft": 92.8522, "ground_speed_ft_s": 34.4495, "vel_north_m_s": 9.8074, "vel_east_m_s": -0.8254, "vel_down_m_s": -0.1788, "battery_remain_pct": 75.1336}
{"t_rx_ms": 1775685333563, "run_id": "SIM_TEST", "seq": 56, "pitch_deg": -8.2306, "yaw_deg": 352.5246, "roll_deg": 7.4949, "lat_deg": 33.99829407729424, "lon_deg": -117.99056514784948, "altitude_rel_ft": 27.2528, "ground_speed_ft_s": 34.5514, "vel_north_m_s": 9.6901, "vel_east_m_s": 6.4019, "vel_down_m_s": -0.7917, "battery_remain_pct": 95.2231}
{"t_rx_ms": 1775685333664, "run_id": "SIM_TEST", "seq": 57, "pitch_deg": -0.8095, "yaw_deg": 334.1817, "roll_deg": -10.1244, "lat_deg": 33.993745350141104, "lon_deg": -117.99687839977767, "altitude_rel_ft": 33.6372, "ground_speed_ft_s": 33.0902, "vel_north_m_s": 5.8072, "vel_east_m_s": 1.2879, "vel_down_m_s": 0.4652, "battery_remain_pct": 73.6406}
{"t_rx_ms": 1775685333765, "run_id": "SIM_TEST", "seq": 58, "pitch_deg": 4.2195, "yaw_deg": 34.4237, "roll_deg": -0.2201, "lat_deg": 33.997272856717515, "lon_deg": -118.00808619929896, "altitude_rel_ft": 84.9157, "ground_speed_ft_s": 24.2731, "vel_north_m_s": 2.1557, "vel_east_m_s": 4.0817, "vel_down_m_s": -0.4065, "battery_remain_pct": 77.9633}
{"t_rx_ms": 1775685333866, "run_id": "SIM_TEST", "seq": 59, "pitch_deg": -2.0479, "yaw_deg": 337.7596, "roll_deg": 6.1238, "lat_deg": 33.99471157243868, "lon_deg": -118.00278011864047, "altitude_rel_ft": 24.5932, "ground_speed_ft_s": 56.9824, "vel_north_m_s": 4.0375, "vel_east_m_s": 7.9491, "vel_down_m_s": -0.581, "battery_remain_pct": 77.7399}
{"t_rx_ms": 1775685333968, "run_id": "SIM_TEST", "seq": 60, "pitch_deg": 9.1904, "yaw_deg": 244.1487, "roll_deg": -1.747, "lat_deg": 33.99418180157059, "lon_deg": -117.99522708361854, "altitude_rel_ft": 55.6472, "ground_speed_ft_s": 51.1023, "vel_north_m_s": -9.0527, "vel_east_m_s": 0.1739, "vel_down_m_s": 0.0921, "battery_remain_pct": 91.0097}
{"t_rx_ms": 1775685334069, "run_id": "SIM_TEST", "seq": 61, "pitch_deg": -7.7496, "yaw_deg": 263.7203, "roll_deg": 7.5009, "lat_deg": 33.993688528027256, "lon_deg": -118.00353496535098, "altitude_rel_ft": 74.685, "ground_speed_ft_s": 48.3918, "vel_north_m_s": -9.3443, "vel_east_m_s": 7.8422, "vel_down_m_s": -0.494, "battery_remain_pct": 89.4439}
{"t_rx_ms": 1775685334170, "run_id": "SIM_TEST", "seq": 62, "pitch_deg": 5.9701, "yaw_deg": 110.4262, "roll_deg": -0.5077, "lat_deg": 33.99859005099579, "lon_deg": -117.9924710895388, "altitude_rel_ft": 24.4494, "ground_speed_ft_s": 37.0022, "vel_north_m_s": -9.4394, "vel_east_m_s": 2.1957, "vel_down_m_s": -0.2633, "battery_remain_pct": 73.5019}
{"t_rx_ms": 1775685334271, "run_id": "SIM_TEST", "seq": 63, "pitch_deg": -7.9754, "yaw_deg": 250.3751, "roll_deg": 4.9031, "lat_deg": 34.00309871840598, "lon_deg": -117.99188988389746, "altitude_rel_ft": 40.7555, "ground_speed_ft_s": 49.8796, "vel_north_m_s": 0.406, "vel_east_m_s": 7.2434, "vel_down_m_s": 0.2004, "battery_remain_pct": 93.6558}
{"t_rx_ms": 1775685334372, "run_id": "SIM_TEST", "seq": 64, "pitch_deg": 7.5931, "yaw_deg": 190.9654, "roll_deg": -14.7991, "lat_deg": 34.00157226098942, "lon_deg": -117.99631254855234, "altitude_rel_ft": 64.7489, "ground_speed_ft_s": 12.3004, "vel_north_m_s": -0.1022, "vel_east_m_s": 9.3995, "vel_down_m_s": 0.0731, "battery_remain_pct": 98.8261}
{"t_rx_ms": 1775685334473, "run_id": "SIM_TEST", "seq": 65, "pitch_deg": 6.1638, "yaw_deg": 110.4014, "roll_deg": 10.5217, "lat_deg": 34.00149285340991, "lon_deg": -117.99673533796813, "altitude_rel_ft": 26.7067, "ground_speed_ft_s": 57.3043, "vel_north_m_s": 2.2259, "vel_east_m_s": -5.9155, "vel_down_m_s": 0.9442, "battery_remain_pct": 88.6144}
{"t_rx_ms": 1775685334574, "run_id": "SIM_TEST", "seq": 66, "pitch_deg": -1.2127, "yaw_deg": 170.057, "roll_deg": 9.2875, "lat_deg": 34.000775621282834, "lon_deg": -117.99943532568106, "altitude_rel_ft": 45.4991, "ground_speed_ft_s": 15.4364, "vel_north_m_s": -8.392, "vel_east_m_s": -6.0011, "vel_down_m_s": 0.2466, "battery_remain_pct": 75.3508}
{"t_rx_ms": 1775685334675, "run_id": "SIM_TEST", "seq": 67, "pitch_deg": -3.0913, "yaw_deg": 254.9407, "roll_deg": -8.983, "lat_deg": 34.00531932408608, "lon_deg": -118.00857350591059, "altitude_rel_ft": 27.6201, "ground_speed_ft_s": 53.3864, "vel_north_m_s": 0.6685, "vel_east_m_s": 2.9265, "vel_down_m_s": -0.2592, "battery_remain_pct": 50.0778}
{"t_rx_ms": 1775685334776, "run_id": "SIM_TEST", "seq": 68, "pitch_deg": -3.2643, "yaw_deg": 210.5447, "roll_deg": -0.6573, "lat_deg": 33.99579559404863, "lon_deg": -118.00718655943379, "altitude_rel_ft": 96.7926, "ground_speed_ft_s": 22.5811, "vel_north_m_s": 5.3833, "vel_east_m_s": -7.2152, "vel_down_m_s": 0.3077, "battery_remain_pct": 99.5717}
{"t_rx_ms": 1775685334877, "run_id": "SIM_TEST", "seq": 69, "pitch_deg": -2.1524, "yaw_deg": 45.1698, "roll_deg": -10.774, "lat_deg": 33.99126256487021, "lon_deg": -118.00296402300657, "altitude_rel_ft": 91.0237, "ground_speed_ft_s": 46.74, "vel_north_m_s": 9.8262, "vel_east_m_s": -5.7938, "vel_down_m_s": -0.4542, "battery_remain_pct": 66.7621}
{"t_rx_ms": 1775685334978, "run_id": "SIM_TEST", "seq": 70, "pitch_deg": -6.6684, "yaw_deg": 268.6831, "roll_deg": 0.0782, "lat_deg": 33.992456688285664, "lon_deg": -117.9931038718603, "altitude_rel_ft": 82.0236, "ground_speed_ft_s": 51.6594, "vel_north_m_s": -1.6219, "vel_east_m_s": -5.1418, "vel_down_m_s": -0.6571, "battery_remain_pct": 76.9489}
{"t_rx_ms": 1775685335079, "run_id": "SIM_TEST", "seq": 71, "pitch_deg": 8.9186, "yaw_deg": 267.9381, "roll_deg": 13.0739, "lat_deg": 34.00512497852107, "lon_deg": -118.0001860971242, "altitude_rel_ft": 61.4745, "ground_speed_ft_s": 45.6633, "vel_north_m_s": 6.0985, "vel_east_m_s": 7.4994, "vel_down_m_s": -0.7999, "battery_remain_pct": 50.0906}
{"t_rx_ms": 1775685335181, "run_id": "SIM_TEST", "seq": 72, "pitch_deg": 1.0759, "yaw_deg": 108.2147, "roll_deg": -13.6796, "lat_deg": 34.00113633699842, "lon_deg": -117.99276466103912, "altitude_rel_ft": 39.535, "ground_speed_ft_s": 31.232, "vel_north_m_s": -1.0261, "vel_east_m_s": -3.4294, "vel_down_m_s": -0.2521, "battery_remain_pct": 75.8638}
{"t_rx_ms": 1775685335282, "run_id": "SIM_TEST", "seq": 73, "pitch_deg": -1.0448, "yaw_deg": 351.6301, "roll_deg": -11.1483, "lat_deg": 33.99433564648876, "lon_deg": -118.00102109781366, "altitude_rel_ft": 84.8954, "ground_speed_ft_s": 37.9092, "vel_north_m_s": 3.1462, "vel_east_m_s": 0.9766, "vel_down_m_s": -0.4018, "battery_remain_pct": 82.7311}
{"t_rx_ms": 1775685335383, "run_id": "SIM_TEST", "seq": 74, "pitch_deg": -3.1408, "yaw_deg": 344.8607, "roll_deg": 6.3183, "lat_deg": 34.00818977134221, "lon_deg": -118.00517749167922, "altitude_rel_ft": 95.2193, "ground_speed_ft_s": 25.6843, "vel_north_m_s": -0.1583, "vel_east_m_s": -7.7769, "vel_down_m_s": -0.8838, "battery_remain_pct": 91.4969}
{"t_rx_ms": 1775685335484, "run_id": "SIM_TEST", "seq": 75, "pitch_deg": -3.2306, "yaw_deg": 1.4863, "roll_deg": -0.5995, "lat_deg": 33.99210896297977, "lon_deg": -117.99192799011571, "altitude_rel_ft": 63.454, "ground_speed_ft_s": 27.6816, "vel_north_m_s": 4.9163, "vel_east_m_s": 7.1667, "vel_down_m_s": 0.622, "battery_remain_pct": 72.6804}
{"t_rx_ms": 1775685335585, "run_id": "SIM_TEST", "seq": 76, "pitch_deg": 1.3914, "yaw_deg": 24.1915, "roll_deg": -13.4931, "lat_deg": 34.00439121048517, "lon_deg": -118.00129362870318, "altitude_rel_ft": 76.5317, "ground_speed_ft_s": 10.2905, "vel_north_m_s": -8.0155, "vel_east_m_s": 9.5501, "vel_down_m_s": 0.4764, "battery_remain_pct": 69.9949}
{"t_rx_ms": 1775685335686, "run_id": "SIM_TEST", "seq": 77, "pitch_deg": -3.2619, "yaw_deg": 161.4615, "roll_deg": 0.7949, "lat_deg": 33.99366952660565, "lon_deg": -117.99275059885494, "altitude_rel_ft": 29.1218, "ground_speed_ft_s": 17.5057, "vel_north_m_s": 9.5297, "vel_east_m_s": 8.976, "vel_down_m_s": 0.1998, "battery_remain_pct": 92.4587}
{"t_rx_ms": 1775685335786, "run_id": "SIM_TEST", "seq": 78, "pitch_deg": 8.089, "yaw_deg": 220.9417, "roll_deg": 5.9462, "lat_deg": 34.00524792431518, "lon_deg": -117.99601989628124, "altitude_rel_ft": 22.9793, "ground_speed_ft_s": 52.0973, "vel_north_m_s": -5.2138, "vel_east_m_s": -5.7568, "vel_down_m_s": -0.3579, "battery_remain_pct": 50.2493}
{"t_rx_ms": 1775685335888, "run_id": "SIM_TEST", "seq": 79, "pitch_deg": -0.413, "yaw_deg": 275.9294, "roll_deg": -5.6005, "lat_deg": 33.991253861469254, "lon_deg": -118.00930050906845, "altitude_rel_ft": 28.1826, "ground_speed_ft_s": 34.6853, "vel_north_m_s": 7.1674, "vel_east_m_s": -5.0417, "vel_down_m_s": 0.5289, "battery_remain_pct": 71.4506}
{"t_rx_ms": 1775685335989, "run_id": "SIM_TEST", "seq": 80, "pitch_deg": 2.0726, "yaw_deg": 190.6037, "roll_deg": -2.4338, "lat_deg": 33.996121463153045, "lon_deg": -117.9913199255434, "altitude_rel_ft": 76.6983, "ground_speed_ft_s": 45.8707, "vel_north_m_s": -6.3917, "vel_east_m_s": 0.8805, "vel_down_m_s": 0.7051, "battery_remain_pct": 65.6979}
{"t_rx_ms": 1775685336090, "run_id": "SIM_TEST", "seq": 81, "pitch_deg": -7.5263, "yaw_deg": 16.0888, "roll_deg": -13.7062, "lat_deg": 34.00773092131147, "lon_deg": -118.00838653159043, "altitude_rel_ft": 59.7166, "ground_speed_ft_s": 28.5494, "vel_north_m_s": -7.1807, "vel_east_m_s": 3.1786, "vel_down_m_s": 0.882, "battery_remain_pct": 99.085}
{"t_rx_ms": 1775685336191, "run_id": "SIM_TEST", "seq": 82, "pitch_deg": 8.0668, "yaw_deg": 199.5731, "roll_deg": -9.175, "lat_deg": 33.99939348618534, "lon_deg": -118.0055711076091, "altitude_rel_ft": 46.8795, "ground_speed_ft_s": 24.0089, "vel_north_m_s": -0.2864, "vel_east_m_s": -5.2342, "vel_down_m_s": -0.6022, "battery_remain_pct": 86.5258}
{"t_rx_ms": 1775685336291, "run_id": "SIM_TEST", "seq": 83, "pitch_deg": -8.7068, "yaw_deg": 321.7527, "roll_deg": -8.8042, "lat_deg": 34.004105726244234, "lon_deg": -118.00977027018082, "altitude_rel_ft": 81.5758, "ground_speed_ft_s": 34.928, "vel_north_m_s": 7.005, "vel_east_m_s": -7.1546, "vel_down_m_s": -0.4993, "battery_remain_pct": 64.0545}
{"t_rx_ms": 1775685336392, "run_id": "SIM_TEST", "seq": 84, "pitch_deg": -7.8855, "yaw_deg": 85.1896, "roll_deg": 0.6795, "lat_deg": 33.990585010913996, "lon_deg": -117.99869807935302, "altitude_rel_ft": 26.3647, "ground_speed_ft_s": 40.8972, "vel_north_m_s": -8.0323, "vel_east_m_s": -1.4526, "vel_down_m_s": 0.883, "battery_remain_pct": 66.4343}
{"t_rx_ms": 1775685336493, "run_id": "SIM_TEST", "seq": 85, "pitch_deg": -2.3981, "yaw_deg": 172.2437, "roll_deg": 4.7479, "lat_deg": 34.009590601894246, "lon_deg": -118.00619083883325, "altitude_rel_ft": 42.4739, "ground_speed_ft_s": 12.6627, "vel_north_m_s": -5.5776, "vel_east_m_s": 7.8454, "vel_down_m_s": -0.3917, "battery_remain_pct": 77.4099}
{"t_rx_ms": 1775685336594, "run_id": "SIM_TEST", "seq": 86, "pitch_deg": 5.8449, "yaw_deg": 333.6395, "roll_deg": -13.2446, "lat_deg": 33.99778976186757, "lon_deg": -117.99833509477534, "altitude_rel_ft": 80.2837, "ground_speed_ft_s": 58.974, "vel_north_m_s": 9.7755, "vel_east_m_s": -3.0417, "vel_down_m_s": 0.0591, "battery_remain_pct": 78.855}
{"t_rx_ms": 1775685336695, "run_id": "SIM_TEST", "seq": 87, "pitch_deg": 2.0032, "yaw_deg": 165.7359, "roll_deg": -7.6476, "lat_deg": 33.99812063224597, "lon_deg": -118.00903771566882, "altitude_rel_ft": 82.2502, "ground_speed_ft_s": 41.2466, "vel_north_m_s": 4.351, "vel_east_m_s": 0.6666, "vel_down_m_s": -0.3507, "battery_remain_pct": 52.6861}
{"t_rx_ms": 1775685336796, "run_id": "SIM_TEST", "seq": 88, "pitch_deg": 0.1713, "yaw_deg": 51.6905, "roll_deg": 14.0894, "lat_deg": 33.998700260635765, "lon_deg": -117.99604253779746, "altitude_rel_ft": 32.5295, "ground_speed_ft_s": 20.9916, "vel_north_m_s": 2.4525, "vel_east_m_s": 5.2116, "vel_down_m_s": -0.9125, "battery_remain_pct": 77.0176}
{"t_rx_ms": 1775685336897, "run_id": "SIM_TEST", "seq": 89, "pitch_deg": 5.6028, "yaw_deg": 180.3006, "roll_deg": 0.6446, "lat_deg": 34.00823349605989, "lon_deg": -118.00103405299492, "altitude_rel_ft": 53.0021, "ground_speed_ft_s": 10.2131, "vel_north_m_s": 9.1197, "vel_east_m_s": -8.0396, "vel_down_m_s": 0.2141, "battery_remain_pct": 58.3162}
{"t_rx_ms": 1775685336998, "run_id": "SIM_TEST", "seq": 90, "pitch_deg": 0.3728, "yaw_deg": 302.9544, "roll_deg": -6.4673, "lat_deg": 33.99639560922013, "lon_deg": -117.99007843543417, "altitude_rel_ft": 57.4959, "ground_speed_ft_s": 38.8513, "vel_north_m_s": -5.856, "vel_east_m_s": 4.2655, "vel_down_m_s": 0.453, "battery_remain_pct": 55.1732}
{"t_rx_ms": 1775685337099, "run_id": "SIM_TEST", "seq": 91, "pitch_deg": 7.1412, "yaw_deg": 85.5077, "roll_deg": -12.9994, "lat_deg": 33.99082448273737, "lon_deg": -117.99653091670929, "altitude_rel_ft": 95.9704, "ground_speed_ft_s": 51.1619, "vel_north_m_s": -9.2621, "vel_east_m_s": -1.6684, "vel_down_m_s": 0.6818, "battery_remain_pct": 88.3662}
{"t_rx_ms": 1775685337200, "run_id": "SIM_TEST", "seq": 92, "pitch_deg": 0.0848, "yaw_deg": 222.7324, "roll_deg": -4.2597, "lat_deg": 33.990922534473874, "lon_deg": -117.99643431423378, "altitude_rel_ft": 71.4143, "ground_speed_ft_s": 21.6944, "vel_north_m_s": 1.4381, "vel_east_m_s": 2.0715, "vel_down_m_s": 0.9303, "battery_remain_pct": 81.5161}
{"t_rx_ms": 1775685337301, "run_id": "SIM_TEST", "seq": 93, "pitch_deg": -0.3259, "yaw_deg": 34.3548, "roll_deg": -7.2469, "lat_deg": 33.99618709302607, "lon_deg": -117.99008841210477, "altitude_rel_ft": 97.0502, "ground_speed_ft_s": 55.1157, "vel_north_m_s": 2.1972, "vel_east_m_s": 0.3879, "vel_down_m_s": 0.9104, "battery_remain_pct": 74.9931}
{"t_rx_ms": 1775685337402, "run_id": "SIM_TEST", "seq": 94, "pitch_deg": -7.1451, "yaw_deg": 71.9201, "roll_deg": -7.7409, "lat_deg": 33.99791702475706, "lon_deg": -117.99650692645714, "altitude_rel_ft": 38.2461, "ground_speed_ft_s": 15.4645, "vel_north_m_s": -8.8021, "vel_east_m_s": -2.953, "vel_down_m_s": 0.0865, "battery_remain_pct": 68.2195}
{"t_rx_ms": 1775685337503, "run_id": "SIM_TEST", "seq": 95, "pitch_deg": 3.2077, "yaw_deg": 204.7498, "roll_deg": 11.8561, "lat_deg": 34.00444381800305, "lon_deg": -117.99705872249106, "altitude_rel_ft": 76.7791, "ground_speed_ft_s": 16.9235, "vel_north_m_s": 1.9596, "vel_east_m_s": 0.2289, "vel_down_m_s": -0.2647, "battery_remain_pct": 69.4584}
{"t_rx_ms": 1775685337604, "run_id": "SIM_TEST", "seq": 96, "pitch_deg": 9.4827, "yaw_deg": 334.167, "roll_deg": -3.2096, "lat_deg": 33.99783364496483, "lon_deg": -117.99777084461668, "altitude_rel_ft": 54.9691, "ground_speed_ft_s": 44.1254, "vel_north_m_s": -6.5869, "vel_east_m_s": -5.411, "vel_down_m_s": -0.858, "battery_remain_pct": 95.9556}
{"t_rx_ms": 1775685337706, "run_id": "SIM_TEST", "seq": 97, "pitch_deg": 9.2242, "yaw_deg": 1.9917, "roll_deg": 6.2752, "lat_deg": 34.008300931636846, "lon_deg": -117.99011080156767, "altitude_rel_ft": 21.2408, "ground_speed_ft_s": 6.4559, "vel_north_m_s": -7.4978, "vel_east_m_s": 2.3995, "vel_down_m_s": 0.0601, "battery_remain_pct": 63.9226}
{"t_rx_ms": 1775685337807, "run_id": "SIM_TEST", "seq": 98, "pitch_deg": 0.3241, "yaw_deg": 258.1767, "roll_deg": -10.6675, "lat_deg": 33.993256200459626, "lon_deg": -118.00721404203328, "altitude_rel_ft": 60.6689, "ground_speed_ft_s": 49.1564, "vel_north_m_s": 7.4102, "vel_east_m_s": 9.456, "vel_down_m_s": -0.5826, "battery_remain_pct": 92.6998}
{"t_rx_ms": 1775685337908, "run_id": "SIM_TEST", "seq": 99, "pitch_deg": 5.5421, "yaw_deg": 329.9333, "roll_deg": 0.2677, "lat_deg": 34.008676460622524, "lon_deg": -117.99558564812541, "altitude_rel_ft": 71.2691, "ground_speed_ft_s": 20.74, "vel_north_m_s": 3.263, "vel_east_m_s": 4.0734, "vel_down_m_s": -0.6195, "battery_remain_pct": 88.1845}
{"t_rx_ms": 1775685338010, "run_id": "SIM_TEST", "seq": 100, "pitch_deg": 7.8601, "yaw_deg": 13.3789, "roll_deg": 1.7931, "lat_deg": 34.00874352452425, "lon_deg": -118.00373107168289, "altitude_rel_ft": 38.2917, "ground_speed_ft_s": 55.5724, "vel_north_m_s": 0.2357, "vel_east_m_s": -1.5635, "vel_down_m_s": 0.3977, "battery_remain_pct": 67.354}
{"t_rx_ms": 1775685338111, "run_id": "SIM_TEST", "seq": 101, "pitch_deg": -9.169, "yaw_deg": 94.6371, "roll_deg": -6.8628, "lat_deg": 33.99648225402432, "lon_deg": -118.00410332660421, "altitude_rel_ft": 39.4092, "ground_speed_ft_s": 48.4618, "vel_north_m_s": 4.7723, "vel_east_m_s": -9.6586, "vel_down_m_s": 0.4529, "battery_remain_pct": 59.774}
{"t_rx_ms": 1775685338212, "run_id": "SIM_TEST", "seq": 102, "pitch_deg": 7.3833, "yaw_deg": 134.1127, "roll_deg": 2.1268, "lat_deg": 33.995718544001505, "lon_deg": -117.99676770421938, "altitude_rel_ft": 57.4809, "ground_speed_ft_s": 13.4988, "vel_north_m_s": 5.2815, "vel_east_m_s": -9.6015, "vel_down_m_s": 0.6342, "battery_remain_pct": 66.1845}
{"t_rx_ms": 1775685338314, "run_id": "SIM_TEST", "seq": 103, "pitch_deg": -2.2976, "yaw_deg": 142.4815, "roll_deg": 3.7347, "lat_deg": 33.990731632247865, "lon_deg": -118.00562896671246, "altitude_rel_ft": 77.5339, "ground_speed_ft_s": 31.0037, "vel_north_m_s": 1.6511, "vel_east_m_s": -4.4576, "vel_down_m_s": -0.9812, "battery_remain_pct": 86.8263}
{"t_rx_ms": 1775685338415, "run_id": "SIM_TEST", "seq": 104, "pitch_deg": 3.2229, "yaw_deg": 329.7523, "roll_deg": -2.1172, "lat_deg": 34.00762092342849, "lon_deg": -117.99202621202686, "altitude_rel_ft": 46.4606, "ground_speed_ft_s": 18.6914, "vel_north_m_s": -5.8573, "vel_east_m_s": -4.2466, "vel_down_m_s": -0.8899, "battery_remain_pct": 83.2221}
{"t_rx_ms": 1775685338516, "run_id": "SIM_TEST", "seq": 105, "pitch_deg": 8.8671, "yaw_deg": 298.7798, "roll_deg": 2.078, "lat_deg": 34.00763167715042, "lon_deg": -118.00200961414667, "altitude_rel_ft": 38.5047, "ground_speed_ft_s": 41.5237, "vel_north_m_s": 6.2694, "vel_east_m_s": -5.0676, "vel_down_m_s": -0.9677, "battery_remain_pct": 60.4758}
{"t_rx_ms": 1775685338616, "run_id": "SIM_TEST", "seq": 106, "pitch_deg": 5.932, "yaw_deg": 134.4601, "roll_deg": -9.502, "lat_deg": 33.99024439526934, "lon_deg": -118.00074871932922, "altitude_rel_ft": 21.4286, "ground_speed_ft_s": 13.9796, "vel_north_m_s": -5.7266, "vel_east_m_s": 8.3386, "vel_down_m_s": 0.068, "battery_remain_pct": 91.5306}
{"t_rx_ms": 1775685338718, "run_id": "SIM_TEST", "seq": 107, "pitch_deg": -3.2516, "yaw_deg": 13.0475, "roll_deg": -7.2964, "lat_deg": 33.99822519389607, "lon_deg": -117.99347403034561, "altitude_rel_ft": 47.6719, "ground_speed_ft_s": 41.9458, "vel_north_m_s": 6.5407, "vel_east_m_s": -4.6328, "vel_down_m_s": -0.5617, "battery_remain_pct": 71.7556}
{"t_rx_ms": 1775685338819, "run_id": "SIM_TEST", "seq": 108, "pitch_deg": -2.8806, "yaw_deg": 162.5717, "roll_deg": 1.6987, "lat_deg": 33.99941266639168, "lon_deg": -117.99142151759037, "altitude_rel_ft": 43.0425, "ground_speed_ft_s": 22.3886, "vel_north_m_s": 3.8193, "vel_east_m_s": 7.8585, "vel_down_m_s": -0.7576, "battery_remain_pct": 73.5827}
{"t_rx_ms": 1775685338920, "run_id": "SIM_TEST", "seq": 109, "pitch_deg": 4.566, "yaw_deg": 112.489, "roll_deg": -9.7794, "lat_deg": 34.0012594902126, "lon_deg": -118.0070978812343, "altitude_rel_ft": 98.4913, "ground_speed_ft_s": 5.7251, "vel_north_m_s": 1.7871, "vel_east_m_s": -8.8454, "vel_down_m_s": 0.6343, "battery_remain_pct": 77.945}
{"t_rx_ms": 1775685339021, "run_id": "SIM_TEST", "seq": 110, "pitch_deg": 2.0077, "yaw_deg": 34.6106, "roll_deg": -7.5861, "lat_deg": 34.00894463557267, "lon_deg": -117.99791311806388, "altitude_rel_ft": 77.196, "ground_speed_ft_s": 53.2347, "vel_north_m_s": -2.4944, "vel_east_m_s": 8.3898, "vel_down_m_s": -0.6019, "battery_remain_pct": 79.6616}
{"t_rx_ms": 1775685339123, "run_id": "SIM_TEST", "seq": 111, "pitch_deg": 4.3884, "yaw_deg": 20.0427, "roll_deg": -7.1546, "lat_deg": 33.99131301053519, "lon_deg": -117.99613788336772, "altitude_rel_ft": 54.2754, "ground_speed_ft_s": 17.9688, "vel_north_m_s": 6.9242, "vel_east_m_s": -8.7297, "vel_down_m_s": -0.722, "battery_remain_pct": 72.3}
{"t_rx_ms": 1775685339224, "run_id": "SIM_TEST", "seq": 112, "pitch_deg": 6.1433, "yaw_deg": 238.8483, "roll_deg": 13.603, "lat_deg": 33.99171560316824, "lon_deg": -118.00899641993513, "altitude_rel_ft": 60.1773, "ground_speed_ft_s": 46.2608, "vel_north_m_s": 4.417, "vel_east_m_s": -6.2953, "vel_down_m_s": 0.5043, "battery_remain_pct": 69.1762}
{"t_rx_ms": 1775685339325, "run_id": "SIM_TEST", "seq": 113, "pitch_deg": 1.0736, "yaw_deg": 251.7278, "roll_deg": 12.8906, "lat_deg": 33.99937865686879, "lon_deg": -118.00622101693627, "altitude_rel_ft": 44.8483, "ground_speed_ft_s": 32.5842, "vel_north_m_s": -9.5151, "vel_east_m_s": 0.2719, "vel_down_m_s": 0.7355, "battery_remain_pct": 79.8417}
{"t_rx_ms": 1775685339426, "run_id": "SIM_TEST", "seq": 114, "pitch_deg": 9.5447, "yaw_deg": 239.665, "roll_deg": -2.6316, "lat_deg": 33.992016705938525, "lon_deg": -118.0041357771782, "altitude_rel_ft": 97.1319, "ground_speed_ft_s": 54.677, "vel_north_m_s": -5.0848, "vel_east_m_s": 0.3834, "vel_down_m_s": -0.0035, "battery_remain_pct": 71.7838}
{"t_rx_ms": 1775685339527, "run_id": "SIM_TEST", "seq": 115, "pitch_deg": -9.6353, "yaw_deg": 339.1325, "roll_deg": 9.7373, "lat_deg": 33.99465546347071, "lon_deg": -118.00259370375856, "altitude_rel_ft": 23.7869, "ground_speed_ft_s": 10.6417, "vel_north_m_s": -0.0712, "vel_east_m_s": 2.1221, "vel_down_m_s": -0.6007, "battery_remain_pct": 71.8848}
{"t_rx_ms": 1775685339628, "run_id": "SIM_TEST", "seq": 116, "pitch_deg": 4.5404, "yaw_deg": 173.277, "roll_deg": -1.9501, "lat_deg": 34.005590875974825, "lon_deg": -118.00312550933626, "altitude_rel_ft": 61.7509, "ground_speed_ft_s": 15.5872, "vel_north_m_s": 1.8909, "vel_east_m_s": -0.7909, "vel_down_m_s": -0.6518, "battery_remain_pct": 57.8446}
{"t_rx_ms": 1775685339730, "run_id": "SIM_TEST", "seq": 117, "pitch_deg": 1.5643, "yaw_deg": 316.4807, "roll_deg": 12.8075, "lat_deg": 34.00239970197288, "lon_deg": -117.9935050765927, "altitude_rel_ft": 21.7265, "ground_speed_ft_s": 12.3458, "vel_north_m_s": -9.4554, "vel_east_m_s": -0.5351, "vel_down_m_s": 0.4577, "battery_remain_pct": 85.5509}
{"t_rx_ms": 1775685339831, "run_id": "SIM_TEST", "seq": 118, "pitch_deg": -3.3453, "yaw_deg": 26.504, "roll_deg": 12.3445, "lat_deg": 34.002029260994476, "lon_deg": -118.00669850811083, "altitude_rel_ft": 40.9242, "ground_speed_ft_s": 8.2105, "vel_north_m_s": -7.6569, "vel_east_m_s": -7.7963, "vel_down_m_s": 0.6323, "battery_remain_pct": 63.1633}
{"t_rx_ms": 1775685339932, "run_id": "SIM_TEST", "seq": 119, "pitch_deg": -1.9052, "yaw_deg": 56.7933, "roll_deg": 0.0722, "lat_deg": 33.99658406493119, "lon_deg": -118.0086721721616, "altitude_rel_ft": 35.9463, "ground_speed_ft_s": 41.1778, "vel_north_m_s": -1.6685, "vel_east_m_s": -4.8605, "vel_down_m_s": 0.6887, "battery_remain_pct": 72.7169}
{"t_rx_ms": 1775685340033, "run_id": "SIM_TEST", "seq": 120, "pitch_deg": 7.0882, "yaw_deg": 294.1435, "roll_deg": 7.761, "lat_deg": 34.00725593981925, "lon_deg": -118.00462611078105, "altitude_rel_ft": 51.9489, "ground_speed_ft_s": 14.3973, "vel_north_m_s": -8.9874, "vel_east_m_s": -7.6452, "vel_down_m_s": 0.5239, "battery_remain_pct": 76.8861}
{"t_rx_ms": 1775685340134, "run_id": "SIM_TEST", "seq": 121, "pitch_deg": -2.9235, "yaw_deg": 256.5504, "roll_deg": 10.9953, "lat_deg": 34.00719231045147, "lon_deg": -118.0021893976769, "altitude_rel_ft": 78.1893, "ground_speed_ft_s": 10.2167, "vel_north_m_s": -0.592, "vel_east_m_s": 3.2632, "vel_down_m_s": 0.3227, "battery_remain_pct": 66.0543}
{"t_rx_ms": 1775685340236, "run_id": "SIM_TEST", "seq": 122, "pitch_deg": 8.1227, "yaw_deg": 204.2931, "roll_deg": 14.4068, "lat_deg": 33.99455864818628, "lon_deg": -118.00120812397316, "altitude_rel_ft": 58.0902, "ground_speed_ft_s": 51.7482, "vel_north_m_s": 0.3243, "vel_east_m_s": 7.412, "vel_down_m_s": 0.7243, "battery_remain_pct": 61.3259}
{"t_rx_ms": 1775685340337, "run_id": "SIM_TEST", "seq": 123, "pitch_deg": 3.0194, "yaw_deg": 1.748, "roll_deg": 4.1094, "lat_deg": 33.997947672345674, "lon_deg": -118.00507244407689, "altitude_rel_ft": 59.0829, "ground_speed_ft_s": 10.1912, "vel_north_m_s": -9.5222, "vel_east_m_s": -0.7219, "vel_down_m_s": -0.9515, "battery_remain_pct": 85.2339}
{"t_rx_ms": 1775685340439, "run_id": "SIM_TEST", "seq": 124, "pitch_deg": -6.6891, "yaw_deg": 77.8395, "roll_deg": -6.9708, "lat_deg": 33.99841676932291, "lon_deg": -117.9906703238601, "altitude_rel_ft": 63.3167, "ground_speed_ft_s": 21.3096, "vel_north_m_s": 0.4257, "vel_east_m_s": -1.6673, "vel_down_m_s": 0.4912, "battery_remain_pct": 51.9227}
{"t_rx_ms": 1775685340539, "run_id": "SIM_TEST", "seq": 125, "pitch_deg": -6.6612, "yaw_deg": 119.8643, "roll_deg": 0.0031, "lat_deg": 33.99984326316268, "lon_deg": -117.99746870709697, "altitude_rel_ft": 36.4674, "ground_speed_ft_s": 43.9046, "vel_north_m_s": -5.4616, "vel_east_m_s": 1.492, "vel_down_m_s": -0.6283, "battery_remain_pct": 63.5344}
{"t_rx_ms": 1775685340640, "run_id": "SIM_TEST", "seq": 126, "pitch_deg": -1.4188, "yaw_deg": 207.4776, "roll_deg": -5.2024, "lat_deg": 33.99554689645861, "lon_deg": -117.99300142269551, "altitude_rel_ft": 22.9633, "ground_speed_ft_s": 12.7992, "vel_north_m_s": -6.5555, "vel_east_m_s": 0.1182, "vel_down_m_s": -0.0205, "battery_remain_pct": 95.7914}
{"t_rx_ms": 1775685340741, "run_id": "SIM_TEST", "seq": 127, "pitch_deg": -6.3387, "yaw_deg": 278.8681, "roll_deg": -5.7208, "lat_deg": 33.998270215048414, "lon_deg": -118.00694604777509, "altitude_rel_ft": 84.4273, "ground_speed_ft_s": 16.1839, "vel_north_m_s": -8.529, "vel_east_m_s": 2.6676, "vel_down_m_s": 0.2154, "battery_remain_pct": 94.4021}
{"t_rx_ms": 1775685340842, "run_id": "SIM_TEST", "seq": 128, "pitch_deg": -8.6961, "yaw_deg": 199.1918, "roll_deg": -10.1598, "lat_deg": 33.99845795927934, "lon_deg": -118.00233574824453, "altitude_rel_ft": 41.5325, "ground_speed_ft_s": 22.5897, "vel_north_m_s": -8.8366, "vel_east_m_s": -7.6107, "vel_down_m_s": 0.6466, "battery_remain_pct": 98.023}
{"t_rx_ms": 1775685340943, "run_id": "SIM_TEST", "seq": 129, "pitch_deg": -6.7761, "yaw_deg": 227.4484, "roll_deg": 1.3987, "lat_deg": 34.00334045633981, "lon_deg": -117.99463985805308, "altitude_rel_ft": 79.5116, "ground_speed_ft_s": 42.8667, "vel_north_m_s": 2.9267, "vel_east_m_s": 0.6918, "vel_down_m_s": -0.6332, "battery_remain_pct": 82.9485}
{"t_rx_ms": 1775685341044, "run_id": "SIM_TEST", "seq": 130, "pitch_deg": -7.7825, "yaw_deg": 190.3368, "roll_deg": -14.4656, "lat_deg": 33.99154491946562, "lon_deg": -117.9916975000036, "altitude_rel_ft": 56.8711, "ground_speed_ft_s": 25.2792, "vel_north_m_s": 9.0632, "vel_east_m_s": 6.9696, "vel_down_m_s": -0.2885, "battery_remain_pct": 66.2681}
{"t_rx_ms": 1775685341145, "run_id": "SIM_TEST", "seq": 131, "pitch_deg": -1.9964, "yaw_deg": 174.7995, "roll_deg": -0.0987, "lat_deg": 34.003541081125434, "lon_deg": -118.00835275264542, "altitude_rel_ft": 56.2093, "ground_speed_ft_s": 17.9266, "vel_north_m_s": -4.8148, "vel_east_m_s": 9.9147, "vel_down_m_s": -0.4242, "battery_remain_pct": 73.0044}
{"t_rx_ms": 1775685341246, "run_id": "SIM_TEST", "seq": 132, "pitch_deg": -3.5101, "yaw_deg": 330.6491, "roll_deg": -4.0093, "lat_deg": 33.99406581428269, "lon_deg": -118.00994810798028, "altitude_rel_ft": 92.7376, "ground_speed_ft_s": 21.3877, "vel_north_m_s": -4.1482, "vel_east_m_s": -3.4843, "vel_down_m_s": -0.6986, "battery_remain_pct": 56.7739}
{"t_rx_ms": 1775685341347, "run_id": "SIM_TEST", "seq": 133, "pitch_deg": -3.0339, "yaw_deg": 62.8685, "roll_deg": 0.8826, "lat_deg": 34.007111305708456, "lon_deg": -118.00115811651438, "altitude_rel_ft": 44.1601, "ground_speed_ft_s": 33.0608, "vel_north_m_s": -4.8306, "vel_east_m_s": 9.5143, "vel_down_m_s": -0.2244, "battery_remain_pct": 96.8639}
{"t_rx_ms": 1775685341448, "run_id": "SIM_TEST", "seq": 134, "pitch_deg": -0.1359, "yaw_deg": 290.9885, "roll_deg": -9.8967, "lat_deg": 34.004548188667755, "lon_deg": -117.99819020157857, "altitude_rel_ft": 69.2347, "ground_speed_ft_s": 57.1214, "vel_north_m_s": 5.3948, "vel_east_m_s": -2.994, "vel_down_m_s": -0.5598, "battery_remain_pct": 86.275}
{"t_rx_ms": 1775685341549, "run_id": "SIM_TEST", "seq": 135, "pitch_deg": -5.2658, "yaw_deg": 58.2598, "roll_deg": 10.3609, "lat_deg": 34.00699804215375, "lon_deg": -117.99097946216736, "altitude_rel_ft": 57.0151, "ground_speed_ft_s": 21.5988, "vel_north_m_s": 5.3007, "vel_east_m_s": -8.894, "vel_down_m_s": -0.9204, "battery_remain_pct": 99.7531}
{"t_rx_ms": 1775685341650, "run_id": "SIM_TEST", "seq": 136, "pitch_deg": 4.6025, "yaw_deg": 168.5484, "roll_deg": -2.073, "lat_deg": 34.009488335358704, "lon_deg": -117.99248754491431, "altitude_rel_ft": 83.3383, "ground_speed_ft_s": 31.6201, "vel_north_m_s": -6.1579, "vel_east_m_s": -2.384, "vel_down_m_s": 0.6747, "battery_remain_pct": 74.323}
{"t_rx_ms": 1775685341751, "run_id": "SIM_TEST", "seq": 137, "pitch_deg": 5.4904, "yaw_deg": 39.6105, "roll_deg": -12.0946, "lat_deg": 33.99397046234062, "lon_deg": -117.99851317799273, "altitude_rel_ft": 58.663, "ground_speed_ft_s": 30.2945, "vel_north_m_s": 0.2277, "vel_east_m_s": 0.384, "vel_down_m_s": -0.3441, "battery_remain_pct": 95.4403}
{"t_rx_ms": 1775685341852, "run_id": "SIM_TEST", "seq": 138, "pitch_deg": 7.7543, "yaw_deg": 300.0578, "roll_deg": -13.0484, "lat_deg": 33.992678018985146, "lon_deg": -117.99841563948927, "altitude_rel_ft": 36.5222, "ground_speed_ft_s": 52.6692, "vel_north_m_s": -7.6451, "vel_east_m_s": -6.6993, "vel_down_m_s": 0.9535, "battery_remain_pct": 81.5886}
{"t_rx_ms": 1775685341953, "run_id": "SIM_TEST", "seq": 139, "pitch_deg": -1.8995, "yaw_deg": 185.7549, "roll_deg": -10.8636, "lat_deg": 34.00050478397095, "lon_deg": -117.99223725537502, "altitude_rel_ft": 33.7921, "ground_speed_ft_s": 57.2802, "vel_north_m_s": 9.5521, "vel_east_m_s": 0.3488, "vel_down_m_s": -0.6583, "battery_remain_pct": 99.7345}
{"t_rx_ms": 1775685342054, "run_id": "SIM_TEST", "seq": 140, "pitch_deg": 4.7758, "yaw_deg": 159.403, "roll_deg": 12.2962, "lat_deg": 34.00622514534056, "lon_deg": -118.00518528291728, "altitude_rel_ft": 65.5432, "ground_speed_ft_s": 55.6731, "vel_north_m_s": -0.4413, "vel_east_m_s": 2.5094, "vel_down_m_s": -0.3333, "battery_remain_pct": 65.1194}
{"t_rx_ms": 1775685342155, "run_id": "SIM_TEST", "seq": 141, "pitch_deg": 8.7277, "yaw_deg": 155.1465, "roll_deg": 4.987, "lat_deg": 33.991880358467185, "lon_deg": -117.99068059972598, "altitude_rel_ft": 99.6373, "ground_speed_ft_s": 38.6265, "vel_north_m_s": -5.2049, "vel_east_m_s": -9.6366, "vel_down_m_s": -0.6872, "battery_remain_pct": 59.4244}
{"t_rx_ms": 1775685342256, "run_id": "SIM_TEST", "seq": 142, "pitch_deg": 0.1505, "yaw_deg": 21.1345, "roll_deg": -12.3466, "lat_deg": 33.99506172090993, "lon_deg": -117.99799308725169, "altitude_rel_ft": 46.406, "ground_speed_ft_s": 35.6234, "vel_north_m_s": 0.6978, "vel_east_m_s": 6.1662, "vel_down_m_s": 0.2863, "battery_remain_pct": 88.5661}
{"t_rx_ms": 1775685342357, "run_id": "SIM_TEST", "seq": 143, "pitch_deg": 9.8622, "yaw_deg": 44.7486, "roll_deg": -1.7332, "lat_deg": 34.00356872535032, "lon_deg": -118.00270638981944, "altitude_rel_ft": 20.9435, "ground_speed_ft_s": 7.3826, "vel_north_m_s": 0.8957, "vel_east_m_s": 7.2515, "vel_down_m_s": -0.4036, "battery_remain_pct": 96.6006}
{"t_rx_ms": 1775685342458, "run_id": "SIM_TEST", "seq": 144, "pitch_deg": 8.8898, "yaw_deg": 275.1048, "roll_deg": -4.9946, "lat_deg": 34.00038298872388, "lon_deg": -117.99681969762877, "altitude_rel_ft": 65.2931, "ground_speed_ft_s": 37.7535, "vel_north_m_s": 2.0145, "vel_east_m_s": -4.5247, "vel_down_m_s": -0.7208, "battery_remain_pct": 55.3061}
{"t_rx_ms": 1775685342558, "run_id": "SIM_TEST", "seq": 145, "pitch_deg": 1.2756, "yaw_deg": 127.6526, "roll_deg": 7.4624, "lat_deg": 33.99644520613269, "lon_deg": -117.9984375524277, "altitude_rel_ft": 51.2984, "ground_speed_ft_s": 19.0014, "vel_north_m_s": -0.5809, "vel_east_m_s": 8.255, "vel_down_m_s": 0.4479, "battery_remain_pct": 59.4696}
{"t_rx_ms": 1775685342659, "run_id": "SIM_TEST", "seq": 146, "pitch_deg": 9.2752, "yaw_deg": 141.6794, "roll_deg": 11.0053, "lat_deg": 33.99939775718573, "lon_deg": -118.0084788495813, "altitude_rel_ft": 75.799, "ground_speed_ft_s": 44.6174, "vel_north_m_s": -0.4819, "vel_east_m_s": -3.2824, "vel_down_m_s": 0.0379, "battery_remain_pct": 77.8766}
{"t_rx_ms": 1775685342760, "run_id": "SIM_TEST", "seq": 147, "pitch_deg": -3.9311, "yaw_deg": 257.6282, "roll_deg": 2.143, "lat_deg": 34.007465297985924, "lon_deg": -117.99386246638959, "altitude_rel_ft": 80.7168, "ground_speed_ft_s": 10.6849, "vel_north_m_s": -1.992, "vel_east_m_s": 8.3062, "vel_down_m_s": 0.15, "battery_remain_pct": 81.7921}
{"t_rx_ms": 1775685342860, "run_id": "SIM_TEST", "seq": 148, "pitch_deg": 5.7585, "yaw_deg": 143.8266, "roll_deg": -8.5667, "lat_deg": 33.99598996081749, "lon_deg": -117.99201337946263, "altitude_rel_ft": 74.4525, "ground_speed_ft_s": 6.361, "vel_north_m_s": 3.402, "vel_east_m_s": 9.6998, "vel_down_m_s": -0.0484, "battery_remain_pct": 78.1975}
{"t_rx_ms": 1775685342961, "run_id": "SIM_TEST", "seq": 149, "pitch_deg": 1.0223, "yaw_deg": 108.9438, "roll_deg": 6.6982, "lat_deg": 34.00430204144072, "lon_deg": -117.99605014919008, "altitude_rel_ft": 83.9463, "ground_speed_ft_s": 33.9947, "vel_north_m_s": -8.687, "vel_east_m_s": -2.6638, "vel_down_m_s": 0.4353, "battery_remain_pct": 58.4071}
{"t_rx_ms": 1775685343062, "run_id": "SIM_TEST", "seq": 150, "pitch_deg": -6.3021, "yaw_deg": 299.4268, "roll_deg": -7.0761, "lat_deg": 34.00704506948515, "lon_deg": -118.00770715202165, "altitude_rel_ft": 91.6602, "ground_speed_ft_s": 33.4858, "vel_north_m_s": 3.0791, "vel_east_m_s": 0.8979, "vel_down_m_s": -0.6708, "battery_remain_pct": 98.7073}
{"t_rx_ms": 1775685343163, "run_id": "SIM_TEST", "seq": 151, "pitch_deg": -4.4993, "yaw_deg": 41.679, "roll_deg": 2.3895, "lat_deg": 34.0055960478244, "lon_deg": -117.99769582391066, "altitude_rel_ft": 38.819, "ground_speed_ft_s": 37.1524, "vel_north_m_s": -1.9782, "vel_east_m_s": -9.2284, "vel_down_m_s": 0.234, "battery_remain_pct": 99.4143}
{"t_rx_ms": 1775685343263, "run_id": "SIM_TEST", "seq": 152, "pitch_deg": -0.9537, "yaw_deg": 248.9919, "roll_deg": -5.2841, "lat_deg": 34.00629622202209, "lon_deg": -118.00612478894949, "altitude_rel_ft": 51.4086, "ground_speed_ft_s": 12.8306, "vel_north_m_s": -8.822, "vel_east_m_s": 8.8221, "vel_down_m_s": -0.5316, "battery_remain_pct": 96.4463}
{"t_rx_ms": 1775685343364, "run_id": "SIM_TEST", "seq": 153, "pitch_deg": -1.8268, "yaw_deg": 168.7687, "roll_deg": -1.9047, "lat_deg": 34.00128149950089, "lon_deg": -117.99635342624029, "altitude_rel_ft": 32.5469, "ground_speed_ft_s": 45.1256, "vel_north_m_s": -1.8463, "vel_east_m_s": -8.7286, "vel_down_m_s": -0.9437, "battery_remain_pct": 99.069}
{"t_rx_ms": 1775685343466, "run_id": "SIM_TEST", "seq": 154, "pitch_deg": 5.5917, "yaw_deg": 73.7457, "roll_deg": 14.7257, "lat_deg": 34.00984857024443, "lon_deg": -118.00531185878583, "altitude_rel_ft": 36.2982, "ground_speed_ft_s": 55.1582, "vel_north_m_s": -5.5245, "vel_east_m_s": 9.8982, "vel_down_m_s": 0.0159, "battery_remain_pct": 61.0635}
{"t_rx_ms": 1775685343567, "run_id": "SIM_TEST", "seq": 155, "pitch_deg": -4.1555, "yaw_deg": 135.492, "roll_deg": 11.4343, "lat_deg": 34.00832677749946, "lon_deg": -117.99750296227533, "altitude_rel_ft": 73.6078, "ground_speed_ft_s": 5.8409, "vel_north_m_s": 8.3164, "vel_east_m_s": 2.6581, "vel_down_m_s": 0.6384, "battery_remain_pct": 72.2853}
{"t_rx_ms": 1775685343668, "run_id": "SIM_TEST", "seq": 156, "pitch_deg": -4.1238, "yaw_deg": 232.1624, "roll_deg": 8.6882, "lat_deg": 33.99038530515561, "lon_deg": -117.99680937349761, "altitude_rel_ft": 82.7995, "ground_speed_ft_s": 15.0153, "vel_north_m_s": 3.6676, "vel_east_m_s": -9.5499, "vel_down_m_s": -0.8421, "battery_remain_pct": 96.5174}
{"t_rx_ms": 1775685343769, "run_id": "SIM_TEST", "seq": 157, "pitch_deg": -5.7207, "yaw_deg": 0.7222, "roll_deg": -10.9858, "lat_deg": 34.00353214135049, "lon_deg": -117.99952926105388, "altitude_rel_ft": 80.1315, "ground_speed_ft_s": 39.0323, "vel_north_m_s": 7.9902, "vel_east_m_s": 6.4863, "vel_down_m_s": 0.709, "battery_remain_pct": 74.5201}
{"t_rx_ms": 1775685343870, "run_id": "SIM_TEST", "seq": 158, "pitch_deg": -0.3051, "yaw_deg": 195.3339, "roll_deg": 9.5915, "lat_deg": 34.00120179072675, "lon_deg": -117.99027405637112, "altitude_rel_ft": 50.7104, "ground_speed_ft_s": 55.541, "vel_north_m_s": 3.9761, "vel_east_m_s": 3.0828, "vel_down_m_s": 0.8988, "battery_remain_pct": 63.8927}
{"t_rx_ms": 1775685343971, "run_id": "SIM_TEST", "seq": 159, "pitch_deg": 2.5151, "yaw_deg": 344.685, "roll_deg": 9.543, "lat_deg": 34.00283141429319, "lon_deg": -118.00345454389469, "altitude_rel_ft": 73.2578, "ground_speed_ft_s": 31.8336, "vel_north_m_s": 4.6232, "vel_east_m_s": 4.7903, "vel_down_m_s": -0.2233, "battery_remain_pct": 96.2926}
{"t_rx_ms": 1775685344072, "run_id": "SIM_TEST", "seq": 160, "pitch_deg": 5.6532, "yaw_deg": 354.009, "roll_deg": -1.8389, "lat_deg": 33.99296542379995, "lon_deg": -117.99278980614295, "altitude_rel_ft": 23.744, "ground_speed_ft_s": 37.2579, "vel_north_m_s": 3.5437, "vel_east_m_s": 7.9686, "vel_down_m_s": -0.2923, "battery_remain_pct": 61.5852}
{"t_rx_ms": 1775685344174, "run_id": "SIM_TEST", "seq": 161, "pitch_deg": -6.1205, "yaw_deg": 280.7091, "roll_deg": -9.3186, "lat_deg": 33.99923699466926, "lon_deg": -118.00393294263432, "altitude_rel_ft": 94.4222, "ground_speed_ft_s": 55.5381, "vel_north_m_s": -7.945, "vel_east_m_s": -6.5907, "vel_down_m_s": -0.4513, "battery_remain_pct": 67.3167}
{"t_rx_ms": 1775685344274, "run_id": "SIM_TEST", "seq": 162, "pitch_deg": -2.858, "yaw_deg": 301.2585, "roll_deg": 10.1437, "lat_deg": 33.99184205815686, "lon_deg": -117.99036042180228, "altitude_rel_ft": 78.1744, "ground_speed_ft_s": 54.7251, "vel_north_m_s": -6.891, "vel_east_m_s": 8.9676, "vel_down_m_s": -0.4954, "battery_remain_pct": 55.975}
{"t_rx_ms": 1775685344376, "run_id": "SIM_TEST", "seq": 163, "pitch_deg": 8.2542, "yaw_deg": 46.2447, "roll_deg": -5.5612, "lat_deg": 33.99544431216755, "lon_deg": -117.99984347087539, "altitude_rel_ft": 53.3555, "ground_speed_ft_s": 27.6242, "vel_north_m_s": -5.984, "vel_east_m_s": -7.8972, "vel_down_m_s": -0.2743, "battery_remain_pct": 51.8033}
{"t_rx_ms": 1775685344477, "run_id": "SIM_TEST", "seq": 164, "pitch_deg": -8.7631, "yaw_deg": 184.0725, "roll_deg": -14.5042, "lat_deg": 34.00207596077375, "lon_deg": -117.9961987384838, "altitude_rel_ft": 71.3592, "ground_speed_ft_s": 35.3596, "vel_north_m_s": 1.0694, "vel_east_m_s": 7.6733, "vel_down_m_s": -0.9579, "battery_remain_pct": 55.7202}
{"t_rx_ms": 1775685344578, "run_id": "SIM_TEST", "seq": 165, "pitch_deg": 5.614, "yaw_deg": 340.2263, "roll_deg": 4.3281, "lat_deg": 33.99387164389851, "lon_deg": -118.00646728082415, "altitude_rel_ft": 80.609, "ground_speed_ft_s": 13.333, "vel_north_m_s": 2.2244, "vel_east_m_s": -1.2244, "vel_down_m_s": 0.7203, "battery_remain_pct": 74.4197}
{"t_rx_ms": 1775685344679, "run_id": "SIM_TEST", "seq": 166, "pitch_deg": 4.7068, "yaw_deg": 126.4252, "roll_deg": 2.3793, "lat_deg": 34.00872565244283, "lon_deg": -117.99449467962971, "altitude_rel_ft": 88.4579, "ground_speed_ft_s": 24.9636, "vel_north_m_s": -8.3251, "vel_east_m_s": 2.9117, "vel_down_m_s": 0.5401, "battery_remain_pct": 73.3728}
{"t_rx_ms": 1775685344780, "run_id": "SIM_TEST", "seq": 167, "pitch_deg": 5.4645, "yaw_deg": 84.6738, "roll_deg": 8.0758, "lat_deg": 33.99890482222862, "lon_deg": -117.99147688359879, "altitude_rel_ft": 41.3034, "ground_speed_ft_s": 9.7117, "vel_north_m_s": -8.2211, "vel_east_m_s": 5.8596, "vel_down_m_s": -0.9366, "battery_remain_pct": 89.4366}
{"t_rx_ms": 1775685344881, "run_id": "SIM_TEST", "seq": 168, "pitch_deg": -4.0658, "yaw_deg": 345.2983, "roll_deg": -14.092, "lat_deg": 33.992539548932896, "lon_deg": -117.99246759447789, "altitude_rel_ft": 46.1055, "ground_speed_ft_s": 11.182, "vel_north_m_s": -2.4216, "vel_east_m_s": -6.0972, "vel_down_m_s": -0.6265, "battery_remain_pct": 64.2882}
{"t_rx_ms": 1775685344982, "run_id": "SIM_TEST", "seq": 169, "pitch_deg": -1.9826, "yaw_deg": 25.8304, "roll_deg": -9.114, "lat_deg": 33.99773817265166, "lon_deg": -118.0036087315214, "altitude_rel_ft": 35.6893, "ground_speed_ft_s": 59.1052, "vel_north_m_s": -6.9792, "vel_east_m_s": -1.089, "vel_down_m_s": -0.6882, "battery_remain_pct": 55.3382}
{"t_rx_ms": 1775685345083, "run_id": "SIM_TEST", "seq": 170, "pitch_deg": -1.0298, "yaw_deg": 66.3148, "roll_deg": -8.5465, "lat_deg": 34.003434767214266, "lon_deg": -118.0049325089212, "altitude_rel_ft": 92.6743, "ground_speed_ft_s": 16.566, "vel_north_m_s": -2.793, "vel_east_m_s": -3.4911, "vel_down_m_s": -0.5483, "battery_remain_pct": 68.7089}
{"t_rx_ms": 1775685345184, "run_id": "SIM_TEST", "seq": 171, "pitch_deg": 7.5993, "yaw_deg": 254.2052, "roll_deg": 4.7843, "lat_deg": 33.995349953935566, "lon_deg": -117.99709957680527, "altitude_rel_ft": 89.9877, "ground_speed_ft_s": 59.0318, "vel_north_m_s": -5.6415, "vel_east_m_s": -3.1279, "vel_down_m_s": 0.061, "battery_remain_pct": 60.5137}
