{"t_rx_ms": 1774598844065, "run_id": "SIM_TEST", "seq": 0, "pitch_deg": -9.537, "yaw_deg": 274.96, "roll_deg": -12.2251, "lat_deg": 34.005190896436616, "lon_deg": -117.99329432199009, "altitude_rel_ft": 73.6956, "ground_speed_ft_s": 56.5236, "vel_north_m_s": -5.1183, "vel_east_m_s": 4.8697, "vel_down_m_s": -0.8289, "battery_remain_pct": 76.3293}
{"t_rx_ms": 1774598844166, "run_id": "SIM_TEST", "seq": 1, "pitch_deg": 7.1971, "yaw_deg": 31.0667, "roll_deg": 12.2478, "lat_deg": 33.994204747116136, "lon_deg": -118.00819015979881, "altitude_rel_ft": 84.7922, "ground_speed_ft_s": 33.8701, "vel_north_m_s": -7.5309, "vel_east_m_s": 8.3873, "vel_down_m_s": 0.3726, "battery_remain_pct": 78.0203}
{"t_rx_ms": 1774598844268, "run_id": "SIM_TEST", "seq": 2, "pitch_deg": -2.0664, "yaw_deg": 291.7538, "roll_deg": 0.2122, "lat_deg": 33.991385992533075, "lon_deg": -117.99350453479589, "altitude_rel_ft": 82.7025, "ground_speed_ft_s": 54.008, "vel_north_m_s": 1.8944, "vel_east_m_s": 4.9484, "vel_down_m_s": -0.6745, "battery_remain_pct": 52.01}
{"t_rx_ms": 1774598844369, "run_id": "SIM_TEST", "seq": 3, "pitch_deg": 2.5751, "yaw_deg": 202.3863, "roll_deg": 14.7651, "lat_deg": 34.007466921384726, "lon_deg": -117.99286936075643, "altitude_rel_ft": 28.01, "ground_speed_ft_s": 32.3725, "vel_north_m_s": 1.9717, "vel_east_m_s": 0.0301, "vel_down_m_s": -0.477, "battery_remain_pct": 85.672}
{"t_rx_ms": 1774598844470, "run_id": "SIM_TEST", "seq": 4, "pitch_deg": 1.4011, "yaw_deg": 253.3951, "roll_deg": -8.3607, "lat_deg": 33.99010548308356, "lon_deg": -118.00488769838, "altitude_rel_ft": 31.3982, "ground_speed_ft_s": 49.1958, "vel_north_m_s": 6.5213, "vel_east_m_s": -7.0551, "vel_down_m_s": 0.7996, "battery_remain_pct": 78.9592}
{"t_rx_ms": 1774598844571, "run_id": "SIM_TEST", "seq": 5, "pitch_deg": -9.3343, "yaw_deg": 152.9249, "roll_deg": -4.735, "lat_deg": 34.00221375614441, "lon_deg": -117.99387112032665, "altitude_rel_ft": 51.2085, "ground_speed_ft_s": 40.1614, "vel_north_m_s": 6.9083, "vel_east_m_s": 2.4162, "vel_down_m_s": -0.3839, "battery_remain_pct": 72.3599}
{"t_rx_ms": 1774598844672, "run_id": "SIM_TEST", "seq": 6, "pitch_deg": -4.8231, "yaw_deg": 80.2885, "roll_deg": -0.9314, "lat_deg": 34.00985447359821, "lon_deg": -117.99218772481309, "altitude_rel_ft": 58.1737, "ground_speed_ft_s": 23.0821, "vel_north_m_s": -6.6079, "vel_east_m_s": 0.8918, "vel_down_m_s": -0.7878, "battery_remain_pct": 64.6556}
{"t_rx_ms": 1774598844773, "run_id": "SIM_TEST", "seq": 7, "pitch_deg": 8.3229, "yaw_deg": 65.657, "roll_deg": -3.9326, "lat_deg": 34.00617037798353, "lon_deg": -118.0000137612646, "altitude_rel_ft": 67.2122, "ground_speed_ft_s": 48.1466, "vel_north_m_s": -7.7294, "vel_east_m_s": -6.1593, "vel_down_m_s": -0.0498, "battery_remain_pct": 57.6772}
{"t_rx_ms": 1774598844873, "run_id": "SIM_TEST", "seq": 8, "pitch_deg": 1.3157, "yaw_deg": 154.6877, "roll_deg": -8.7255, "lat_deg": 34.006473359775775, "lon_deg": -117.99849941499484, "altitude_rel_ft": 28.947, "ground_speed_ft_s": 22.5827, "vel_north_m_s": 3.7425, "vel_east_m_s": -7.4556, "vel_down_m_s": 0.9115, "battery_remain_pct": 64.2733}
{"t_rx_ms": 1774598844974, "run_id": "SIM_TEST", "seq": 9, "pitch_deg": 3.6819, "yaw_deg": 215.977, "roll_deg": -0.2565, "lat_deg": 34.00608726722692, "lon_deg": -118.00597751833718, "altitude_rel_ft": 67.4291, "ground_speed_ft_s": 42.0262, "vel_north_m_s": 0.6654, "vel_east_m_s": 9.0583, "vel_down_m_s": 0.9571, "battery_remain_pct": 86.4579}
{"t_rx_ms": 1774598845074, "run_id": "SIM_TEST", "seq": 10, "pitch_deg": -9.8402, "yaw_deg": 338.003, "roll_deg": 0.8986, "lat_deg": 33.99000344609498, "lon_deg": -118.00173335804607, "altitude_rel_ft": 29.395, "ground_speed_ft_s": 59.9518, "vel_north_m_s": -4.871, "vel_east_m_s": -6.8996, "vel_down_m_s": -0.4161, "battery_remain_pct": 80.3984}
{"t_rx_ms": 1774598845175, "run_id": "SIM_TEST", "seq": 11, "pitch_deg": -1.5866, "yaw_deg": 141.8126, "roll_deg": -4.5209, "lat_deg": 34.00424167997618, "lon_deg": -117.99610962726621, "altitude_rel_ft": 76.6706, "ground_speed_ft_s": 30.46, "vel_north_m_s": -6.4513, "vel_east_m_s": -3.5132, "vel_down_m_s": 0.059, "battery_remain_pct": 64.3885}
{"t_rx_ms": 1774598845276, "run_id": "SIM_TEST", "seq": 12, "pitch_deg": 3.8417, "yaw_deg": 269.3939, "roll_deg": -10.139, "lat_deg": 33.999967631643194, "lon_deg": -118.00593018335596, "altitude_rel_ft": 35.706, "ground_speed_ft_s": 51.4821, "vel_north_m_s": -8.6907, "vel_east_m_s": 5.4646, "vel_down_m_s": -0.2351, "battery_remain_pct": 53.0978}
{"t_rx_ms": 1774598845377, "run_id": "SIM_TEST", "seq": 13, "pitch_deg": 1.5878, "yaw_deg": 174.7253, "roll_deg": 3.31, "lat_deg": 33.99139686818169, "lon_deg": -117.993884236305, "altitude_rel_ft": 59.6297, "ground_speed_ft_s": 24.3556, "vel_north_m_s": 7.3766, "vel_east_m_s": 8.3974, "vel_down_m_s": 0.4765, "battery_remain_pct": 80.7992}
{"t_rx_ms": 1774598845478, "run_id": "SIM_TEST", "seq": 14, "pitch_deg": -8.0411, "yaw_deg": 353.3332, "roll_deg": 1.0089, "lat_deg": 33.994951622811406, "lon_deg": -117.9995428900194, "altitude_rel_ft": 55.7852, "ground_speed_ft_s": 54.2104, "vel_north_m_s": -1.0875, "vel_east_m_s": -5.4515, "vel_down_m_s": -0.8997, "battery_remain_pct": 65.0159}
{"t_rx_ms": 1774598845579, "run_id": "SIM_TEST", "seq": 15, "pitch_deg": -4.7485, "yaw_deg": 63.2678, "roll_deg": 8.7236, "lat_deg": 33.99084135052043, "lon_deg": -118.00238887670909, "altitude_rel_ft": 28.4896, "ground_speed_ft_s": 32.5805, "vel_north_m_s": -6.3221, "vel_east_m_s": 0.8252, "vel_down_m_s": 0.4267, "battery_remain_pct": 52.9807}
{"t_rx_ms": 1774598845680, "run_id": "SIM_TEST", "seq": 16, "pitch_deg": -6.5202, "yaw_deg": 260.3505, "roll_deg": 2.0068, "lat_deg": 34.002661292893045, "lon_deg": -117.9963941203176, "altitude_rel_ft": 94.6149, "ground_speed_ft_s": 5.5439, "vel_north_m_s": 4.629, "vel_east_m_s": -4.9385, "vel_down_m_s": -0.1655, "battery_remain_pct": 62.7601}
{"t_rx_ms": 1774598845781, "run_id": "SIM_TEST", "seq": 17, "pitch_deg": -5.1407, "yaw_deg": 196.6028, "roll_deg": -11.1082, "lat_deg": 33.99169958506714, "lon_deg": -118.00895169345301, "altitude_rel_ft": 60.4416, "ground_speed_ft_s": 20.3519, "vel_north_m_s": 4.9471, "vel_east_m_s": 3.5324, "vel_down_m_s": 0.8925, "battery_remain_pct": 74.0562}
{"t_rx_ms": 1774598845882, "run_id": "SIM_TEST", "seq": 18, "pitch_deg": 6.1335, "yaw_deg": 62.5116, "roll_deg": -14.8354, "lat_deg": 33.994570902151196, "lon_deg": -118.00506108028728, "altitude_rel_ft": 20.6904, "ground_speed_ft_s": 10.3374, "vel_north_m_s": 5.1785, "vel_east_m_s": 0.6923, "vel_down_m_s": 0.8778, "battery_remain_pct": 52.098}
{"t_rx_ms": 1774598845983, "run_id": "SIM_TEST", "seq": 19, "pitch_deg": 1.936, "yaw_deg": 0.2389, "roll_deg": 10.9123, "lat_deg": 33.99759888473965, "lon_deg": -118.00901369495648, "altitude_rel_ft": 72.4874, "ground_speed_ft_s": 56.5514, "vel_north_m_s": 6.2418, "vel_east_m_s": 9.932, "vel_down_m_s": 0.2568, "battery_remain_pct": 52.7327}
{"t_rx_ms": 1774598846084, "run_id": "SIM_TEST", "seq": 20, "pitch_deg": -2.4124, "yaw_deg": 100.3728, "roll_deg": 11.7261, "lat_deg": 33.99926457705084, "lon_deg": -118.00629649601315, "altitude_rel_ft": 36.5823, "ground_speed_ft_s": 33.3824, "vel_north_m_s": 5.3172, "vel_east_m_s": 8.21, "vel_down_m_s": -0.1005, "battery_remain_pct": 56.8692}
{"t_rx_ms": 1774598846185, "run_id": "SIM_TEST", "seq": 21, "pitch_deg": 4.3422, "yaw_deg": 255.3615, "roll_deg": -13.9884, "lat_deg": 33.999481713629045, "lon_deg": -118.00689021037456, "altitude_rel_ft": 48.036, "ground_speed_ft_s": 53.9818, "vel_north_m_s": -7.4539, "vel_east_m_s": 1.8512, "vel_down_m_s": 0.0815, "battery_remain_pct": 73.8574}
{"t_rx_ms": 1774598846286, "run_id": "SIM_TEST", "seq": 22, "pitch_deg": 9.1211, "yaw_deg": 99.5993, "roll_deg": -7.5173, "lat_deg": 33.999766573911685, "lon_deg": -117.9940534069914, "altitude_rel_ft": 26.8763, "ground_speed_ft_s": 21.9293, "vel_north_m_s": 5.4278, "vel_east_m_s": 9.5354, "vel_down_m_s": 0.725, "battery_remain_pct": 94.988}
{"t_rx_ms": 1774598846388, "run_id": "SIM_TEST", "seq": 23, "pitch_deg": 1.297, "yaw_deg": 330.0742, "roll_deg": 5.5684, "lat_deg": 33.99916237444595, "lon_deg": -118.00706704601438, "altitude_rel_ft": 83.5869, "ground_speed_ft_s": 41.6499, "vel_north_m_s": -5.4897, "vel_east_m_s": -6.7595, "vel_down_m_s": -0.0259, "battery_remain_pct": 64.8666}
{"t_rx_ms": 1774598846489, "run_id": "SIM_TEST", "seq": 24, "pitch_deg": 0.0063, "yaw_deg": 54.051, "roll_deg": 9.5962, "lat_deg": 33.99063110991639, "lon_deg": -117.99356834456829, "altitude_rel_ft": 26.9438, "ground_speed_ft_s": 34.8197, "vel_north_m_s": 4.178, "vel_east_m_s": 2.3388, "vel_down_m_s": -0.7542, "battery_remain_pct": 65.7847}
{"t_rx_ms": 1774598846590, "run_id": "SIM_TEST", "seq": 25, "pitch_deg": -2.9322, "yaw_deg": 78.5331, "roll_deg": 5.0606, "lat_deg": 34.00155252606528, "lon_deg": -117.99105326364152, "altitude_rel_ft": 40.1366, "ground_speed_ft_s": 8.2217, "vel_north_m_s": 0.2128, "vel_east_m_s": -3.7667, "vel_down_m_s": -0.9167, "battery_remain_pct": 83.1874}
{"t_rx_ms": 1774598846691, "run_id": "SIM_TEST", "seq": 26, "pitch_deg": -8.3878, "yaw_deg": 18.4873, "roll_deg": -0.4517, "lat_deg": 33.99109938002718, "lon_deg": -118.00535104068902, "altitude_rel_ft": 25.2148, "ground_speed_ft_s": 20.6771, "vel_north_m_s": -5.0499, "vel_east_m_s": -4.2652, "vel_down_m_s": 0.7105, "battery_remain_pct": 69.096}
{"t_rx_ms": 1774598846792, "run_id": "SIM_TEST", "seq": 27, "pitch_deg": 3.489, "yaw_deg": 336.4739, "roll_deg": 6.3049, "lat_deg": 33.99850693367526, "lon_deg": -118.00051516706519, "altitude_rel_ft": 45.364, "ground_speed_ft_s": 5.1914, "vel_north_m_s": -4.7776, "vel_east_m_s": -9.6876, "vel_down_m_s": 0.6999, "battery_remain_pct": 83.3073}
{"t_rx_ms": 1774598846893, "run_id": "SIM_TEST", "seq": 28, "pitch_deg": 6.7914, "yaw_deg": 42.2664, "roll_deg": 2.4303, "lat_deg": 33.99269877394818, "lon_deg": -117.99719397054433, "altitude_rel_ft": 71.1657, "ground_speed_ft_s": 50.1591, "vel_north_m_s": 6.5533, "vel_east_m_s": -7.1102, "vel_down_m_s": 0.7792, "battery_remain_pct": 71.8829}
{"t_rx_ms": 1774598846994, "run_id": "SIM_TEST", "seq": 29, "pitch_deg": -1.9258, "yaw_deg": 292.3748, "roll_deg": 12.3631, "lat_deg": 34.000343237735905, "lon_deg": -118.0038790241225, "altitude_rel_ft": 56.7304, "ground_speed_ft_s": 42.8644, "vel_north_m_s": 3.8772, "vel_east_m_s": -4.471, "vel_down_m_s": 0.8633, "battery_remain_pct": 73.7048}
{"t_rx_ms": 1774598847095, "run_id": "SIM_TEST", "seq": 30, "pitch_deg": -0.3429, "yaw_deg": 166.527, "roll_deg": 3.4955, "lat_deg": 34.00312005304031, "lon_deg": -118.00431709450874, "altitude_rel_ft": 99.0049, "ground_speed_ft_s": 58.7394, "vel_north_m_s": 2.691, "vel_east_m_s": 8.7021, "vel_down_m_s": -0.3302, "battery_remain_pct": 81.0187}
{"t_rx_ms": 1774598847195, "run_id": "SIM_TEST", "seq": 31, "pitch_deg": -3.7691, "yaw_deg": 80.0986, "roll_deg": -12.4343, "lat_deg": 33.997583511693264, "lon_deg": -118.00044129290579, "altitude_rel_ft": 74.6901, "ground_speed_ft_s": 39.3826, "vel_north_m_s": -5.4693, "vel_east_m_s": 2.6425, "vel_down_m_s": 0.7569, "battery_remain_pct": 79.2742}
{"t_rx_ms": 1774598847296, "run_id": "SIM_TEST", "seq": 32, "pitch_deg": -1.1182, "yaw_deg": 234.7114, "roll_deg": 5.5286, "lat_deg": 34.00985877668063, "lon_deg": -117.99008600559523, "altitude_rel_ft": 48.5015, "ground_speed_ft_s": 55.4322, "vel_north_m_s": 1.6561, "vel_east_m_s": -2.4004, "vel_down_m_s": -0.288, "battery_remain_pct": 58.1012}
{"t_rx_ms": 1774598847396, "run_id": "SIM_TEST", "seq": 33, "pitch_deg": 4.9749, "yaw_deg": 240.4656, "roll_deg": -10.0853, "lat_deg": 34.007712080558676, "lon_deg": -117.99604292134516, "altitude_rel_ft": 76.6849, "ground_speed_ft_s": 8.6787, "vel_north_m_s": 5.2005, "vel_east_m_s": -4.8068, "vel_down_m_s": 0.5416, "battery_remain_pct": 82.5697}
{"t_rx_ms": 1774598847497, "run_id": "SIM_TEST", "seq": 34, "pitch_deg": -4.5971, "yaw_deg": 100.6455, "roll_deg": -0.3642, "lat_deg": 34.00908653870084, "lon_deg": -117.99029751096884, "altitude_rel_ft": 26.9134, "ground_speed_ft_s": 32.8137, "vel_north_m_s": 7.6927, "vel_east_m_s": -9.2744, "vel_down_m_s": 0.8223, "battery_remain_pct": 99.9206}
{"t_rx_ms": 1774598847597, "run_id": "SIM_TEST", "seq": 35, "pitch_deg": 0.0664, "yaw_deg": 113.9888, "roll_deg": -3.9385, "lat_deg": 34.00516393219441, "lon_deg": -118.00215983239313, "altitude_rel_ft": 43.4723, "ground_speed_ft_s": 5.8444, "vel_north_m_s": 3.2968, "vel_east_m_s": -7.9477, "vel_down_m_s": 0.687, "battery_remain_pct": 93.5028}
{"t_rx_ms": 1774598847698, "run_id": "SIM_TEST", "seq": 36, "pitch_deg": -5.9952, "yaw_deg": 136.8863, "roll_deg": 8.4724, "lat_deg": 33.993635503366214, "lon_deg": -117.9934425406847, "altitude_rel_ft": 46.8899, "ground_speed_ft_s": 59.4634, "vel_north_m_s": -1.5948, "vel_east_m_s": 5.4493, "vel_down_m_s": 0.9955, "battery_remain_pct": 72.1216}
{"t_rx_ms": 1774598847799, "run_id": "SIM_TEST", "seq": 37, "pitch_deg": -3.5153, "yaw_deg": 125.3771, "roll_deg": -4.3042, "lat_deg": 34.006141202569175, "lon_deg": -118.00049288102767, "altitude_rel_ft": 69.2127, "ground_speed_ft_s": 55.2846, "vel_north_m_s": -5.7674, "vel_east_m_s": -9.4475, "vel_down_m_s": -0.2396, "battery_remain_pct": 84.7014}
{"t_rx_ms": 1774598847900, "run_id": "SIM_TEST", "seq": 38, "pitch_deg": -3.4633, "yaw_deg": 130.0127, "roll_deg": 4.431, "lat_deg": 34.002942656437526, "lon_deg": -117.99830282582013, "altitude_rel_ft": 66.7373, "ground_speed_ft_s": 58.0736, "vel_north_m_s": 1.4166, "vel_east_m_s": 2.7821, "vel_down_m_s": 0.8181, "battery_remain_pct": 64.063}
{"t_rx_ms": 1774598848001, "run_id": "SIM_TEST", "seq": 39, "pitch_deg": -9.4943, "yaw_deg": 210.2835, "roll_deg": -0.4211, "lat_deg": 33.995681596340056, "lon_deg": -118.00808007020598, "altitude_rel_ft": 20.4892, "ground_speed_ft_s": 14.73, "vel_north_m_s": -3.9925, "vel_east_m_s": -7.2501, "vel_down_m_s": 0.3448, "battery_remain_pct": 73.1745}
{"t_rx_ms": 1774598848101, "run_id": "SIM_TEST", "seq": 40, "pitch_deg": -7.8832, "yaw_deg": 195.4725, "roll_deg": 4.5564, "lat_deg": 34.008718068870536, "lon_deg": -118.00292972176791, "altitude_rel_ft": 70.5687, "ground_speed_ft_s": 48.9836, "vel_north_m_s": 6.1909, "vel_east_m_s": 3.9081, "vel_down_m_s": -0.9204, "battery_remain_pct": 50.5988}
{"t_rx_ms": 1774598848202, "run_id": "SIM_TEST", "seq": 41, "pitch_deg": 6.1455, "yaw_deg": 235.0167, "roll_deg": 11.9769, "lat_deg": 34.00965522973258, "lon_deg": -117.99898104625952, "altitude_rel_ft": 34.1635, "ground_speed_ft_s": 54.1604, "vel_north_m_s": -6.262, "vel_east_m_s": -2.0768, "vel_down_m_s": 0.5115, "battery_remain_pct": 60.6135}
{"t_rx_ms": 1774598848303, "run_id": "SIM_TEST", "seq": 42, "pitch_deg": 1.027, "yaw_deg": 21.6123, "roll_deg": -3.4208, "lat_deg": 33.9937015611083, "lon_deg": -118.00768356676573, "altitude_rel_ft": 62.3514, "ground_speed_ft_s": 13.9232, "vel_north_m_s": -1.8039, "vel_east_m_s": 3.0638, "vel_down_m_s": -0.0394, "battery_remain_pct": 61.8679}
{"t_rx_ms": 1774598848403, "run_id": "SIM_TEST", "seq": 43, "pitch_deg": 4.2369, "yaw_deg": 92.1974, "roll_deg": -5.2506, "lat_deg": 33.99281647289479, "lon_deg": -118.00700281504487, "altitude_rel_ft": 91.061, "ground_speed_ft_s": 39.676, "vel_north_m_s": -3.0083, "vel_east_m_s": -2.1789, "vel_down_m_s": 0.2724, "battery_remain_pct": 79.8879}
{"t_rx_ms": 1774598848504, "run_id": "SIM_TEST", "seq": 44, "pitch_deg": -7.5349, "yaw_deg": 34.7867, "roll_deg": -2.4731, "lat_deg": 34.00979735540867, "lon_deg": -117.99197653194942, "altitude_rel_ft": 45.4648, "ground_speed_ft_s": 27.7871, "vel_north_m_s": 2.9181, "vel_east_m_s": -6.0737, "vel_down_m_s": 0.0214, "battery_remain_pct": 61.3564}
{"t_rx_ms": 1774598848604, "run_id": "SIM_TEST", "seq": 45, "pitch_deg": 4.1196, "yaw_deg": 168.9582, "roll_deg": 13.8734, "lat_deg": 33.992922558589875, "lon_deg": -117.99066769583648, "altitude_rel_ft": 80.4071, "ground_speed_ft_s": 21.8666, "vel_north_m_s": 3.8629, "vel_east_m_s": 5.1166, "vel_down_m_s": 0.0322, "battery_remain_pct": 70.2766}
{"t_rx_ms": 1774598848705, "run_id": "SIM_TEST", "seq": 46, "pitch_deg": 0.3835, "yaw_deg": 300.8576, "roll_deg": 3.4756, "lat_deg": 34.00318269957048, "lon_deg": -118.00422222085106, "altitude_rel_ft": 46.9649, "ground_speed_ft_s": 21.5199, "vel_north_m_s": -1.293, "vel_east_m_s": 6.575, "vel_down_m_s": -0.3212, "battery_remain_pct": 71.908}
{"t_rx_ms": 1774598848806, "run_id": "SIM_TEST", "seq": 47, "pitch_deg": 4.9866, "yaw_deg": 37.5705, "roll_deg": 4.4265, "lat_deg": 34.004553406602, "lon_deg": -118.00930228188386, "altitude_rel_ft": 24.2736, "ground_speed_ft_s": 29.521, "vel_north_m_s": 7.1141, "vel_east_m_s": 9.8594, "vel_down_m_s": -0.7174, "battery_remain_pct": 70.4567}
{"t_rx_ms": 1774598848906, "run_id": "SIM_TEST", "seq": 48, "pitch_deg": 1.8264, "yaw_deg": 55.5665, "roll_deg": 8.8625, "lat_deg": 33.99832361287795, "lon_deg": -117.99754992011674, "altitude_rel_ft": 33.0279, "ground_speed_ft_s": 42.0856, "vel_north_m_s": 8.7218, "vel_east_m_s": -4.7642, "vel_down_m_s": -0.9985, "battery_remain_pct": 69.3591}
{"t_rx_ms": 1774598849007, "run_id": "SIM_TEST", "seq": 49, "pitch_deg": 0.3236, "yaw_deg": 338.0404, "roll_deg": -1.2067, "lat_deg": 34.00035693418311, "lon_deg": -118.00667799157819, "altitude_rel_ft": 53.8203, "ground_speed_ft_s": 16.7744, "vel_north_m_s": -3.4074, "vel_east_m_s": 3.4521, "vel_down_m_s": 0.3516, "battery_remain_pct": 86.2459}
{"t_rx_ms": 1774598849107, "run_id": "SIM_TEST", "seq": 50, "pitch_deg": -5.6286, "yaw_deg": 277.2222, "roll_deg": 9.3287, "lat_deg": 34.001180919658864, "lon_deg": -117.99667358192512, "altitude_rel_ft": 20.6715, "ground_speed_ft_s": 40.3781, "vel_north_m_s": 2.0172, "vel_east_m_s": 8.9813, "vel_down_m_s": 0.7317, "battery_remain_pct": 92.0576}
{"t_rx_ms": 1774598849208, "run_id": "SIM_TEST", "seq": 51, "pitch_deg": -0.0529, "yaw_deg": 232.0662, "roll_deg": 11.1012, "lat_deg": 33.99634694672248, "lon_deg": -117.99668565617633, "altitude_rel_ft": 72.6673, "ground_speed_ft_s": 34.322, "vel_north_m_s": -0.235, "vel_east_m_s": -1.6798, "vel_down_m_s": 0.4324, "battery_remain_pct": 53.5827}
{"t_rx_ms": 1774598849309, "run_id": "SIM_TEST", "seq": 52, "pitch_deg": 4.1783, "yaw_deg": 217.8523, "roll_deg": 1.0842, "lat_deg": 33.99563071942327, "lon_deg": -117.99644686627288, "altitude_rel_ft": 42.0324, "ground_speed_ft_s": 24.4288, "vel_north_m_s": -1.0302, "vel_east_m_s": -6.1371, "vel_down_m_s": -0.1919, "battery_remain_pct": 58.1045}
{"t_rx_ms": 1774598849409, "run_id": "SIM_TEST", "seq": 53, "pitch_deg": 9.5288, "yaw_deg": 22.4964, "roll_deg": 13.4419, "lat_deg": 34.006559412493196, "lon_deg": -117.99936049612867, "altitude_rel_ft": 57.7651, "ground_speed_ft_s": 43.9525, "vel_north_m_s": 3.8098, "vel_east_m_s": -4.0068, "vel_down_m_s": -0.4687, "battery_remain_pct": 82.2363}
{"t_rx_ms": 1774598849510, "run_id": "SIM_TEST", "seq": 54, "pitch_deg": 4.9446, "yaw_deg": 326.1616, "roll_deg": 14.6575, "lat_deg": 33.99365026354376, "lon_deg": -117.99031458715083, "altitude_rel_ft": 35.5302, "ground_speed_ft_s": 11.3126, "vel_north_m_s": 8.225, "vel_east_m_s": 8.5487, "vel_down_m_s": -0.98, "battery_remain_pct": 53.6192}
{"t_rx_ms": 1774598849612, "run_id": "SIM_TEST", "seq": 55, "pitch_deg": -6.2662, "yaw_deg": 162.8808, "roll_deg": -7.3072, "lat_deg": 33.99012781367689, "lon_deg": -117.99272329211527, "altitude_rel_ft": 40.2419, "ground_speed_ft_s": 21.3069, "vel_north_m_s": 5.3105, "vel_east_m_s": 7.7333, "vel_down_m_s": -0.4566, "battery_remain_pct": 99.4562}
{"t_rx_ms": 1774598849712, "run_id": "SIM_TEST", "seq": 56, "pitch_deg": -9.8167, "yaw_deg": 38.1996, "roll_deg": -7.9494, "lat_deg": 34.00007502964281, "lon_deg": -117.9971672026485, "altitude_rel_ft": 99.4484, "ground_speed_ft_s": 9.1083, "vel_north_m_s": -6.1783, "vel_east_m_s": 0.9094, "vel_down_m_s": -0.9372, "battery_remain_pct": 65.5544}
{"t_rx_ms": 1774598849813, "run_id": "SIM_TEST", "seq": 57, "pitch_deg": 6.7971, "yaw_deg": 319.3049, "roll_deg": 11.8674, "lat_deg": 34.00281156851758, "lon_deg": -118.00844091919762, "altitude_rel_ft": 69.7713, "ground_speed_ft_s": 27.5812, "vel_north_m_s": -9.1214, "vel_east_m_s": 0.685, "vel_down_m_s": -0.0669, "battery_remain_pct": 84.2382}
{"t_rx_ms": 1774598849913, "run_id": "SIM_TEST", "seq": 58, "pitch_deg": 7.2431, "yaw_deg": 355.7651, "roll_deg": -6.901, "lat_deg": 33.996289690635734, "lon_deg": -117.99199823104645, "altitude_rel_ft": 20.515, "ground_speed_ft_s": 59.0218, "vel_north_m_s": -0.8506, "vel_east_m_s": 4.3696, "vel_down_m_s": 0.3945, "battery_remain_pct": 83.3911}
{"t_rx_ms": 1774598850014, "run_id": "SIM_TEST", "seq": 59, "pitch_deg": -5.1736, "yaw_deg": 66.419, "roll_deg": 13.2944, "lat_deg": 33.99866182509246, "lon_deg": -118.00113801682136, "altitude_rel_ft": 36.4333, "ground_speed_ft_s": 24.6881, "vel_north_m_s": -8.936, "vel_east_m_s": 8.2067, "vel_down_m_s": -0.7166, "battery_remain_pct": 94.4112}
{"t_rx_ms": 1774598850115, "run_id": "SIM_TEST", "seq": 60, "pitch_deg": 1.8815, "yaw_deg": 237.7664, "roll_deg": -13.9061, "lat_deg": 33.99687446389776, "lon_deg": -117.99617349206913, "altitude_rel_ft": 20.2646, "ground_speed_ft_s": 34.4727, "vel_north_m_s": 6.0522, "vel_east_m_s": 5.8879, "vel_down_m_s": -0.3796, "battery_remain_pct": 98.047}
{"t_rx_ms": 1774598850216, "run_id": "SIM_TEST", "seq": 61, "pitch_deg": -7.7452, "yaw_deg": 96.9798, "roll_deg": -8.3367, "lat_deg": 33.991272340832545, "lon_deg": -118.00055602762613, "altitude_rel_ft": 58.6826, "ground_speed_ft_s": 31.3576, "vel_north_m_s": 5.4655, "vel_east_m_s": -1.2642, "vel_down_m_s": -0.2276, "battery_remain_pct": 79.5962}
{"t_rx_ms": 1774598850316, "run_id": "SIM_TEST", "seq": 62, "pitch_deg": -7.0818, "yaw_deg": 68.8464, "roll_deg": 10.127, "lat_deg": 33.99121758343689, "lon_deg": -117.99565367105023, "altitude_rel_ft": 77.2962, "ground_speed_ft_s": 6.5379, "vel_north_m_s": -7.1041, "vel_east_m_s": -0.8874, "vel_down_m_s": -0.0822, "battery_remain_pct": 78.9121}
{"t_rx_ms": 1774598850417, "run_id": "SIM_TEST", "seq": 63, "pitch_deg": -2.9927, "yaw_deg": 22.165, "roll_deg": -1.4827, "lat_deg": 34.00850217822056, "lon_deg": -118.0053694108274, "altitude_rel_ft": 95.238, "ground_speed_ft_s": 25.992, "vel_north_m_s": 1.2805, "vel_east_m_s": 5.6195, "vel_down_m_s": 0.6464, "battery_remain_pct": 53.4441}
{"t_rx_ms": 1774598850518, "run_id": "SIM_TEST", "seq": 64, "pitch_deg": 3.3169, "yaw_deg": 68.974, "roll_deg": -10.8643, "lat_deg": 33.990472409297375, "lon_deg": -117.99125068755076, "altitude_rel_ft": 92.0345, "ground_speed_ft_s": 9.5938, "vel_north_m_s": 6.8765, "vel_east_m_s": -4.2191, "vel_down_m_s": 0.8081, "battery_remain_pct": 77.5896}
{"t_rx_ms": 1774598850619, "run_id": "SIM_TEST", "seq": 65, "pitch_deg": 6.7163, "yaw_deg": 297.4062, "roll_deg": 13.9624, "lat_deg": 33.99379363719897, "lon_deg": -118.0027789580518, "altitude_rel_ft": 89.7569, "ground_speed_ft_s": 43.6326, "vel_north_m_s": -4.9957, "vel_east_m_s": -9.7351, "vel_down_m_s": 0.522, "battery_remain_pct": 91.189}
{"t_rx_ms": 1774598850720, "run_id": "SIM_TEST", "seq": 66, "pitch_deg": -1.0154, "yaw_deg": 338.4974, "roll_deg": -9.5239, "lat_deg": 34.0084310987895, "lon_deg": -118.00247831182115, "altitude_rel_ft": 76.9992, "ground_speed_ft_s": 10.8444, "vel_north_m_s": 3.6577, "vel_east_m_s": 8.314, "vel_down_m_s": -0.1423, "battery_remain_pct": 86.3415}
{"t_rx_ms": 1774598850820, "run_id": "SIM_TEST", "seq": 67, "pitch_deg": 1.3855, "yaw_deg": 70.6812, "roll_deg": -9.8033, "lat_deg": 34.00831599951518, "lon_deg": -117.99574628697843, "altitude_rel_ft": 51.184, "ground_speed_ft_s": 39.0936, "vel_north_m_s": -9.0878, "vel_east_m_s": -1.8076, "vel_down_m_s": -0.8405, "battery_remain_pct": 64.1345}
{"t_rx_ms": 1774598850921, "run_id": "SIM_TEST", "seq": 68, "pitch_deg": -5.5496, "yaw_deg": 166.9617, "roll_deg": 14.4903, "lat_deg": 34.009599530064094, "lon_deg": -117.99151631100199, "altitude_rel_ft": 27.4677, "ground_speed_ft_s": 53.0425, "vel_north_m_s": -0.6353, "vel_east_m_s": 8.8945, "vel_down_m_s": 0.605, "battery_remain_pct": 62.467}
{"t_rx_ms": 1774598851022, "run_id": "SIM_TEST", "seq": 69, "pitch_deg": -1.7376, "yaw_deg": 354.6385, "roll_deg": -12.2305, "lat_deg": 33.99726845394337, "lon_deg": -117.99287214072149, "altitude_rel_ft": 36.5664, "ground_speed_ft_s": 20.189, "vel_north_m_s": 6.044, "vel_east_m_s": -6.5125, "vel_down_m_s": 0.9924, "battery_remain_pct": 57.0438}
{"t_rx_ms": 1774598851123, "run_id": "SIM_TEST", "seq": 70, "pitch_deg": -6.0068, "yaw_deg": 140.019, "roll_deg": -0.8538, "lat_deg": 33.997833007831794, "lon_deg": -117.99474533846403, "altitude_rel_ft": 80.8993, "ground_speed_ft_s": 12.6056, "vel_north_m_s": 5.3966, "vel_east_m_s": 8.3701, "vel_down_m_s": 0.429, "battery_remain_pct": 53.148}
{"t_rx_ms": 1774598851224, "run_id": "SIM_TEST", "seq": 71, "pitch_deg": -1.429, "yaw_deg": 306.2805, "roll_deg": 8.2437, "lat_deg": 34.00794789587956, "lon_deg": -117.99996750666426, "altitude_rel_ft": 26.7789, "ground_speed_ft_s": 24.1848, "vel_north_m_s": 8.3187, "vel_east_m_s": -9.9483, "vel_down_m_s": 0.0522, "battery_remain_pct": 84.3608}
{"t_rx_ms": 1774598851325, "run_id": "SIM_TEST", "seq": 72, "pitch_deg": -6.0219, "yaw_deg": 130.7825, "roll_deg": 9.7915, "lat_deg": 33.99075299065272, "lon_deg": -118.00885893682248, "altitude_rel_ft": 46.3305, "ground_speed_ft_s": 18.5927, "vel_north_m_s": 5.1103, "vel_east_m_s": -8.8233, "vel_down_m_s": -0.8083, "battery_remain_pct": 99.8296}
{"t_rx_ms": 1774598851425, "run_id": "SIM_TEST", "seq": 73, "pitch_deg": -7.8469, "yaw_deg": 195.5062, "roll_deg": 10.9181, "lat_deg": 34.00113079469975, "lon_deg": -117.9948771639292, "altitude_rel_ft": 69.31, "ground_speed_ft_s": 5.8342, "vel_north_m_s": -5.0942, "vel_east_m_s": -5.7603, "vel_down_m_s": 0.7709, "battery_remain_pct": 73.0145}
{"t_rx_ms": 1774598851526, "run_id": "SIM_TEST", "seq": 74, "pitch_deg": -0.2047, "yaw_deg": 13.6675, "roll_deg": 7.8566, "lat_deg": 34.00537054064466, "lon_deg": -118.00800341091436, "altitude_rel_ft": 78.3729, "ground_speed_ft_s": 16.9967, "vel_north_m_s": -1.0547, "vel_east_m_s": 5.2132, "vel_down_m_s": 0.58, "battery_remain_pct": 68.4352}
{"t_rx_ms": 1774598851626, "run_id": "SIM_TEST", "seq": 75, "pitch_deg": -7.4451, "yaw_deg": 293.5559, "roll_deg": 13.7519, "lat_deg": 34.00272156674677, "lon_deg": -118.00671856749078, "altitude_rel_ft": 39.4185, "ground_speed_ft_s": 12.5554, "vel_north_m_s": -4.3443, "vel_east_m_s": -1.4008, "vel_down_m_s": 0.7637, "battery_remain_pct": 92.4113}
{"t_rx_ms": 1774598851727, "run_id": "SIM_TEST", "seq": 76, "pitch_deg": 2.5659, "yaw_deg": 50.2755, "roll_deg": -14.4862, "lat_deg": 33.99286031411245, "lon_deg": -118.00471256331815, "altitude_rel_ft": 87.014, "ground_speed_ft_s": 47.4116, "vel_north_m_s": -3.8404, "vel_east_m_s": 9.8131, "vel_down_m_s": -0.6042, "battery_remain_pct": 74.8016}
{"t_rx_ms": 1774598851827, "run_id": "SIM_TEST", "seq": 77, "pitch_deg": 4.1402, "yaw_deg": 191.2744, "roll_deg": -5.5099, "lat_deg": 33.999144765066966, "lon_deg": -118.00525768816982, "altitude_rel_ft": 72.5767, "ground_speed_ft_s": 47.4104, "vel_north_m_s": -0.9598, "vel_east_m_s": 3.5401, "vel_down_m_s": -0.8041, "battery_remain_pct": 75.9611}
{"t_rx_ms": 1774598851928, "run_id": "SIM_TEST", "seq": 78, "pitch_deg": -5.7807, "yaw_deg": 23.6566, "roll_deg": 0.7451, "lat_deg": 34.008174858179345, "lon_deg": -117.99565622703162, "altitude_rel_ft": 66.6524, "ground_speed_ft_s": 39.6443, "vel_north_m_s": 8.2953, "vel_east_m_s": 8.2777, "vel_down_m_s": 0.821, "battery_remain_pct": 67.5854}
{"t_rx_ms": 1774598852029, "run_id": "SIM_TEST", "seq": 79, "pitch_deg": -1.5646, "yaw_deg": 282.0235, "roll_deg": 13.0317, "lat_deg": 33.99166694809935, "lon_deg": -117.99274253419429, "altitude_rel_ft": 61.8477, "ground_speed_ft_s": 27.5599, "vel_north_m_s": 9.2468, "vel_east_m_s": 0.2051, "vel_down_m_s": -0.4979, "battery_remain_pct": 88.2274}
{"t_rx_ms": 1774598852130, "run_id": "SIM_TEST", "seq": 80, "pitch_deg": 8.5186, "yaw_deg": 161.0709, "roll_deg": 0.8976, "lat_deg": 34.00324509275882, "lon_deg": -118.00128360140148, "altitude_rel_ft": 25.7771, "ground_speed_ft_s": 58.8688, "vel_north_m_s": 9.9787, "vel_east_m_s": -4.4893, "vel_down_m_s": -0.484, "battery_remain_pct": 61.2159}
{"t_rx_ms": 1774598852231, "run_id": "SIM_TEST", "seq": 81, "pitch_deg": -2.822, "yaw_deg": 86.6498, "roll_deg": 9.9997, "lat_deg": 34.00420640871827, "lon_deg": -117.99112141420434, "altitude_rel_ft": 93.5274, "ground_speed_ft_s": 27.386, "vel_north_m_s": 9.0956, "vel_east_m_s": -4.6126, "vel_down_m_s": -0.7237, "battery_remain_pct": 90.0847}
{"t_rx_ms": 1774598852332, "run_id": "SIM_TEST", "seq": 82, "pitch_deg": -0.7569, "yaw_deg": 336.8684, "roll_deg": 1.9567, "lat_deg": 34.000309903045675, "lon_deg": -117.99748028417744, "altitude_rel_ft": 68.7932, "ground_speed_ft_s": 18.8527, "vel_north_m_s": 2.8207, "vel_east_m_s": -1.7363, "vel_down_m_s": -0.974, "battery_remain_pct": 87.3035}
{"t_rx_ms": 1774598852433, "run_id": "SIM_TEST", "seq": 83, "pitch_deg": -6.4645, "yaw_deg": 48.5426, "roll_deg": 6.8066, "lat_deg": 34.009125514729355, "lon_deg": -117.99749994555647, "altitude_rel_ft": 88.5999, "ground_speed_ft_s": 7.9843, "vel_north_m_s": -9.1468, "vel_east_m_s": -8.1096, "vel_down_m_s": -0.1302, "battery_remain_pct": 80.9891}
{"t_rx_ms": 1774598852534, "run_id": "SIM_TEST", "seq": 84, "pitch_deg": -6.247, "yaw_deg": 258.523, "roll_deg": 14.4295, "lat_deg": 33.99859004010974, "lon_deg": -118.00616888999592, "altitude_rel_ft": 24.9312, "ground_speed_ft_s": 19.2302, "vel_north_m_s": -3.1597, "vel_east_m_s": 2.3993, "vel_down_m_s": 0.8707, "battery_remain_pct": 91.4717}
{"t_rx_ms": 1774598852635, "run_id": "SIM_TEST", "seq": 85, "pitch_deg": 7.672, "yaw_deg": 197.276, "roll_deg": -7.5507, "lat_deg": 33.99581244585026, "lon_deg": -117.99399093663853, "altitude_rel_ft": 59.9632, "ground_speed_ft_s": 52.6662, "vel_north_m_s": -0.7513, "vel_east_m_s": 0.4079, "vel_down_m_s": 0.3403, "battery_remain_pct": 96.928}
{"t_rx_ms": 1774598852736, "run_id": "SIM_TEST", "seq": 86, "pitch_deg": -4.1204, "yaw_deg": 144.042, "roll_deg": -2.5694, "lat_deg": 33.99967186826659, "lon_deg": -117.99350463398602, "altitude_rel_ft": 60.5619, "ground_speed_ft_s": 41.1248, "vel_north_m_s": -1.6984, "vel_east_m_s": -3.5486, "vel_down_m_s": 0.8531, "battery_remain_pct": 73.2681}
{"t_rx_ms": 1774598852837, "run_id": "SIM_TEST", "seq": 87, "pitch_deg": 2.7968, "yaw_deg": 291.1892, "roll_deg": -3.1236, "lat_deg": 34.0034594998138, "lon_deg": -118.00901600633591, "altitude_rel_ft": 56.3256, "ground_speed_ft_s": 20.5939, "vel_north_m_s": -6.2783, "vel_east_m_s": -2.802, "vel_down_m_s": 0.933, "battery_remain_pct": 60.9326}
{"t_rx_ms": 1774598852938, "run_id": "SIM_TEST", "seq": 88, "pitch_deg": -8.9468, "yaw_deg": 265.9296, "roll_deg": 13.6181, "lat_deg": 34.00225513585862, "lon_deg": -117.99856534668697, "altitude_rel_ft": 90.1837, "ground_speed_ft_s": 17.7793, "vel_north_m_s": -6.1134, "vel_east_m_s": -6.6944, "vel_down_m_s": 0.834, "battery_remain_pct": 71.5619}
{"t_rx_ms": 1774598853039, "run_id": "SIM_TEST", "seq": 89, "pitch_deg": -6.8984, "yaw_deg": 197.1356, "roll_deg": -11.8901, "lat_deg": 34.00023319744413, "lon_deg": -117.99043204592505, "altitude_rel_ft": 53.9346, "ground_speed_ft_s": 15.1568, "vel_north_m_s": 6.1125, "vel_east_m_s": 5.1676, "vel_down_m_s": 0.1888, "battery_remain_pct": 58.3231}
{"t_rx_ms": 1774598853140, "run_id": "SIM_TEST", "seq": 90, "pitch_deg": -2.1223, "yaw_deg": 280.2703, "roll_deg": -1.2502, "lat_deg": 34.0092979477688, "lon_deg": -117.9964830590208, "altitude_rel_ft": 51.3265, "ground_speed_ft_s": 22.0526, "vel_north_m_s": -1.0783, "vel_east_m_s": 6.097, "vel_down_m_s": 0.5582, "battery_remain_pct": 87.2423}
{"t_rx_ms": 1774598853241, "run_id": "SIM_TEST", "seq": 91, "pitch_deg": 3.9938, "yaw_deg": 125.98, "roll_deg": 3.9872, "lat_deg": 33.996958974911664, "lon_deg": -118.00659755023376, "altitude_rel_ft": 23.0525, "ground_speed_ft_s": 15.0433, "vel_north_m_s": 5.8364, "vel_east_m_s": -5.1627, "vel_down_m_s": 0.3588, "battery_remain_pct": 94.5452}
{"t_rx_ms": 1774598853342, "run_id": "SIM_TEST", "seq": 92, "pitch_deg": 9.4371, "yaw_deg": 323.8697, "roll_deg": 10.3718, "lat_deg": 34.009874821080174, "lon_deg": -118.00579698575257, "altitude_rel_ft": 73.4283, "ground_speed_ft_s": 43.3756, "vel_north_m_s": 7.6256, "vel_east_m_s": -8.2981, "vel_down_m_s": 0.3476, "battery_remain_pct": 65.2557}
{"t_rx_ms": 1774598853443, "run_id": "SIM_TEST", "seq": 93, "pitch_deg": 0.7409, "yaw_deg": 195.3805, "roll_deg": 7.1898, "lat_deg": 33.99476631855359, "lon_deg": -117.99305227800264, "altitude_rel_ft": 42.2333, "ground_speed_ft_s": 39.204, "vel_north_m_s": -8.9148, "vel_east_m_s": -1.6302, "vel_down_m_s": -0.042, "battery_remain_pct": 64.9539}
{"t_rx_ms": 1774598853544, "run_id": "SIM_TEST", "seq": 94, "pitch_deg": -8.5532, "yaw_deg": 98.8634, "roll_deg": 4.4964, "lat_deg": 34.002040559627346, "lon_deg": -117.99589730439213, "altitude_rel_ft": 68.322, "ground_speed_ft_s": 7.3872, "vel_north_m_s": -2.4419, "vel_east_m_s": 5.081, "vel_down_m_s": -0.0928, "battery_remain_pct": 51.3018}
{"t_rx_ms": 1774598853645, "run_id": "SIM_TEST", "seq": 95, "pitch_deg": -1.0395, "yaw_deg": 56.7027, "roll_deg": -4.4395, "lat_deg": 34.00278884659063, "lon_deg": -118.00523879304178, "altitude_rel_ft": 40.1056, "ground_speed_ft_s": 19.7679, "vel_north_m_s": -6.392, "vel_east_m_s": 1.3252, "vel_down_m_s": 0.7541, "battery_remain_pct": 63.8128}
{"t_rx_ms": 1774598853748, "run_id": "SIM_TEST", "seq": 96, "pitch_deg": -2.8103, "yaw_deg": 176.034, "roll_deg": -13.751, "lat_deg": 33.99471109378631, "lon_deg": -118.00276355158447, "altitude_rel_ft": 96.0867, "ground_speed_ft_s": 14.3991, "vel_north_m_s": -1.3269, "vel_east_m_s": -3.4111, "vel_down_m_s": -0.5086, "battery_remain_pct": 77.3363}
{"t_rx_ms": 1774598853850, "run_id": "SIM_TEST", "seq": 97, "pitch_deg": 3.9374, "yaw_deg": 70.8349, "roll_deg": -1.9696, "lat_deg": 33.99928784511156, "lon_deg": -118.00280825081151, "altitude_rel_ft": 95.6779, "ground_speed_ft_s": 27.3971, "vel_north_m_s": -6.461, "vel_east_m_s": 3.58, "vel_down_m_s": 0.4154, "battery_remain_pct": 51.7132}
{"t_rx_ms": 1774598853951, "run_id": "SIM_TEST", "seq": 98, "pitch_deg": 0.0005, "yaw_deg": 212.3846, "roll_deg": 7.6726, "lat_deg": 34.00388089111586, "lon_deg": -118.00585138683209, "altitude_rel_ft": 39.5525, "ground_speed_ft_s": 51.1577, "vel_north_m_s": -0.993, "vel_east_m_s": 0.0575, "vel_down_m_s": -0.3336, "battery_remain_pct": 86.473}
{"t_rx_ms": 1774598854053, "run_id": "SIM_TEST", "seq": 99, "pitch_deg": 4.649, "yaw_deg": 132.8508, "roll_deg": 5.6511, "lat_deg": 33.993058139516855, "lon_deg": -118.00580271316208, "altitude_rel_ft": 64.393, "ground_speed_ft_s": 8.7905, "vel_north_m_s": 5.3609, "vel_east_m_s": 3.4635, "vel_down_m_s": -0.2399, "battery_remain_pct": 99.7293}
{"t_rx_ms": 1774598854153, "run_id": "SIM_TEST", "seq": 100, "pitch_deg": -0.8968, "yaw_deg": 13.7297, "roll_deg": 9.6392, "lat_deg": 33.99479871492743, "lon_deg": -118.00758040263413, "altitude_rel_ft": 32.6675, "ground_speed_ft_s": 57.4134, "vel_north_m_s": -3.2748, "vel_east_m_s": 4.6314, "vel_down_m_s": -0.5821, "battery_remain_pct": 65.5429}
{"t_rx_ms": 1774598854254, "run_id": "SIM_TEST", "seq": 101, "pitch_deg": 4.0789, "yaw_deg": 199.878, "roll_deg": 7.4565, "lat_deg": 33.990387721183765, "lon_deg": -117.99486794951298, "altitude_rel_ft": 75.5504, "ground_speed_ft_s": 36.4838, "vel_north_m_s": 2.2068, "vel_east_m_s": 2.399, "vel_down_m_s": 0.8367, "battery_remain_pct": 73.2521}
{"t_rx_ms": 1774598854356, "run_id": "SIM_TEST", "seq": 102, "pitch_deg": 7.4725, "yaw_deg": 144.7736, "roll_deg": 10.2438, "lat_deg": 33.993372167069886, "lon_deg": -117.99696397935095, "altitude_rel_ft": 96.3959, "ground_speed_ft_s": 37.2211, "vel_north_m_s": 6.0305, "vel_east_m_s": 6.9152, "vel_down_m_s": 0.2455, "battery_remain_pct": 86.9787}
{"t_rx_ms": 1774598854457, "run_id": "SIM_TEST", "seq": 103, "pitch_deg": 4.4017, "yaw_deg": 104.5106, "roll_deg": 8.5707, "lat_deg": 33.990092000256695, "lon_deg": -118.00900239785106, "altitude_rel_ft": 58.2981, "ground_speed_ft_s": 46.5334, "vel_north_m_s": 0.9919, "vel_east_m_s": 3.6823, "vel_down_m_s": -0.6599, "battery_remain_pct": 59.7656}
{"t_rx_ms": 1774598854558, "run_id": "SIM_TEST", "seq": 104, "pitch_deg": 9.8603, "yaw_deg": 43.5018, "roll_deg": -2.9382, "lat_deg": 34.00591069125677, "lon_deg": -117.99395216882479, "altitude_rel_ft": 45.2309, "ground_speed_ft_s": 50.9575, "vel_north_m_s": -6.12, "vel_east_m_s": -8.9821, "vel_down_m_s": -0.3721, "battery_remain_pct": 83.1797}
{"t_rx_ms": 1774598854659, "run_id": "SIM_TEST", "seq": 105, "pitch_deg": -6.8844, "yaw_deg": 19.44, "roll_deg": 4.2383, "lat_deg": 33.99624381091258, "lon_deg": -117.9903911598568, "altitude_rel_ft": 88.0807, "ground_speed_ft_s": 16.0145, "vel_north_m_s": 8.1213, "vel_east_m_s": -1.021, "vel_down_m_s": -0.4118, "battery_remain_pct": 80.6701}
{"t_rx_ms": 1774598854760, "run_id": "SIM_TEST", "seq": 106, "pitch_deg": 4.5309, "yaw_deg": 238.3559, "roll_deg": 12.8797, "lat_deg": 34.00215642553172, "lon_deg": -118.00230097758437, "altitude_rel_ft": 55.7857, "ground_speed_ft_s": 20.747, "vel_north_m_s": -9.1551, "vel_east_m_s": -4.9751, "vel_down_m_s": -0.308, "battery_remain_pct": 99.5703}
{"t_rx_ms": 1774598854861, "run_id": "SIM_TEST", "seq": 107, "pitch_deg": 5.3204, "yaw_deg": 51.2621, "roll_deg": -13.1406, "lat_deg": 34.003873072378106, "lon_deg": -118.00683826905534, "altitude_rel_ft": 66.3775, "ground_speed_ft_s": 58.2008, "vel_north_m_s": 4.032, "vel_east_m_s": 7.5624, "vel_down_m_s": -0.8178, "battery_remain_pct": 79.8364}
{"t_rx_ms": 1774598854962, "run_id": "SIM_TEST", "seq": 108, "pitch_deg": 1.8134, "yaw_deg": 92.0679, "roll_deg": -9.4395, "lat_deg": 34.00097420371518, "lon_deg": -117.99899577671914, "altitude_rel_ft": 39.5831, "ground_speed_ft_s": 28.4273, "vel_north_m_s": -6.7663, "vel_east_m_s": 7.7302, "vel_down_m_s": 0.6548, "battery_remain_pct": 86.4914}
{"t_rx_ms": 1774598855063, "run_id": "SIM_TEST", "seq": 109, "pitch_deg": 2.0475, "yaw_deg": 22.7744, "roll_deg": -5.6711, "lat_deg": 33.99343295724833, "lon_deg": -118.00690029095784, "altitude_rel_ft": 87.7902, "ground_speed_ft_s": 13.5188, "vel_north_m_s": -9.6935, "vel_east_m_s": 6.5174, "vel_down_m_s": 0.3209, "battery_remain_pct": 52.7709}
{"t_rx_ms": 1774598855165, "run_id": "SIM_TEST", "seq": 110, "pitch_deg": -7.5595, "yaw_deg": 206.9587, "roll_deg": 0.6749, "lat_deg": 34.003961537939546, "lon_deg": -117.99045062422007, "altitude_rel_ft": 38.3697, "ground_speed_ft_s": 45.9883, "vel_north_m_s": 2.836, "vel_east_m_s": -9.839, "vel_down_m_s": -0.2058, "battery_remain_pct": 87.8335}
{"t_rx_ms": 1774598855266, "run_id": "SIM_TEST", "seq": 111, "pitch_deg": 6.6328, "yaw_deg": 285.1497, "roll_deg": -5.6101, "lat_deg": 34.006971522688815, "lon_deg": -117.99624959187265, "altitude_rel_ft": 51.3599, "ground_speed_ft_s": 53.1975, "vel_north_m_s": 6.8364, "vel_east_m_s": -6.4549, "vel_down_m_s": -0.1623, "battery_remain_pct": 75.0089}
{"t_rx_ms": 1774598855367, "run_id": "SIM_TEST", "seq": 112, "pitch_deg": 4.6822, "yaw_deg": 147.8405, "roll_deg": -13.2329, "lat_deg": 33.99224488840128, "lon_deg": -117.99899625623846, "altitude_rel_ft": 90.154, "ground_speed_ft_s": 53.1255, "vel_north_m_s": 7.1811, "vel_east_m_s": 0.7059, "vel_down_m_s": 0.3879, "battery_remain_pct": 62.6942}
{"t_rx_ms": 1774598855467, "run_id": "SIM_TEST", "seq": 113, "pitch_deg": 0.4761, "yaw_deg": 270.4107, "roll_deg": 13.3547, "lat_deg": 33.99383157674014, "lon_deg": -117.9977169351101, "altitude_rel_ft": 64.8016, "ground_speed_ft_s": 15.304, "vel_north_m_s": 9.0952, "vel_east_m_s": 5.7145, "vel_down_m_s": -0.0447, "battery_remain_pct": 94.7533}
{"t_rx_ms": 1774598855569, "run_id": "SIM_TEST", "seq": 114, "pitch_deg": -4.7675, "yaw_deg": 211.5845, "roll_deg": -11.3623, "lat_deg": 34.009865652171115, "lon_deg": -117.99396029822368, "altitude_rel_ft": 44.6796, "ground_speed_ft_s": 7.56, "vel_north_m_s": 3.3291, "vel_east_m_s": -0.7189, "vel_down_m_s": 0.2346, "battery_remain_pct": 64.1078}
{"t_rx_ms": 1774598855670, "run_id": "SIM_TEST", "seq": 115, "pitch_deg": -4.8263, "yaw_deg": 80.7024, "roll_deg": 2.1815, "lat_deg": 33.995651210552595, "lon_deg": -117.99656161099594, "altitude_rel_ft": 24.9455, "ground_speed_ft_s": 52.9481, "vel_north_m_s": 0.1179, "vel_east_m_s": -0.9724, "vel_down_m_s": -0.7368, "battery_remain_pct": 62.1025}
{"t_rx_ms": 1774598855771, "run_id": "SIM_TEST", "seq": 116, "pitch_deg": -7.2663, "yaw_deg": 6.6835, "roll_deg": -9.1327, "lat_deg": 34.003854418379156, "lon_deg": -117.99695935824751, "altitude_rel_ft": 51.1699, "ground_speed_ft_s": 21.6448, "vel_north_m_s": 4.2648, "vel_east_m_s": 7.9735, "vel_down_m_s": -0.0359, "battery_remain_pct": 65.3867}
{"t_rx_ms": 1774598855872, "run_id": "SIM_TEST", "seq": 117, "pitch_deg": -1.9224, "yaw_deg": 263.992, "roll_deg": 14.7042, "lat_deg": 33.9980135737959, "lon_deg": -117.9926048269315, "altitude_rel_ft": 86.2785, "ground_speed_ft_s": 57.5766, "vel_north_m_s": -2.0962, "vel_east_m_s": -5.2166, "vel_down_m_s": -0.6244, "battery_remain_pct": 54.421}
{"t_rx_ms": 1774598855974, "run_id": "SIM_TEST", "seq": 118, "pitch_deg": 7.5824, "yaw_deg": 25.7271, "roll_deg": 6.7875, "lat_deg": 33.99891395546561, "lon_deg": -118.00279955090951, "altitude_rel_ft": 30.8557, "ground_speed_ft_s": 16.3585, "vel_north_m_s": -7.1427, "vel_east_m_s": 1.9696, "vel_down_m_s": 0.1424, "battery_remain_pct": 99.5734}
{"t_rx_ms": 1774598856074, "run_id": "SIM_TEST", "seq": 119, "pitch_deg": -2.0187, "yaw_deg": 137.2393, "roll_deg": -7.1339, "lat_deg": 34.00851941353459, "lon_deg": -117.99759263459936, "altitude_rel_ft": 67.3339, "ground_speed_ft_s": 39.6509, "vel_north_m_s": 2.5351, "vel_east_m_s": 1.3191, "vel_down_m_s": -0.7029, "battery_remain_pct": 73.6384}
{"t_rx_ms": 1774598856175, "run_id": "SIM_TEST", "seq": 120, "pitch_deg": 0.7001, "yaw_deg": 297.8547, "roll_deg": -0.5652, "lat_deg": 33.991244663445, "lon_deg": -117.99615865166514, "altitude_rel_ft": 31.1903, "ground_speed_ft_s": 5.362, "vel_north_m_s": -2.356, "vel_east_m_s": 3.3955, "vel_down_m_s": 0.9691, "battery_remain_pct": 64.3904}
{"t_rx_ms": 1774598856276, "run_id": "SIM_TEST", "seq": 121, "pitch_deg": 4.4731, "yaw_deg": 227.3859, "roll_deg": -13.5476, "lat_deg": 33.994223789440724, "lon_deg": -118.00763311476803, "altitude_rel_ft": 51.1338, "ground_speed_ft_s": 34.1958, "vel_north_m_s": -7.0831, "vel_east_m_s": -9.2443, "vel_down_m_s": 0.8201, "battery_remain_pct": 72.0316}
{"t_rx_ms": 1774598856378, "run_id": "SIM_TEST", "seq": 122, "pitch_deg": 8.7409, "yaw_deg": 58.5203, "roll_deg": -11.2271, "lat_deg": 33.99158318704963, "lon_deg": -118.00628308011737, "altitude_rel_ft": 33.3869, "ground_speed_ft_s": 44.4592, "vel_north_m_s": -0.8482, "vel_east_m_s": -1.0249, "vel_down_m_s": 0.913, "battery_remain_pct": 56.4813}
{"t_rx_ms": 1774598856479, "run_id": "SIM_TEST", "seq": 123, "pitch_deg": -9.3902, "yaw_deg": 174.177, "roll_deg": -8.4668, "lat_deg": 34.00955289733697, "lon_deg": -117.99433040934647, "altitude_rel_ft": 83.1641, "ground_speed_ft_s": 10.803, "vel_north_m_s": 3.5432, "vel_east_m_s": -9.0533, "vel_down_m_s": -0.1495, "battery_remain_pct": 97.2816}
{"t_rx_ms": 1774598856580, "run_id": "SIM_TEST", "seq": 124, "pitch_deg": 5.9933, "yaw_deg": 174.545, "roll_deg": -4.9966, "lat_deg": 33.99756333921165, "lon_deg": -117.99660218140384, "altitude_rel_ft": 99.5433, "ground_speed_ft_s": 55.4707, "vel_north_m_s": 0.9678, "vel_east_m_s": -5.8867, "vel_down_m_s": 0.3024, "battery_remain_pct": 50.7127}
{"t_rx_ms": 1774598856682, "run_id": "SIM_TEST", "seq": 125, "pitch_deg": -3.3883, "yaw_deg": 120.5468, "roll_deg": 1.3258, "lat_deg": 33.99010483479444, "lon_deg": -117.99576103596878, "altitude_rel_ft": 93.101, "ground_speed_ft_s": 45.465, "vel_north_m_s": -0.5165, "vel_east_m_s": 1.1241, "vel_down_m_s": 0.55, "battery_remain_pct": 56.899}
{"t_rx_ms": 1774598856783, "run_id": "SIM_TEST", "seq": 126, "pitch_deg": 3.3455, "yaw_deg": 274.2538, "roll_deg": -7.1147, "lat_deg": 33.99418669840813, "lon_deg": -117.99001700982782, "altitude_rel_ft": 78.6319, "ground_speed_ft_s": 12.8976, "vel_north_m_s": -8.8139, "vel_east_m_s": -7.564, "vel_down_m_s": 0.1681, "battery_remain_pct": 97.842}
{"t_rx_ms": 1774598856884, "run_id": "SIM_TEST", "seq": 127, "pitch_deg": 8.8191, "yaw_deg": 134.6541, "roll_deg": 14.2486, "lat_deg": 34.00631093041293, "lon_deg": -117.99314325946322, "altitude_rel_ft": 48.0528, "ground_speed_ft_s": 16.8088, "vel_north_m_s": -9.6966, "vel_east_m_s": 6.2829, "vel_down_m_s": 0.7598, "battery_remain_pct": 56.0934}
{"t_rx_ms": 1774598856985, "run_id": "SIM_TEST", "seq": 128, "pitch_deg": -9.1429, "yaw_deg": 240.7932, "roll_deg": -4.7706, "lat_deg": 34.00327714597316, "lon_deg": -117.99434995533721, "altitude_rel_ft": 32.8657, "ground_speed_ft_s": 6.9763, "vel_north_m_s": 0.3839, "vel_east_m_s": 0.8097, "vel_down_m_s": -0.9948, "battery_remain_pct": 88.3803}
{"t_rx_ms": 1774598857086, "run_id": "SIM_TEST", "seq": 129, "pitch_deg": -8.6229, "yaw_deg": 295.461, "roll_deg": -1.2236, "lat_deg": 34.004619299606794, "lon_deg": -118.00562186784765, "altitude_rel_ft": 50.2267, "ground_speed_ft_s": 54.8038, "vel_north_m_s": 9.9087, "vel_east_m_s": -3.8061, "vel_down_m_s": -0.5914, "battery_remain_pct": 72.0728}
{"t_rx_ms": 1774598857187, "run_id": "SIM_TEST", "seq": 130, "pitch_deg": 9.0839, "yaw_deg": 302.6818, "roll_deg": -8.1357, "lat_deg": 33.99732514872643, "lon_deg": -118.00437033744943, "altitude_rel_ft": 78.1341, "ground_speed_ft_s": 28.815, "vel_north_m_s": 3.5456, "vel_east_m_s": 7.5462, "vel_down_m_s": 0.196, "battery_remain_pct": 56.2737}
{"t_rx_ms": 1774598857288, "run_id": "SIM_TEST", "seq": 131, "pitch_deg": 3.5114, "yaw_deg": 331.5782, "roll_deg": -11.4914, "lat_deg": 33.991296383019105, "lon_deg": -118.0089166883485, "altitude_rel_ft": 60.0019, "ground_speed_ft_s": 37.214, "vel_north_m_s": -2.9784, "vel_east_m_s": -6.3906, "vel_down_m_s": 0.7607, "battery_remain_pct": 75.8707}
{"t_rx_ms": 1774598857389, "run_id": "SIM_TEST", "seq": 132, "pitch_deg": 1.4131, "yaw_deg": 50.2147, "roll_deg": -6.0237, "lat_deg": 33.99594501028852, "lon_deg": -117.99799854467804, "altitude_rel_ft": 39.9267, "ground_speed_ft_s": 40.7217, "vel_north_m_s": 6.0904, "vel_east_m_s": 2.0984, "vel_down_m_s": 0.8326, "battery_remain_pct": 83.9425}
{"t_rx_ms": 1774598857490, "run_id": "SIM_TEST", "seq": 133, "pitch_deg": 7.4879, "yaw_deg": 118.0613, "roll_deg": -0.5484, "lat_deg": 34.00415767439293, "lon_deg": -117.99033683326917, "altitude_rel_ft": 89.4694, "ground_speed_ft_s": 13.7192, "vel_north_m_s": -0.1766, "vel_east_m_s": -5.7827, "vel_down_m_s": 0.7081, "battery_remain_pct": 87.4775}
{"t_rx_ms": 1774598857591, "run_id": "SIM_TEST", "seq": 134, "pitch_deg": -3.7882, "yaw_deg": 345.4606, "roll_deg": 2.0259, "lat_deg": 34.004981684570296, "lon_deg": -118.00184935488026, "altitude_rel_ft": 59.6878, "ground_speed_ft_s": 39.4673, "vel_north_m_s": 3.4838, "vel_east_m_s": -7.9714, "vel_down_m_s": 0.7546, "battery_remain_pct": 65.7525}
{"t_rx_ms": 1774598857692, "run_id": "SIM_TEST", "seq": 135, "pitch_deg": -6.4373, "yaw_deg": 145.7114, "roll_deg": 13.288, "lat_deg": 33.993242729415265, "lon_deg": -118.00730907353388, "altitude_rel_ft": 62.4219, "ground_speed_ft_s": 40.2927, "vel_north_m_s": -1.4946, "vel_east_m_s": -3.1039, "vel_down_m_s": -0.0375, "battery_remain_pct": 94.9223}
{"t_rx_ms": 1774598857793, "run_id": "SIM_TEST", "seq": 136, "pitch_deg": 1.278, "yaw_deg": 325.0455, "roll_deg": 6.2313, "lat_deg": 33.99241659925616, "lon_deg": -117.99747710224841, "altitude_rel_ft": 33.2427, "ground_speed_ft_s": 40.2133, "vel_north_m_s": 5.0236, "vel_east_m_s": -4.3989, "vel_down_m_s": 0.028, "battery_remain_pct": 84.2217}
{"t_rx_ms": 1774598857894, "run_id": "SIM_TEST", "seq": 137, "pitch_deg": 1.8626, "yaw_deg": 285.739, "roll_deg": 5.0266, "lat_deg": 34.005808024665875, "lon_deg": -117.99732055177513, "altitude_rel_ft": 29.6963, "ground_speed_ft_s": 50.0906, "vel_north_m_s": 4.4037, "vel_east_m_s": -2.1375, "vel_down_m_s": 0.194, "battery_remain_pct": 93.4526}
{"t_rx_ms": 1774598857995, "run_id": "SIM_TEST", "seq": 138, "pitch_deg": 9.2137, "yaw_deg": 39.5943, "roll_deg": -6.9112, "lat_deg": 34.00005831002279, "lon_deg": -117.99746964616523, "altitude_rel_ft": 33.5077, "ground_speed_ft_s": 33.6101, "vel_north_m_s": 5.172, "vel_east_m_s": 8.291, "vel_down_m_s": -0.1056, "battery_remain_pct": 86.2362}
{"t_rx_ms": 1774598858096, "run_id": "SIM_TEST", "seq": 139, "pitch_deg": -4.5497, "yaw_deg": 228.0412, "roll_deg": 3.2978, "lat_deg": 33.99152521232307, "lon_deg": -118.00583223294241, "altitude_rel_ft": 39.6129, "ground_speed_ft_s": 14.0511, "vel_north_m_s": 2.3193, "vel_east_m_s": 1.5948, "vel_down_m_s": -0.1621, "battery_remain_pct": 66.7533}
{"t_rx_ms": 1774598858197, "run_id": "SIM_TEST", "seq": 140, "pitch_deg": -3.7791, "yaw_deg": 207.4806, "roll_deg": 11.8867, "lat_deg": 34.000233792165766, "lon_deg": -117.9959356806013, "altitude_rel_ft": 23.3628, "ground_speed_ft_s": 11.5805, "vel_north_m_s": -2.3363, "vel_east_m_s": -9.2649, "vel_down_m_s": 0.2056, "battery_remain_pct": 58.8121}
{"t_rx_ms": 1774598858298, "run_id": "SIM_TEST", "seq": 141, "pitch_deg": 4.2934, "yaw_deg": 0.7471, "roll_deg": 9.3109, "lat_deg": 34.0067750254226, "lon_deg": -117.99479991343078, "altitude_rel_ft": 44.5958, "ground_speed_ft_s": 57.2336, "vel_north_m_s": -8.5543, "vel_east_m_s": 5.4995, "vel_down_m_s": -0.6397, "battery_remain_pct": 83.6725}
{"t_rx_ms": 1774598858399, "run_id": "SIM_TEST", "seq": 142, "pitch_deg": 8.1054, "yaw_deg": 312.9515, "roll_deg": 10.0697, "lat_deg": 34.000671000047646, "lon_deg": -118.00760259525318, "altitude_rel_ft": 55.0612, "ground_speed_ft_s": 35.7245, "vel_north_m_s": -9.2362, "vel_east_m_s": -5.6762, "vel_down_m_s": -0.3746, "battery_remain_pct": 63.5181}
{"t_rx_ms": 1774598858500, "run_id": "SIM_TEST", "seq": 143, "pitch_deg": -4.0748, "yaw_deg": 68.4069, "roll_deg": -4.1136, "lat_deg": 33.99856762198737, "lon_deg": -118.0023520616387, "altitude_rel_ft": 88.267, "ground_speed_ft_s": 59.6101, "vel_north_m_s": -6.8745, "vel_east_m_s": -0.8947, "vel_down_m_s": 0.3988, "battery_remain_pct": 92.9085}
{"t_rx_ms": 1774598858601, "run_id": "SIM_TEST", "seq": 144, "pitch_deg": 5.8004, "yaw_deg": 231.5319, "roll_deg": -1.0872, "lat_deg": 33.99017132169028, "lon_deg": -117.99828092216302, "altitude_rel_ft": 85.2727, "ground_speed_ft_s": 41.1641, "vel_north_m_s": 0.1801, "vel_east_m_s": -5.96, "vel_down_m_s": 0.6322, "battery_remain_pct": 67.1421}
{"t_rx_ms": 1774598858702, "run_id": "SIM_TEST", "seq": 145, "pitch_deg": 8.5909, "yaw_deg": 312.8163, "roll_deg": -11.085, "lat_deg": 34.00325924842509, "lon_deg": -117.99615270786416, "altitude_rel_ft": 26.8904, "ground_speed_ft_s": 9.3972, "vel_north_m_s": 4.4148, "vel_east_m_s": -3.4703, "vel_down_m_s": -0.8257, "battery_remain_pct": 59.9326}
{"t_rx_ms": 1774598858804, "run_id": "SIM_TEST", "seq": 146, "pitch_deg": -1.0576, "yaw_deg": 15.2174, "roll_deg": -12.1855, "lat_deg": 33.99743465284699, "lon_deg": -118.00130740122208, "altitude_rel_ft": 60.6695, "ground_speed_ft_s": 22.0937, "vel_north_m_s": -7.8573, "vel_east_m_s": -5.0753, "vel_down_m_s": -0.1231, "battery_remain_pct": 82.5023}
{"t_rx_ms": 1774598858904, "run_id": "SIM_TEST", "seq": 147, "pitch_deg": 9.8, "yaw_deg": 184.3211, "roll_deg": 8.5679, "lat_deg": 34.00638837121196, "lon_deg": -117.99851770404882, "altitude_rel_ft": 82.872, "ground_speed_ft_s": 26.3344, "vel_north_m_s": 3.873, "vel_east_m_s": 2.3917, "vel_down_m_s": -0.7505, "battery_remain_pct": 78.178}
{"t_rx_ms": 1774598859005, "run_id": "SIM_TEST", "seq": 148, "pitch_deg": 9.7983, "yaw_deg": 144.4257, "roll_deg": 11.5466, "lat_deg": 34.00691399326783, "lon_deg": -117.9979384550959, "altitude_rel_ft": 91.3635, "ground_speed_ft_s": 5.4006, "vel_north_m_s": 0.4072, "vel_east_m_s": -1.5511, "vel_down_m_s": 0.3772, "battery_remain_pct": 97.3102}
{"t_rx_ms": 1774598859106, "run_id": "SIM_TEST", "seq": 149, "pitch_deg": -9.1177, "yaw_deg": 20.9837, "roll_deg": -14.6652, "lat_deg": 34.00144090790773, "lon_deg": -117.99460515816291, "altitude_rel_ft": 80.4545, "ground_speed_ft_s": 12.6298, "vel_north_m_s": 0.2159, "vel_east_m_s": -4.8663, "vel_down_m_s": -0.9078, "battery_remain_pct": 88.2355}
{"t_rx_ms": 1774598859207, "run_id": "SIM_TEST", "seq": 150, "pitch_deg": 3.7588, "yaw_deg": 3.1423, "roll_deg": 12.1678, "lat_deg": 34.00992182104277, "lon_deg": -118.00888922057878, "altitude_rel_ft": 97.184, "ground_speed_ft_s": 9.9461, "vel_north_m_s": 3.0773, "vel_east_m_s": 9.6779, "vel_down_m_s": -0.0736, "battery_remain_pct": 53.515}
{"t_rx_ms": 1774598859308, "run_id": "SIM_TEST", "seq": 151, "pitch_deg": 5.547, "yaw_deg": 6.9275, "roll_deg": 7.8715, "lat_deg": 33.992046082786615, "lon_deg": -117.99653906052993, "altitude_rel_ft": 25.451, "ground_speed_ft_s": 32.5161, "vel_north_m_s": 3.9508, "vel_east_m_s": 1.7073, "vel_down_m_s": 0.2503, "battery_remain_pct": 61.9629}
{"t_rx_ms": 1774598859409, "run_id": "SIM_TEST", "seq": 152, "pitch_deg": 2.3933, "yaw_deg": 132.1537, "roll_deg": 13.099, "lat_deg": 33.991674030545234, "lon_deg": -118.00721588919599, "altitude_rel_ft": 49.0612, "ground_speed_ft_s": 45.5068, "vel_north_m_s": 4.7667, "vel_east_m_s": 5.0539, "vel_down_m_s": 0.57, "battery_remain_pct": 54.9374}
{"t_rx_ms": 1774598859510, "run_id": "SIM_TEST", "seq": 153, "pitch_deg": 8.0902, "yaw_deg": 280.7673, "roll_deg": -6.2105, "lat_deg": 34.00478788396763, "lon_deg": -117.99525768684666, "altitude_rel_ft": 57.7068, "ground_speed_ft_s": 49.3925, "vel_north_m_s": -6.433, "vel_east_m_s": 1.3872, "vel_down_m_s": 0.2614, "battery_remain_pct": 89.0395}
{"t_rx_ms": 1774598859611, "run_id": "SIM_TEST", "seq": 154, "pitch_deg": -0.7128, "yaw_deg": 345.5359, "roll_deg": 13.0293, "lat_deg": 34.00388283127581, "lon_deg": -117.99999621477667, "altitude_rel_ft": 82.7297, "ground_speed_ft_s": 7.3688, "vel_north_m_s": 2.9864, "vel_east_m_s": 3.3823, "vel_down_m_s": 0.5529, "battery_remain_pct": 80.8592}
{"t_rx_ms": 1774598859712, "run_id": "SIM_TEST", "seq": 155, "pitch_deg": -0.0844, "yaw_deg": 316.0881, "roll_deg": -5.2079, "lat_deg": 33.997714153637126, "lon_deg": -117.99526393444098, "altitude_rel_ft": 84.5037, "ground_speed_ft_s": 12.4632, "vel_north_m_s": -6.8988, "vel_east_m_s": -8.079, "vel_down_m_s": 0.2968, "battery_remain_pct": 99.5323}
{"t_rx_ms": 1774598859814, "run_id": "SIM_TEST", "seq": 156, "pitch_deg": 1.8679, "yaw_deg": 268.1402, "roll_deg": 8.685, "lat_deg": 33.99730084966579, "lon_deg": -118.00285281108043, "altitude_rel_ft": 42.6637, "ground_speed_ft_s": 28.0159, "vel_north_m_s": 4.2609, "vel_east_m_s": -7.4594, "vel_down_m_s": 0.7264, "battery_remain_pct": 70.9125}
{"t_rx_ms": 1774598859915, "run_id": "SIM_TEST", "seq": 157, "pitch_deg": 7.3902, "yaw_deg": 178.2586, "roll_deg": -7.937, "lat_deg": 33.99446022919892, "lon_deg": -118.00881870174408, "altitude_rel_ft": 50.7873, "ground_speed_ft_s": 10.6363, "vel_north_m_s": 8.6869, "vel_east_m_s": 6.7468, "vel_down_m_s": -0.1099, "battery_remain_pct": 93.7755}
{"t_rx_ms": 1774598860016, "run_id": "SIM_TEST", "seq": 158, "pitch_deg": 3.13, "yaw_deg": 99.9788, "roll_deg": 5.5475, "lat_deg": 33.99890088972742, "lon_deg": -117.99089449081451, "altitude_rel_ft": 65.5826, "ground_speed_ft_s": 18.3214, "vel_north_m_s": -8.0308, "vel_east_m_s": 6.7055, "vel_down_m_s": -0.8307, "battery_remain_pct": 87.6762}
{"t_rx_ms": 1774598860117, "run_id": "SIM_TEST", "seq": 159, "pitch_deg": -5.5539, "yaw_deg": 250.6634, "roll_deg": 9.5726, "lat_deg": 34.00651301051698, "lon_deg": -117.9983481194454, "altitude_rel_ft": 34.819, "ground_speed_ft_s": 10.8208, "vel_north_m_s": 6.9054, "vel_east_m_s": 7.3465, "vel_down_m_s": 0.0035, "battery_remain_pct": 63.2587}
{"t_rx_ms": 1774598860218, "run_id": "SIM_TEST", "seq": 160, "pitch_deg": 4.5926, "yaw_deg": 169.0886, "roll_deg": -12.8471, "lat_deg": 33.99710972023795, "lon_deg": -117.99899180512058, "altitude_rel_ft": 96.9127, "ground_speed_ft_s": 37.3323, "vel_north_m_s": 2.2346, "vel_east_m_s": 3.6461, "vel_down_m_s": -0.7839, "battery_remain_pct": 82.68}
{"t_rx_ms": 1774598860319, "run_id": "SIM_TEST", "seq": 161, "pitch_deg": 1.6433, "yaw_deg": 73.0427, "roll_deg": 10.1045, "lat_deg": 33.99094579736948, "lon_deg": -117.99671387175209, "altitude_rel_ft": 91.4505, "ground_speed_ft_s": 22.658, "vel_north_m_s": -1.5861, "vel_east_m_s": 0.9545, "vel_down_m_s": 0.6626, "battery_remain_pct": 96.9615}
{"t_rx_ms": 1774598860420, "run_id": "SIM_TEST", "seq": 162, "pitch_deg": -4.6002, "yaw_deg": 181.6844, "roll_deg": 8.5346, "lat_deg": 34.008062879497075, "lon_deg": -117.99205207751535, "altitude_rel_ft": 81.1859, "ground_speed_ft_s": 27.7545, "vel_north_m_s": 6.2618, "vel_east_m_s": -8.4532, "vel_down_m_s": 0.2329, "battery_remain_pct": 92.4514}
{"t_rx_ms": 1774598860521, "run_id": "SIM_TEST", "seq": 163, "pitch_deg": -5.0432, "yaw_deg": 139.0552, "roll_deg": 7.6585, "lat_deg": 33.99494542815416, "lon_deg": -118.00496510666832, "altitude_rel_ft": 29.985, "ground_speed_ft_s": 25.0844, "vel_north_m_s": 4.7434, "vel_east_m_s": -2.0647, "vel_down_m_s": 0.5037, "battery_remain_pct": 86.4884}
{"t_rx_ms": 1774598860621, "run_id": "SIM_TEST", "seq": 164, "pitch_deg": 5.1449, "yaw_deg": 159.3933, "roll_deg": 2.2627, "lat_deg": 34.00974418436876, "lon_deg": -117.99523271795474, "altitude_rel_ft": 51.6867, "ground_speed_ft_s": 8.6629, "vel_north_m_s": -1.7886, "vel_east_m_s": 3.479, "vel_down_m_s": -0.635, "battery_remain_pct": 72.7441}
{"t_rx_ms": 1774598860722, "run_id": "SIM_TEST", "seq": 165, "pitch_deg": 1.5457, "yaw_deg": 250.0472, "roll_deg": 7.1532, "lat_deg": 34.008217225878255, "lon_deg": -117.99086497217924, "altitude_rel_ft": 82.7183, "ground_speed_ft_s": 37.9311, "vel_north_m_s": -0.9945, "vel_east_m_s": 6.5177, "vel_down_m_s": 0.6021, "battery_remain_pct": 56.4154}
{"t_rx_ms": 1774598860823, "run_id": "SIM_TEST", "seq": 166, "pitch_deg": 8.6809, "yaw_deg": 5.1551, "roll_deg": -13.3182, "lat_deg": 34.00979678503191, "lon_deg": -117.99443674862398, "altitude_rel_ft": 33.9079, "ground_speed_ft_s": 20.9548, "vel_north_m_s": 8.3911, "vel_east_m_s": -6.8187, "vel_down_m_s": 0.532, "battery_remain_pct": 56.4982}
{"t_rx_ms": 1774598860924, "run_id": "SIM_TEST", "seq": 167, "pitch_deg": -5.7873, "yaw_deg": 182.469, "roll_deg": -12.2233, "lat_deg": 34.0030965456434, "lon_deg": -118.00562877481501, "altitude_rel_ft": 43.5538, "ground_speed_ft_s": 22.0967, "vel_north_m_s": 9.5409, "vel_east_m_s": 4.6329, "vel_down_m_s": 0.4685, "battery_remain_pct": 85.1581}
{"t_rx_ms": 1774598861025, "run_id": "SIM_TEST", "seq": 168, "pitch_deg": -4.8723, "yaw_deg": 41.7845, "roll_deg": 10.6688, "lat_deg": 34.00666848877256, "lon_deg": -118.00293860229638, "altitude_rel_ft": 45.2842, "ground_speed_ft_s": 7.2264, "vel_north_m_s": 1.8571, "vel_east_m_s": -8.0001, "vel_down_m_s": 0.2619, "battery_remain_pct": 84.3009}
{"t_rx_ms": 1774598861126, "run_id": "SIM_TEST", "seq": 169, "pitch_deg": 0.1647, "yaw_deg": 106.3194, "roll_deg": -7.3037, "lat_deg": 34.00415839036907, "lon_deg": -117.99851674587325, "altitude_rel_ft": 93.679, "ground_speed_ft_s": 23.2329, "vel_north_m_s": -2.0437, "vel_east_m_s": -1.3596, "vel_down_m_s": -0.3592, "battery_remain_pct": 73.6749}
{"t_rx_ms": 1774598861227, "run_id": "SIM_TEST", "seq": 170, "pitch_deg": -1.476, "yaw_deg": 194.6314, "roll_deg": 12.9813, "lat_deg": 34.00817551477421, "lon_deg": -118.0079268096785, "altitude_rel_ft": 65.6798, "ground_speed_ft_s": 9.6906, "vel_north_m_s": 0.3481, "vel_east_m_s": -3.344, "vel_down_m_s": 0.4136, "battery_remain_pct": 58.7959}
{"t_rx_ms": 1774598861328, "run_id": "SIM_TEST", "seq": 171, "pitch_deg": -2.8661, "yaw_deg": 280.1062, "roll_deg": 2.1001, "lat_deg": 33.990675915898585, "lon_deg": -117.99169413555428, "altitude_rel_ft": 61.6678, "ground_speed_ft_s": 57.6556, "vel_north_m_s": 7.8662, "vel_east_m_s": -9.2125, "vel_down_m_s": -0.5937, "battery_remain_pct": 54.9713}
