{"t_rx_ms": 1776455305336, "run_id": "20260417_124507", "seq": 0, "pitch_deg": 9.383, "yaw_deg": -34.1519, "roll_deg": 9.3316, "lat_deg": 34.044325, "lon_deg": -117.8143539, "altitude_rel_ft": 0.1575, "ground_speed_ft_s": 4.0064, "vel_north_m_s": 0.64, "vel_east_m_s": 1.04, "vel_down_m_s": -0.03, "battery_remain_pct": 9900.0}
{"t_rx_ms": 1776455305516, "run_id": "20260417_124507", "seq": 1, "pitch_deg": 9.383, "yaw_deg": -34.1519, "roll_deg": 9.3316, "lat_deg": 34.044325, "lon_deg": -117.8143539, "altitude_rel_ft": 0.1575, "ground_speed_ft_s": 4.0064, "vel_north_m_s": 0.64, "vel_east_m_s": 1.04, "vel_down_m_s": -0.03, "battery_remain_pct": 9900.0}
{"t_rx_ms": 1776455305717, "run_id": "20260417_124507", "seq": 2, "pitch_deg": 9.383, "yaw_deg": -34.1519, "roll_deg": 9.3316, "lat_deg": 34.044325, "lon_deg": -117.8143539, "altitude_rel_ft": 0.1575, "ground_speed_ft_s": 4.0064, "vel_north_m_s": 0.64, "vel_east_m_s": 1.04, "vel_down_m_s": -0.03, "battery_remain_pct": 9900.0}
{"t_rx_ms": 1776455305919, "run_id": "20260417_124507", "seq": 3, "pitch_deg": 9.383, "yaw_deg": -34.1519, "roll_deg": 9.3316, "lat_deg": 34.044325, "lon_deg": -117.8143539, "altitude_rel_ft": 0.1575, "ground_speed_ft_s": 4.0064, "vel_north_m_s": 0.64, "vel_east_m_s": 1.04, "vel_down_m_s": -0.03, "battery_remain_pct": 9900.0}
{"t_rx_ms": 1776455306124, "run_id": "20260417_124507", "seq": 4, "pitch_deg": 9.383, "yaw_deg": -34.1519, "roll_deg": 9.3316, "lat_deg": 34.044325, "lon_deg": -117.8143539, "altitude_rel_ft": 0.1575, "ground_speed_ft_s": 4.0064, "vel_north_m_s": 0.64, "vel_east_m_s": 1.04, "vel_down_m_s": -0.03, "battery_remain_pct": 9900.0}
{"t_rx_ms": 1776455306326, "run_id": "20260417_124507", "seq": 5, "pitch_deg": 10.602, "yaw_deg": -29.9673, "roll_deg": 12.4871, "lat_deg": 34.044330099999996, "lon_deg": -117.81434279999999, "altitude_rel_ft": 0.1509, "ground_speed_ft_s": 3.9913, "vel_north_m_s": 0.84, "vel_east_m_s": 0.88, "vel_down_m_s": -0.03, "battery_remain_pct": 9900.0}
{"t_rx_ms": 1776455306530, "run_id": "20260417_124507", "seq": 6, "pitch_deg": 10.602, "yaw_deg": -29.9673, "roll_deg": 12.4871, "lat_deg": 34.044330099999996, "lon_deg": -117.81434279999999, "altitude_rel_ft": 0.1509, "ground_speed_ft_s": 3.9913, "vel_north_m_s": 0.84, "vel_east_m_s": 0.88, "vel_down_m_s": -0.03, "battery_remain_pct": 9900.0}
{"t_rx_ms": 1776455306731, "run_id": "20260417_124507", "seq": 7, "pitch_deg": 10.602, "yaw_deg": -29.9673, "roll_deg": 12.4871, "lat_deg": 34.044330099999996, "lon_deg": -117.81434279999999, "altitude_rel_ft": 0.1509, "ground_speed_ft_s": 3.9913, "vel_north_m_s": 0.84, "vel_east_m_s": 0.88, "vel_down_m_s": -0.03, "battery_remain_pct": 9900.0}
{"t_rx_ms": 1776455306934, "run_id": "20260417_124507", "seq": 8, "pitch_deg": 10.602, "yaw_deg": -29.9673, "roll_deg": 12.4871, "lat_deg": 34.044330099999996, "lon_deg": -117.81434279999999, "altitude_rel_ft": 0.1509, "ground_speed_ft_s": 3.9913, "vel_north_m_s": 0.84, "vel_east_m_s": 0.88, "vel_down_m_s": -0.03, "battery_remain_pct": 9900.0}
{"t_rx_ms": 1776455307136, "run_id": "20260417_124507", "seq": 9, "pitch_deg": 10.602, "yaw_deg": -29.9673, "roll_deg": 12.4871, "lat_deg": 34.044330099999996, "lon_deg": -117.81434279999999, "altitude_rel_ft": 0.1509, "ground_speed_ft_s": 3.9913, "vel_north_m_s": 0.84, "vel_east_m_s": 0.88, "vel_down_m_s": -0.03, "battery_remain_pct": 9900.0}
{"t_rx_ms": 1776455307335, "run_id": "20260417_124507", "seq": 10, "pitch_deg": 9.9755, "yaw_deg": -25.2528, "roll_deg": 17.1824, "lat_deg": 34.0443328, "lon_deg": -117.8143315, "altitude_rel_ft": 0.2034, "ground_speed_ft_s": 3.8442, "vel_north_m_s": 0.52, "vel_east_m_s": 1.05, "vel_down_m_s": 0.0, "battery_remain_pct": 9900.0}
{"t_rx_ms": 1776455307536, "run_id": "20260417_124507", "seq": 11, "pitch_deg": 9.9755, "yaw_deg": -25.2528, "roll_deg": 17.1824, "lat_deg": 34.0443328, "lon_deg": -117.8143315, "altitude_rel_ft": 0.2034, "ground_speed_ft_s": 3.8442, "vel_north_m_s": 0.52, "vel_east_m_s": 1.05, "vel_down_m_s": 0.0, "battery_remain_pct": 9900.0}
{"t_rx_ms": 1776455307739, "run_id": "20260417_124507", "seq": 12, "pitch_deg": 9.9755, "yaw_deg": -25.2528, "roll_deg": 17.1824, "lat_deg": 34.0443328, "lon_deg": -117.8143315, "altitude_rel_ft": 0.2034, "ground_speed_ft_s": 3.8442, "vel_north_m_s": 0.52, "vel_east_m_s": 1.05, "vel_down_m_s": 0.0, "battery_remain_pct": 9900.0}
{"t_rx_ms": 1776455307939, "run_id": "20260417_124507", "seq": 13, "pitch_deg": 9.9755, "yaw_deg": -25.2528, "roll_deg": 17.1824, "lat_deg": 34.0443328, "lon_deg": -117.8143315, "altitude_rel_ft": 0.2034, "ground_speed_ft_s": 3.8442, "vel_north_m_s": 0.52, "vel_east_m_s": 1.05, "vel_down_m_s": 0.0, "battery_remain_pct": 9900.0}
{"t_rx_ms": 1776455308139, "run_id": "20260417_124507", "seq": 14, "pitch_deg": 9.9755, "yaw_deg": -25.2528, "roll_deg": 17.1824, "lat_deg": 34.0443328, "lon_deg": -117.8143315, "altitude_rel_ft": 0.2034, "ground_speed_ft_s": 3.8442, "vel_north_m_s": 0.52, "vel_east_m_s": 1.05, "vel_down_m_s": 0.0, "battery_remain_pct": 9900.0}
{"t_rx_ms": 1776455308343, "run_id": "20260417_124507", "seq": 15, "pitch_deg": 11.9395, "yaw_deg": -17.5751, "roll_deg": 12.2385, "lat_deg": 34.0443334, "lon_deg": -117.81431839999999, "altitude_rel_ft": 0.3773, "ground_speed_ft_s": 3.6191, "vel_north_m_s": 0.42, "vel_east_m_s": 1.02, "vel_down_m_s": 0.0, "battery_remain_pct": 9900.0}
{"t_rx_ms": 1776455308542, "run_id": "20260417_124507", "seq": 16, "pitch_deg": 11.9395, "yaw_deg": -17.5751, "roll_deg": 12.2385, "lat_deg": 34.0443334, "lon_deg": -117.81431839999999, "altitude_rel_ft": 0.3773, "ground_speed_ft_s": 3.6191, "vel_north_m_s": 0.42, "vel_east_m_s": 1.02, "vel_down_m_s": 0.0, "battery_remain_pct": 9900.0}
{"t_rx_ms": 1776455308743, "run_id": "20260417_124507", "seq": 17, "pitch_deg": 11.9395, "yaw_deg": -17.5751, "roll_deg": 12.2385, "lat_deg": 34.0443334, "lon_deg": -117.81431839999999, "altitude_rel_ft": 0.3773, "ground_speed_ft_s": 3.6191, "vel_north_m_s": 0.42, "vel_east_m_s": 1.02, "vel_down_m_s": 0.0, "battery_remain_pct": 9900.0}
{"t_rx_ms": 1776455308944, "run_id": "20260417_124507", "seq": 18, "pitch_deg": 11.9395, "yaw_deg": -17.5751, "roll_deg": 12.2385, "lat_deg": 34.0443334, "lon_deg": -117.81431839999999, "altitude_rel_ft": 0.3773, "ground_speed_ft_s": 3.6191, "vel_north_m_s": 0.42, "vel_east_m_s": 1.02, "vel_down_m_s": 0.0, "battery_remain_pct": 9900.0}
{"t_rx_ms": 1776455309144, "run_id": "20260417_124507", "seq": 19, "pitch_deg": 11.9395, "yaw_deg": -17.5751, "roll_deg": 12.2385, "lat_deg": 34.0443334, "lon_deg": -117.81431839999999, "altitude_rel_ft": 0.3773, "ground_speed_ft_s": 3.6191, "vel_north_m_s": 0.42, "vel_east_m_s": 1.02, "vel_down_m_s": 0.0, "battery_remain_pct": 9900.0}
{"t_rx_ms": 1776455309345, "run_id": "20260417_124507", "seq": 20, "pitch_deg": 14.2822, "yaw_deg": -4.5075, "roll_deg": 12.7645, "lat_deg": 34.044331899999996, "lon_deg": -117.8143047, "altitude_rel_ft": 0.5052, "ground_speed_ft_s": 3.3195, "vel_north_m_s": 0.06, "vel_east_m_s": 1.01, "vel_down_m_s": -0.01, "battery_remain_pct": 9900.0}
{"t_rx_ms": 1776455309546, "run_id": "20260417_124507", "seq": 21, "pitch_deg": 14.2822, "yaw_deg": -4.5075, "roll_deg": 12.7645, "lat_deg": 34.044331899999996, "lon_deg": -117.8143047, "altitude_rel_ft": 0.5052, "ground_speed_ft_s": 3.3195, "vel_north_m_s": 0.06, "vel_east_m_s": 1.01, "vel_down_m_s": -0.01, "battery_remain_pct": 9900.0}
{"t_rx_ms": 1776455309748, "run_id": "20260417_124507", "seq": 22, "pitch_deg": 14.2822, "yaw_deg": -4.5075, "roll_deg": 12.7645, "lat_deg": 34.044331899999996, "lon_deg": -117.8143047, "altitude_rel_ft": 0.5052, "ground_speed_ft_s": 3.3195, "vel_north_m_s": 0.06, "vel_east_m_s": 1.01, "vel_down_m_s": -0.01, "battery_remain_pct": 9900.0}
{"t_rx_ms": 1776455309948, "run_id": "20260417_124507", "seq": 23, "pitch_deg": 14.2822, "yaw_deg": -4.5075, "roll_deg": 12.7645, "lat_deg": 34.044331899999996, "lon_deg": -117.8143047, "altitude_rel_ft": 0.5052, "ground_speed_ft_s": 3.3195, "vel_north_m_s": 0.06, "vel_east_m_s": 1.01, "vel_down_m_s": -0.01, "battery_remain_pct": 9900.0}
{"t_rx_ms": 1776455310150, "run_id": "20260417_124507", "seq": 24, "pitch_deg": 14.2822, "yaw_deg": -4.5075, "roll_deg": 12.7645, "lat_deg": 34.044331899999996, "lon_deg": -117.8143047, "altitude_rel_ft": 0.5052, "ground_speed_ft_s": 3.3195, "vel_north_m_s": 0.06, "vel_east_m_s": 1.01, "vel_down_m_s": -0.01, "battery_remain_pct": 9900.0}
{"t_rx_ms": 1776455310352, "run_id": "20260417_124507", "seq": 25, "pitch_deg": 15.0051, "yaw_deg": 6.7829, "roll_deg": 15.5325, "lat_deg": 34.0443272, "lon_deg": -117.81428939999999, "altitude_rel_ft": 0.5446, "ground_speed_ft_s": 3.5512, "vel_north_m_s": -0.3, "vel_east_m_s": 1.04, "vel_down_m_s": -0.01, "battery_remain_pct": 9900.0}
{"t_rx_ms": 1776455310553, "run_id": "20260417_124507", "seq": 26, "pitch_deg": 15.0051, "yaw_deg": 6.7829, "roll_deg": 15.5325, "lat_deg": 34.0443272, "lon_deg": -117.81428939999999, "altitude_rel_ft": 0.5446, "ground_speed_ft_s": 3.5512, "vel_north_m_s": -0.3, "vel_east_m_s": 1.04, "vel_down_m_s": -0.01, "battery_remain_pct": 9900.0}
{"t_rx_ms": 1776455310754, "run_id": "20260417_124507", "seq": 27, "pitch_deg": 15.0051, "yaw_deg": 6.7829, "roll_deg": 15.5325, "lat_deg": 34.0443272, "lon_deg": -117.81428939999999, "altitude_rel_ft": 0.5446, "ground_speed_ft_s": 3.5512, "vel_north_m_s": -0.3, "vel_east_m_s": 1.04, "vel_down_m_s": -0.01, "battery_remain_pct": 9900.0}
{"t_rx_ms": 1776455310955, "run_id": "20260417_124507", "seq": 28, "pitch_deg": 15.0051, "yaw_deg": 6.7829, "roll_deg": 15.5325, "lat_deg": 34.0443272, "lon_deg": -117.81428939999999, "altitude_rel_ft": 0.5446, "ground_speed_ft_s": 3.5512, "vel_north_m_s": -0.3, "vel_east_m_s": 1.04, "vel_down_m_s": -0.01, "battery_remain_pct": 9900.0}
{"t_rx_ms": 1776455311155, "run_id": "20260417_124507", "seq": 29, "pitch_deg": 15.0051, "yaw_deg": 6.7829, "roll_deg": 15.5325, "lat_deg": 34.0443272, "lon_deg": -117.81428939999999, "altitude_rel_ft": 0.5446, "ground_speed_ft_s": 3.5512, "vel_north_m_s": -0.3, "vel_east_m_s": 1.04, "vel_down_m_s": -0.01, "battery_remain_pct": 9900.0}
{"t_rx_ms": 1776455311367, "run_id": "20260417_124507", "seq": 30, "pitch_deg": 14.993, "yaw_deg": 17.9281, "roll_deg": 16.5061, "lat_deg": 34.0443195, "lon_deg": -117.8142735, "altitude_rel_ft": 0.5643, "ground_speed_ft_s": 4.1589, "vel_north_m_s": -0.63, "vel_east_m_s": 1.1, "vel_down_m_s": 0.01, "battery_remain_pct": 9900.0}
{"t_rx_ms": 1776455311565, "run_id": "20260417_124507", "seq": 31, "pitch_deg": 14.993, "yaw_deg": 17.9281, "roll_deg": 16.5061, "lat_deg": 34.0443195, "lon_deg": -117.8142735, "altitude_rel_ft": 0.5643, "ground_speed_ft_s": 4.1589, "vel_north_m_s": -0.63, "vel_east_m_s": 1.1, "vel_down_m_s": 0.01, "battery_remain_pct": 9900.0}
{"t_rx_ms": 1776455311767, "run_id": "20260417_124507", "seq": 32, "pitch_deg": 14.993, "yaw_deg": 17.9281, "roll_deg": 16.5061, "lat_deg": 34.0443195, "lon_deg": -117.8142735, "altitude_rel_ft": 0.5643, "ground_speed_ft_s": 4.1589, "vel_north_m_s": -0.63, "vel_east_m_s": 1.1, "vel_down_m_s": 0.01, "battery_remain_pct": 9900.0}
{"t_rx_ms": 1776455311971, "run_id": "20260417_124507", "seq": 33, "pitch_deg": 14.993, "yaw_deg": 17.9281, "roll_deg": 16.5061, "lat_deg": 34.0443195, "lon_deg": -117.8142735, "altitude_rel_ft": 0.5643, "ground_speed_ft_s": 4.1589, "vel_north_m_s": -0.63, "vel_east_m_s": 1.1, "vel_down_m_s": 0.01, "battery_remain_pct": 9900.0}
{"t_rx_ms": 1776455312171, "run_id": "20260417_124507", "seq": 34, "pitch_deg": 14.993, "yaw_deg": 17.9281, "roll_deg": 16.5061, "lat_deg": 34.0443195, "lon_deg": -117.8142735, "altitude_rel_ft": 0.5643, "ground_speed_ft_s": 4.1589, "vel_north_m_s": -0.63, "vel_east_m_s": 1.1, "vel_down_m_s": 0.01, "battery_remain_pct": 9900.0}
{"t_rx_ms": 1776455312373, "run_id": "20260417_124507", "seq": 35, "pitch_deg": 14.8031, "yaw_deg": 25.7499, "roll_deg": 17.7719, "lat_deg": 34.0443085, "lon_deg": -117.8142563, "altitude_rel_ft": 0.2493, "ground_speed_ft_s": 5.3698, "vel_north_m_s": -1.02, "vel_east_m_s": 1.28, "vel_down_m_s": 0.0, "battery_remain_pct": 9900.0}
{"t_rx_ms": 1776455312573, "run_id": "20260417_124507", "seq": 36, "pitch_deg": 14.8031, "yaw_deg": 25.7499, "roll_deg": 17.7719, "lat_deg": 34.0443085, "lon_deg": -117.8142563, "altitude_rel_ft": 0.2493, "ground_speed_ft_s": 5.3698, "vel_north_m_s": -1.02, "vel_east_m_s": 1.28, "vel_down_m_s": 0.0, "battery_remain_pct": 9900.0}
{"t_rx_ms": 1776455312775, "run_id": "20260417_124507", "seq": 37, "pitch_deg": 14.8031, "yaw_deg": 25.7499, "roll_deg": 17.7719, "lat_deg": 34.0443085, "lon_deg": -117.8142563, "altitude_rel_ft": 0.2493, "ground_speed_ft_s": 5.3698, "vel_north_m_s": -1.02, "vel_east_m_s": 1.28, "vel_down_m_s": 0.0, "battery_remain_pct": 9900.0}
{"t_rx_ms": 1776455312976, "run_id": "20260417_124507", "seq": 38, "pitch_deg": 14.8031, "yaw_deg": 25.7499, "roll_deg": 17.7719, "lat_deg": 34.0443085, "lon_deg": -117.8142563, "altitude_rel_ft": 0.2493, "ground_speed_ft_s": 5.3698, "vel_north_m_s": -1.02, "vel_east_m_s": 1.28, "vel_down_m_s": 0.0, "battery_remain_pct": 9900.0}
{"t_rx_ms": 1776455313176, "run_id": "20260417_124507", "seq": 39, "pitch_deg": 14.8031, "yaw_deg": 25.7499, "roll_deg": 17.7719, "lat_deg": 34.0443085, "lon_deg": -117.8142563, "altitude_rel_ft": 0.2493, "ground_speed_ft_s": 5.3698, "vel_north_m_s": -1.02, "vel_east_m_s": 1.28, "vel_down_m_s": 0.0, "battery_remain_pct": 9900.0}
{"t_rx_ms": 1776455313377, "run_id": "20260417_124507", "seq": 40, "pitch_deg": 14.883, "yaw_deg": 29.3202, "roll_deg": 18.0647, "lat_deg": 34.0442945, "lon_deg": -117.8142372, "altitude_rel_ft": 0.0361, "ground_speed_ft_s": 6.9477, "vel_north_m_s": -1.41, "vel_east_m_s": 1.58, "vel_down_m_s": -0.01, "battery_remain_pct": 9900.0}
{"t_rx_ms": 1776455313578, "run_id": "20260417_124507", "seq": 41, "pitch_deg": 14.883, "yaw_deg": 29.3202, "roll_deg": 18.0647, "lat_deg": 34.0442945, "lon_deg": -117.8142372, "altitude_rel_ft": 0.0361, "ground_speed_ft_s": 6.9477, "vel_north_m_s": -1.41, "vel_east_m_s": 1.58, "vel_down_m_s": -0.01, "battery_remain_pct": 9900.0}
{"t_rx_ms": 1776455313779, "run_id": "20260417_124507", "seq": 42, "pitch_deg": 14.883, "yaw_deg": 29.3202, "roll_deg": 18.0647, "lat_deg": 34.0442945, "lon_deg": -117.8142372, "altitude_rel_ft": 0.0361, "ground_speed_ft_s": 6.9477, "vel_north_m_s": -1.41, "vel_east_m_s": 1.58, "vel_down_m_s": -0.01, "battery_remain_pct": 9900.0}
{"t_rx_ms": 1776455313979, "run_id": "20260417_124507", "seq": 43, "pitch_deg": 14.883, "yaw_deg": 29.3202, "roll_deg": 18.0647, "lat_deg": 34.0442945, "lon_deg": -117.8142372, "altitude_rel_ft": 0.0361, "ground_speed_ft_s": 6.9477, "vel_north_m_s": -1.41, "vel_east_m_s": 1.58, "vel_down_m_s": -0.01, "battery_remain_pct": 9900.0}
{"t_rx_ms": 1776455314180, "run_id": "20260417_124507", "seq": 44, "pitch_deg": 14.883, "yaw_deg": 29.3202, "roll_deg": 18.0647, "lat_deg": 34.0442945, "lon_deg": -117.8142372, "altitude_rel_ft": 0.0361, "ground_speed_ft_s": 6.9477, "vel_north_m_s": -1.41, "vel_east_m_s": 1.58, "vel_down_m_s": -0.01, "battery_remain_pct": 9900.0}
{"t_rx_ms": 1776455314382, "run_id": "20260417_124507", "seq": 45, "pitch_deg": 15.0551, "yaw_deg": 30.3796, "roll_deg": 17.5636, "lat_deg": 34.0442799, "lon_deg": -117.81421619999999, "altitude_rel_ft": 0.1083, "ground_speed_ft_s": 8.0975, "vel_north_m_s": -1.5, "vel_east_m_s": 1.96, "vel_down_m_s": 0.0, "battery_remain_pct": 9900.0}
{"t_rx_ms": 1776455314583, "run_id": "20260417_124507", "seq": 46, "pitch_deg": 15.0551, "yaw_deg": 30.3796, "roll_deg": 17.5636, "lat_deg": 34.0442799, "lon_deg": -117.81421619999999, "altitude_rel_ft": 0.1083, "ground_speed_ft_s": 8.0975, "vel_north_m_s": -1.5, "vel_east_m_s": 1.96, "vel_down_m_s": 0.0, "battery_remain_pct": 9900.0}
{"t_rx_ms": 1776455314784, "run_id": "20260417_124507", "seq": 47, "pitch_deg": 15.0551, "yaw_deg": 30.3796, "roll_deg": 17.5636, "lat_deg": 34.0442799, "lon_deg": -117.81421619999999, "altitude_rel_ft": 0.1083, "ground_speed_ft_s": 8.0975, "vel_north_m_s": -1.5, "vel_east_m_s": 1.96, "vel_down_m_s": 0.0, "battery_remain_pct": 9900.0}
{"t_rx_ms": 1776455314987, "run_id": "20260417_124507", "seq": 48, "pitch_deg": 15.0551, "yaw_deg": 30.3796, "roll_deg": 17.5636, "lat_deg": 34.0442799, "lon_deg": -117.81421619999999, "altitude_rel_ft": 0.1083, "ground_speed_ft_s": 8.0975, "vel_north_m_s": -1.5, "vel_east_m_s": 1.96, "vel_down_m_s": 0.0, "battery_remain_pct": 9900.0}
{"t_rx_ms": 1776455315186, "run_id": "20260417_124507", "seq": 49, "pitch_deg": 15.6908, "yaw_deg": 30.683, "roll_deg": 17.0341, "lat_deg": 34.044267, "lon_deg": -117.8141953, "altitude_rel_ft": 0.1345, "ground_speed_ft_s": 8.4892, "vel_north_m_s": -1.26, "vel_east_m_s": 2.26, "vel_down_m_s": -0.01, "battery_remain_pct": 9900.0}
{"t_rx_ms": 1776455315388, "run_id": "20260417_124507", "seq": 50, "pitch_deg": 15.6908, "yaw_deg": 30.683, "roll_deg": 17.0341, "lat_deg": 34.044267, "lon_deg": -117.8141953, "altitude_rel_ft": 0.1345, "ground_speed_ft_s": 8.4892, "vel_north_m_s": -1.26, "vel_east_m_s": 2.26, "vel_down_m_s": -0.01, "battery_remain_pct": 9900.0}
{"t_rx_ms": 1776455315589, "run_id": "20260417_124507", "seq": 51, "pitch_deg": 15.6908, "yaw_deg": 30.683, "roll_deg": 17.0341, "lat_deg": 34.044267, "lon_deg": -117.8141953, "altitude_rel_ft": 0.1345, "ground_speed_ft_s": 8.4892, "vel_north_m_s": -1.26, "vel_east_m_s": 2.26, "vel_down_m_s": -0.01, "battery_remain_pct": 9900.0}
{"t_rx_ms": 1776455315790, "run_id": "20260417_124507", "seq": 52, "pitch_deg": 15.6908, "yaw_deg": 30.683, "roll_deg": 17.0341, "lat_deg": 34.044267, "lon_deg": -117.8141953, "altitude_rel_ft": 0.1345, "ground_speed_ft_s": 8.4892, "vel_north_m_s": -1.26, "vel_east_m_s": 2.26, "vel_down_m_s": -0.01, "battery_remain_pct": 9900.0}
{"t_rx_ms": 1776455315991, "run_id": "20260417_124507", "seq": 53, "pitch_deg": 15.6908, "yaw_deg": 30.683, "roll_deg": 17.0341, "lat_deg": 34.044267, "lon_deg": -117.8141953, "altitude_rel_ft": 0.1345, "ground_speed_ft_s": 8.4892, "vel_north_m_s": -1.26, "vel_east_m_s": 2.26, "vel_down_m_s": -0.01, "battery_remain_pct": 9900.0}
{"t_rx_ms": 1776455316194, "run_id": "20260417_124507", "seq": 54, "pitch_deg": 15.6908, "yaw_deg": 30.683, "roll_deg": 17.0341, "lat_deg": 34.044267, "lon_deg": -117.8141953, "altitude_rel_ft": 0.1345, "ground_speed_ft_s": 8.4892, "vel_north_m_s": -1.26, "vel_east_m_s": 2.26, "vel_down_m_s": -0.01, "battery_remain_pct": 9900.0}
{"t_rx_ms": 1776455316394, "run_id": "20260417_124507", "seq": 55, "pitch_deg": 15.2135, "yaw_deg": 30.2829, "roll_deg": 17.7249, "lat_deg": 34.0442562, "lon_deg": -117.8141775, "altitude_rel_ft": 0.0951, "ground_speed_ft_s": 8.2639, "vel_north_m_s": -1.19, "vel_east_m_s": 2.22, "vel_down_m_s": 0.0, "battery_remain_pct": 9900.0}
{"t_rx_ms": 1776455316595, "run_id": "20260417_124507", "seq": 56, "pitch_deg": 15.2135, "yaw_deg": 30.2829, "roll_deg": 17.7249, "lat_deg": 34.0442562, "lon_deg": -117.8141775, "altitude_rel_ft": 0.0951, "ground_speed_ft_s": 8.2639, "vel_north_m_s": -1.19, "vel_east_m_s": 2.22, "vel_down_m_s": 0.0, "battery_remain_pct": 9900.0}
{"t_rx_ms": 1776455316797, "run_id": "20260417_124507", "seq": 57, "pitch_deg": 15.2135, "yaw_deg": 30.2829, "roll_deg": 17.7249, "lat_deg": 34.0442562, "lon_deg": -117.8141775, "altitude_rel_ft": 0.0951, "ground_speed_ft_s": 8.2639, "vel_north_m_s": -1.19, "vel_east_m_s": 2.22, "vel_down_m_s": 0.0, "battery_remain_pct": 9900.0}
{"t_rx_ms": 1776455316998, "run_id": "20260417_124507", "seq": 58, "pitch_deg": 15.2135, "yaw_deg": 30.2829, "roll_deg": 17.7249, "lat_deg": 34.0442562, "lon_deg": -117.8141775, "altitude_rel_ft": 0.0951, "ground_speed_ft_s": 8.2639, "vel_north_m_s": -1.19, "vel_east_m_s": 2.22, "vel_down_m_s": 0.0, "battery_remain_pct": 9900.0}
{"t_rx_ms": 1776455317199, "run_id": "20260417_124507", "seq": 59, "pitch_deg": 15.7449, "yaw_deg": 29.6959, "roll_deg": 17.4364, "lat_deg": 34.0442465, "lon_deg": -117.81416349999999, "altitude_rel_ft": 0.1247, "ground_speed_ft_s": 7.645, "vel_north_m_s": -1.07, "vel_east_m_s": 2.07, "vel_down_m_s": -0.02, "battery_remain_pct": 9900.0}
{"t_rx_ms": 1776455317400, "run_id": "20260417_124507", "seq": 60, "pitch_deg": 15.7449, "yaw_deg": 29.6959, "roll_deg": 17.4364, "lat_deg": 34.0442465, "lon_deg": -117.81416349999999, "altitude_rel_ft": 0.1247, "ground_speed_ft_s": 7.645, "vel_north_m_s": -1.07, "vel_east_m_s": 2.07, "vel_down_m_s": -0.02, "battery_remain_pct": 9900.0}
{"t_rx_ms": 1776455317601, "run_id": "20260417_124507", "seq": 61, "pitch_deg": 15.7449, "yaw_deg": 29.6959, "roll_deg": 17.4364, "lat_deg": 34.0442465, "lon_deg": -117.81416349999999, "altitude_rel_ft": 0.1247, "ground_speed_ft_s": 7.645, "vel_north_m_s": -1.07, "vel_east_m_s": 2.07, "vel_down_m_s": -0.02, "battery_remain_pct": 9900.0}
{"t_rx_ms": 1776455317803, "run_id": "20260417_124507", "seq": 62, "pitch_deg": 15.7449, "yaw_deg": 29.6959, "roll_deg": 17.4364, "lat_deg": 34.0442465, "lon_deg": -117.81416349999999, "altitude_rel_ft": 0.1247, "ground_speed_ft_s": 7.645, "vel_north_m_s": -1.07, "vel_east_m_s": 2.07, "vel_down_m_s": -0.02, "battery_remain_pct": 9900.0}
{"t_rx_ms": 1776455318008, "run_id": "20260417_124507", "seq": 63, "pitch_deg": 15.7449, "yaw_deg": 29.6959, "roll_deg": 17.4364, "lat_deg": 34.0442465, "lon_deg": -117.81416349999999, "altitude_rel_ft": 0.1247, "ground_speed_ft_s": 7.645, "vel_north_m_s": -1.07, "vel_east_m_s": 2.07, "vel_down_m_s": -0.02, "battery_remain_pct": 9900.0}
{"t_rx_ms": 1776455318209, "run_id": "20260417_124507", "seq": 64, "pitch_deg": 15.8938, "yaw_deg": 27.9058, "roll_deg": 17.617, "lat_deg": 34.0442386, "lon_deg": -117.8141529, "altitude_rel_ft": 0.0591, "ground_speed_ft_s": 6.3973, "vel_north_m_s": -0.86, "vel_east_m_s": 1.75, "vel_down_m_s": -0.01, "battery_remain_pct": 9900.0}
{"t_rx_ms": 1776455318409, "run_id": "20260417_124507", "seq": 65, "pitch_deg": 15.8938, "yaw_deg": 27.9058, "roll_deg": 17.617, "lat_deg": 34.0442386, "lon_deg": -117.8141529, "altitude_rel_ft": 0.0591, "ground_speed_ft_s": 6.3973, "vel_north_m_s": -0.86, "vel_east_m_s": 1.75, "vel_down_m_s": -0.01, "battery_remain_pct": 9900.0}
{"t_rx_ms": 1776455318610, "run_id": "20260417_124507", "seq": 66, "pitch_deg": 15.8938, "yaw_deg": 27.9058, "roll_deg": 17.617, "lat_deg": 34.0442386, "lon_deg": -117.8141529, "altitude_rel_ft": 0.0591, "ground_speed_ft_s": 6.3973, "vel_north_m_s": -0.86, "vel_east_m_s": 1.75, "vel_down_m_s": -0.01, "battery_remain_pct": 9900.0}
{"t_rx_ms": 1776455318827, "run_id": "20260417_124507", "seq": 67, "pitch_deg": 15.8938, "yaw_deg": 27.9058, "roll_deg": 17.617, "lat_deg": 34.0442386, "lon_deg": -117.8141529, "altitude_rel_ft": 0.0591, "ground_speed_ft_s": 6.3973, "vel_north_m_s": -0.86, "vel_east_m_s": 1.75, "vel_down_m_s": -0.01, "battery_remain_pct": 9900.0}
{"t_rx_ms": 1776455319029, "run_id": "20260417_124507", "seq": 68, "pitch_deg": 15.8938, "yaw_deg": 27.9058, "roll_deg": 17.617, "lat_deg": 34.0442386, "lon_deg": -117.8141529, "altitude_rel_ft": 0.0591, "ground_speed_ft_s": 6.3973, "vel_north_m_s": -0.86, "vel_east_m_s": 1.75, "vel_down_m_s": -0.01, "battery_remain_pct": 9900.0}
{"t_rx_ms": 1776455319230, "run_id": "20260417_124507", "seq": 69, "pitch_deg": 16.1351, "yaw_deg": 26.5598, "roll_deg": 17.149, "lat_deg": 34.044232099999995, "lon_deg": -117.81414529999999, "altitude_rel_ft": -0.0033, "ground_speed_ft_s": 5.093, "vel_north_m_s": -0.73, "vel_east_m_s": 1.37, "vel_down_m_s": -0.02, "battery_remain_pct": 9900.0}
{"t_rx_ms": 1776455319434, "run_id": "20260417_124507", "seq": 70, "pitch_deg": 16.1351, "yaw_deg": 26.5598, "roll_deg": 17.149, "lat_deg": 34.044232099999995, "lon_deg": -117.81414529999999, "altitude_rel_ft": -0.0033, "ground_speed_ft_s": 5.093, "vel_north_m_s": -0.73, "vel_east_m_s": 1.37, "vel_down_m_s": -0.02, "battery_remain_pct": 9900.0}
{"t_rx_ms": 1776455319636, "run_id": "20260417_124507", "seq": 71, "pitch_deg": 16.1351, "yaw_deg": 26.5598, "roll_deg": 17.149, "lat_deg": 34.044232099999995, "lon_deg": -117.81414529999999, "altitude_rel_ft": -0.0033, "ground_speed_ft_s": 5.093, "vel_north_m_s": -0.73, "vel_east_m_s": 1.37, "vel_down_m_s": -0.02, "battery_remain_pct": 9900.0}
{"t_rx_ms": 1776455319838, "run_id": "20260417_124507", "seq": 72, "pitch_deg": 16.1351, "yaw_deg": 26.5598, "roll_deg": 17.149, "lat_deg": 34.044232099999995, "lon_deg": -117.81414529999999, "altitude_rel_ft": -0.0033, "ground_speed_ft_s": 5.093, "vel_north_m_s": -0.73, "vel_east_m_s": 1.37, "vel_down_m_s": -0.02, "battery_remain_pct": 9900.0}
{"t_rx_ms": 1776455320041, "run_id": "20260417_124507", "seq": 73, "pitch_deg": 16.1351, "yaw_deg": 26.5598, "roll_deg": 17.149, "lat_deg": 34.044232099999995, "lon_deg": -117.81414529999999, "altitude_rel_ft": -0.0033, "ground_speed_ft_s": 5.093, "vel_north_m_s": -0.73, "vel_east_m_s": 1.37, "vel_down_m_s": -0.02, "battery_remain_pct": 9900.0}
{"t_rx_ms": 1776455320244, "run_id": "20260417_124507", "seq": 74, "pitch_deg": 15.7658, "yaw_deg": 25.5006, "roll_deg": 17.319, "lat_deg": 34.044226699999996, "lon_deg": -117.81414, "altitude_rel_ft": 0.023, "ground_speed_ft_s": 3.7594, "vel_north_m_s": -0.61, "vel_east_m_s": 0.97, "vel_down_m_s": -0.03, "battery_remain_pct": 9900.0}
{"t_rx_ms": 1776455320446, "run_id": "20260417_124507", "seq": 75, "pitch_deg": 15.7658, "yaw_deg": 25.5006, "roll_deg": 17.319, "lat_deg": 34.044226699999996, "lon_deg": -117.81414, "altitude_rel_ft": 0.023, "ground_speed_ft_s": 3.7594, "vel_north_m_s": -0.61, "vel_east_m_s": 0.97, "vel_down_m_s": -0.03, "battery_remain_pct": 9900.0}
{"t_rx_ms": 1776455320648, "run_id": "20260417_124507", "seq": 76, "pitch_deg": 15.7658, "yaw_deg": 25.5006, "roll_deg": 17.319, "lat_deg": 34.044226699999996, "lon_deg": -117.81414, "altitude_rel_ft": 0.023, "ground_speed_ft_s": 3.7594, "vel_north_m_s": -0.61, "vel_east_m_s": 0.97, "vel_down_m_s": -0.03, "battery_remain_pct": 9900.0}
{"t_rx_ms": 1776455320849, "run_id": "20260417_124507", "seq": 77, "pitch_deg": 15.7658, "yaw_deg": 25.5006, "roll_deg": 17.319, "lat_deg": 34.044226699999996, "lon_deg": -117.81414, "altitude_rel_ft": 0.023, "ground_speed_ft_s": 3.7594, "vel_north_m_s": -0.61, "vel_east_m_s": 0.97, "vel_down_m_s": -0.03, "battery_remain_pct": 9900.0}
{"t_rx_ms": 1776455321050, "run_id": "20260417_124507", "seq": 78, "pitch_deg": 15.7658, "yaw_deg": 25.5006, "roll_deg": 17.319, "lat_deg": 34.044226699999996, "lon_deg": -117.81414, "altitude_rel_ft": 0.023, "ground_speed_ft_s": 3.7594, "vel_north_m_s": -0.61, "vel_east_m_s": 0.97, "vel_down_m_s": -0.03, "battery_remain_pct": 9900.0}
{"t_rx_ms": 1776455321250, "run_id": "20260417_124507", "seq": 79, "pitch_deg": 15.7512, "yaw_deg": 24.4807, "roll_deg": 17.2169, "lat_deg": 34.044221799999995, "lon_deg": -117.8141364, "altitude_rel_ft": -0.0558, "ground_speed_ft_s": 2.8318, "vel_north_m_s": -0.63, "vel_east_m_s": 0.59, "vel_down_m_s": 0.0, "battery_remain_pct": 9900.0}
{"t_rx_ms": 1776455321452, "run_id": "20260417_124507", "seq": 80, "pitch_deg": 15.7512, "yaw_deg": 24.4807, "roll_deg": 17.2169, "lat_deg": 34.044221799999995, "lon_deg": -117.8141364, "altitude_rel_ft": -0.0558, "ground_speed_ft_s": 2.8318, "vel_north_m_s": -0.63, "vel_east_m_s": 0.59, "vel_down_m_s": 0.0, "battery_remain_pct": 9900.0}
{"t_rx_ms": 1776455321653, "run_id": "20260417_124507", "seq": 81, "pitch_deg": 15.7512, "yaw_deg": 24.4807, "roll_deg": 17.2169, "lat_deg": 34.044221799999995, "lon_deg": -117.8141364, "altitude_rel_ft": -0.0558, "ground_speed_ft_s": 2.8318, "vel_north_m_s": -0.63, "vel_east_m_s": 0.59, "vel_down_m_s": 0.0, "battery_remain_pct": 9900.0}
{"t_rx_ms": 1776455321857, "run_id": "20260417_124507", "seq": 82, "pitch_deg": 15.7512, "yaw_deg": 24.4807, "roll_deg": 17.2169, "lat_deg": 34.044221799999995, "lon_deg": -117.8141364, "altitude_rel_ft": -0.0558, "ground_speed_ft_s": 2.8318, "vel_north_m_s": -0.63, "vel_east_m_s": 0.59, "vel_down_m_s": 0.0, "battery_remain_pct": 9900.0}
{"t_rx_ms": 1776455322058, "run_id": "20260417_124507", "seq": 83, "pitch_deg": 15.7512, "yaw_deg": 24.4807, "roll_deg": 17.2169, "lat_deg": 34.044221799999995, "lon_deg": -117.8141364, "altitude_rel_ft": -0.0558, "ground_speed_ft_s": 2.8318, "vel_north_m_s": -0.63, "vel_east_m_s": 0.59, "vel_down_m_s": 0.0, "battery_remain_pct": 9900.0}
{"t_rx_ms": 1776455322259, "run_id": "20260417_124507", "seq": 84, "pitch_deg": 15.8411, "yaw_deg": 23.5128, "roll_deg": 16.5535, "lat_deg": 34.044216899999995, "lon_deg": -117.81413289999999, "altitude_rel_ft": -0.0755, "ground_speed_ft_s": 2.3043, "vel_north_m_s": -0.62, "vel_east_m_s": 0.33, "vel_down_m_s": 0.0, "battery_remain_pct": 9900.0}
{"t_rx_ms": 1776455322460, "run_id": "20260417_124507", "seq": 85, "pitch_deg": 15.8411, "yaw_deg": 23.5128, "roll_deg": 16.5535, "lat_deg": 34.044216899999995, "lon_deg": -117.81413289999999, "altitude_rel_ft": -0.0755, "ground_speed_ft_s": 2.3043, "vel_north_m_s": -0.62, "vel_east_m_s": 0.33, "vel_down_m_s": 0.0, "battery_remain_pct": 9900.0}
{"t_rx_ms": 1776455322661, "run_id": "20260417_124507", "seq": 86, "pitch_deg": 15.8411, "yaw_deg": 23.5128, "roll_deg": 16.5535, "lat_deg": 34.044216899999995, "lon_deg": -117.81413289999999, "altitude_rel_ft": -0.0755, "ground_speed_ft_s": 2.3043, "vel_north_m_s": -0.62, "vel_east_m_s": 0.33, "vel_down_m_s": 0.0, "battery_remain_pct": 9900.0}
{"t_rx_ms": 1776455322861, "run_id": "20260417_124507", "seq": 87, "pitch_deg": 15.8411, "yaw_deg": 23.5128, "roll_deg": 16.5535, "lat_deg": 34.044216899999995, "lon_deg": -117.81413289999999, "altitude_rel_ft": -0.0755, "ground_speed_ft_s": 2.3043, "vel_north_m_s": -0.62, "vel_east_m_s": 0.33, "vel_down_m_s": 0.0, "battery_remain_pct": 9900.0}
{"t_rx_ms": 1776455323067, "run_id": "20260417_124507", "seq": 88, "pitch_deg": 15.8411, "yaw_deg": 23.5128, "roll_deg": 16.5535, "lat_deg": 34.044216899999995, "lon_deg": -117.81413289999999, "altitude_rel_ft": -0.0755, "ground_speed_ft_s": 2.3043, "vel_north_m_s": -0.62, "vel_east_m_s": 0.33, "vel_down_m_s": 0.0, "battery_remain_pct": 9900.0}
{"t_rx_ms": 1776455323268, "run_id": "20260417_124507", "seq": 89, "pitch_deg": 15.5076, "yaw_deg": 22.6665, "roll_deg": 17.2079, "lat_deg": 34.0442128, "lon_deg": -117.81412879999999, "altitude_rel_ft": -0.0427, "ground_speed_ft_s": 1.7744, "vel_north_m_s": -0.51, "vel_east_m_s": 0.18, "vel_down_m_s": 0.0, "battery_remain_pct": 9900.0}
{"t_rx_ms": 1776455323469, "run_id": "20260417_124507", "seq": 90, "pitch_deg": 15.5076, "yaw_deg": 22.6665, "roll_deg": 17.2079, "lat_deg": 34.0442128, "lon_deg": -117.81412879999999, "altitude_rel_ft": -0.0427, "ground_speed_ft_s": 1.7744, "vel_north_m_s": -0.51, "vel_east_m_s": 0.18, "vel_down_m_s": 0.0, "battery_remain_pct": 9900.0}
{"t_rx_ms": 1776455323673, "run_id": "20260417_124507", "seq": 91, "pitch_deg": 15.5076, "yaw_deg": 22.6665, "roll_deg": 17.2079, "lat_deg": 34.0442128, "lon_deg": -117.81412879999999, "altitude_rel_ft": -0.0427, "ground_speed_ft_s": 1.7744, "vel_north_m_s": -0.51, "vel_east_m_s": 0.18, "vel_down_m_s": 0.0, "battery_remain_pct": 9900.0}
{"t_rx_ms": 1776455323873, "run_id": "20260417_124507", "seq": 92, "pitch_deg": 15.5076, "yaw_deg": 22.6665, "roll_deg": 17.2079, "lat_deg": 34.0442128, "lon_deg": -117.81412879999999, "altitude_rel_ft": -0.0427, "ground_speed_ft_s": 1.7744, "vel_north_m_s": -0.51, "vel_east_m_s": 0.18, "vel_down_m_s": 0.0, "battery_remain_pct": 9900.0}
{"t_rx_ms": 1776455324075, "run_id": "20260417_124507", "seq": 93, "pitch_deg": 15.5076, "yaw_deg": 22.6665, "roll_deg": 17.2079, "lat_deg": 34.0442128, "lon_deg": -117.81412879999999, "altitude_rel_ft": -0.0427, "ground_speed_ft_s": 1.7744, "vel_north_m_s": -0.51, "vel_east_m_s": 0.18, "vel_down_m_s": 0.0, "battery_remain_pct": 9900.0}
{"t_rx_ms": 1776455324277, "run_id": "20260417_124507", "seq": 94, "pitch_deg": 15.496, "yaw_deg": 21.8012, "roll_deg": 17.9463, "lat_deg": 34.044208999999995, "lon_deg": -117.81412449999999, "altitude_rel_ft": -0.0164, "ground_speed_ft_s": 1.8235, "vel_north_m_s": -0.55, "vel_east_m_s": 0.08, "vel_down_m_s": 0.0, "battery_remain_pct": 9900.0}
{"t_rx_ms": 1776455324478, "run_id": "20260417_124507", "seq": 95, "pitch_deg": 15.496, "yaw_deg": 21.8012, "roll_deg": 17.9463, "lat_deg": 34.044208999999995, "lon_deg": -117.81412449999999, "altitude_rel_ft": -0.0164, "ground_speed_ft_s": 1.8235, "vel_north_m_s": -0.55, "vel_east_m_s": 0.08, "vel_down_m_s": 0.0, "battery_remain_pct": 9900.0}
{"t_rx_ms": 1776455324683, "run_id": "20260417_124507", "seq": 96, "pitch_deg": 15.496, "yaw_deg": 21.8012, "roll_deg": 17.9463, "lat_deg": 34.044208999999995, "lon_deg": -117.81412449999999, "altitude_rel_ft": -0.0164, "ground_speed_ft_s": 1.8235, "vel_north_m_s": -0.55, "vel_east_m_s": 0.08, "vel_down_m_s": 0.0, "battery_remain_pct": 9900.0}
{"t_rx_ms": 1776455324885, "run_id": "20260417_124507", "seq": 97, "pitch_deg": 15.496, "yaw_deg": 21.8012, "roll_deg": 17.9463, "lat_deg": 34.044208999999995, "lon_deg": -117.81412449999999, "altitude_rel_ft": -0.0164, "ground_speed_ft_s": 1.8235, "vel_north_m_s": -0.55, "vel_east_m_s": 0.08, "vel_down_m_s": 0.0, "battery_remain_pct": 9900.0}
{"t_rx_ms": 1776455325087, "run_id": "20260417_124507", "seq": 98, "pitch_deg": 15.496, "yaw_deg": 21.8012, "roll_deg": 17.9463, "lat_deg": 34.044208999999995, "lon_deg": -117.81412449999999, "altitude_rel_ft": -0.0164, "ground_speed_ft_s": 1.8235, "vel_north_m_s": -0.55, "vel_east_m_s": 0.08, "vel_down_m_s": 0.0, "battery_remain_pct": 9900.0}
{"t_rx_ms": 1776455325288, "run_id": "20260417_124507", "seq": 99, "pitch_deg": 15.3184, "yaw_deg": 20.6453, "roll_deg": 18.129, "lat_deg": 34.044204799999996, "lon_deg": -117.8141194, "altitude_rel_ft": -0.0427, "ground_speed_ft_s": 1.8841, "vel_north_m_s": -0.57, "vel_east_m_s": 0.07, "vel_down_m_s": 0.02, "battery_remain_pct": 9900.0}
{"t_rx_ms": 1776455325494, "run_id": "20260417_124507", "seq": 100, "pitch_deg": 15.3184, "yaw_deg": 20.6453, "roll_deg": 18.129, "lat_deg": 34.044204799999996, "lon_deg": -117.8141194, "altitude_rel_ft": -0.0427, "ground_speed_ft_s": 1.8841, "vel_north_m_s": -0.57, "vel_east_m_s": 0.07, "vel_down_m_s": 0.02, "battery_remain_pct": 9900.0}
{"t_rx_ms": 1776455325695, "run_id": "20260417_124507", "seq": 101, "pitch_deg": 15.3184, "yaw_deg": 20.6453, "roll_deg": 18.129, "lat_deg": 34.044204799999996, "lon_deg": -117.8141194, "altitude_rel_ft": -0.0427, "ground_speed_ft_s": 1.8841, "vel_north_m_s": -0.57, "vel_east_m_s": 0.07, "vel_down_m_s": 0.02, "battery_remain_pct": 9900.0}
{"t_rx_ms": 1776455325898, "run_id": "20260417_124507", "seq": 102, "pitch_deg": 15.3184, "yaw_deg": 20.6453, "roll_deg": 18.129, "lat_deg": 34.044204799999996, "lon_deg": -117.8141194, "altitude_rel_ft": -0.0427, "ground_speed_ft_s": 1.8841, "vel_north_m_s": -0.57, "vel_east_m_s": 0.07, "vel_down_m_s": 0.02, "battery_remain_pct": 9900.0}
{"t_rx_ms": 1776455326100, "run_id": "20260417_124507", "seq": 103, "pitch_deg": 15.3184, "yaw_deg": 20.6453, "roll_deg": 18.129, "lat_deg": 34.044204799999996, "lon_deg": -117.8141194, "altitude_rel_ft": -0.0427, "ground_speed_ft_s": 1.8841, "vel_north_m_s": -0.57, "vel_east_m_s": 0.07, "vel_down_m_s": 0.02, "battery_remain_pct": 9900.0}
{"t_rx_ms": 1776455326304, "run_id": "20260417_124507", "seq": 104, "pitch_deg": 15.324, "yaw_deg": 20.15, "roll_deg": 19.0032, "lat_deg": 34.0442004, "lon_deg": -117.81411329999999, "altitude_rel_ft": -0.1378, "ground_speed_ft_s": 1.862, "vel_north_m_s": -0.55, "vel_east_m_s": 0.14, "vel_down_m_s": 0.01, "battery_remain_pct": 9900.0}
{"t_rx_ms": 1776455326505, "run_id": "20260417_124507", "seq": 105, "pitch_deg": 15.324, "yaw_deg": 20.15, "roll_deg": 19.0032, "lat_deg": 34.0442004, "lon_deg": -117.81411329999999, "altitude_rel_ft": -0.1378, "ground_speed_ft_s": 1.862, "vel_north_m_s": -0.55, "vel_east_m_s": 0.14, "vel_down_m_s": 0.01, "battery_remain_pct": 9900.0}
{"t_rx_ms": 1776455326706, "run_id": "20260417_124507", "seq": 106, "pitch_deg": 15.324, "yaw_deg": 20.15, "roll_deg": 19.0032, "lat_deg": 34.0442004, "lon_deg": -117.81411329999999, "altitude_rel_ft": -0.1378, "ground_speed_ft_s": 1.862, "vel_north_m_s": -0.55, "vel_east_m_s": 0.14, "vel_down_m_s": 0.01, "battery_remain_pct": 9900.0}
{"t_rx_ms": 1776455326907, "run_id": "20260417_124507", "seq": 107, "pitch_deg": 15.324, "yaw_deg": 20.15, "roll_deg": 19.0032, "lat_deg": 34.0442004, "lon_deg": -117.81411329999999, "altitude_rel_ft": -0.1378, "ground_speed_ft_s": 1.862, "vel_north_m_s": -0.55, "vel_east_m_s": 0.14, "vel_down_m_s": 0.01, "battery_remain_pct": 9900.0}
{"t_rx_ms": 1776455327118, "run_id": "20260417_124507", "seq": 108, "pitch_deg": 15.324, "yaw_deg": 20.15, "roll_deg": 19.0032, "lat_deg": 34.0442004, "lon_deg": -117.81411329999999, "altitude_rel_ft": -0.1378, "ground_speed_ft_s": 1.862, "vel_north_m_s": -0.55, "vel_east_m_s": 0.14, "vel_down_m_s": 0.01, "battery_remain_pct": 9900.0}
{"t_rx_ms": 1776455327318, "run_id": "20260417_124507", "seq": 109, "pitch_deg": 15.2989, "yaw_deg": 19.5158, "roll_deg": 18.8718, "lat_deg": 34.0441962, "lon_deg": -117.8141064, "altitude_rel_ft": -0.1411, "ground_speed_ft_s": 1.7759, "vel_north_m_s": -0.49, "vel_east_m_s": 0.23, "vel_down_m_s": 0.01, "battery_remain_pct": 9900.0}
{"t_rx_ms": 1776455327520, "run_id": "20260417_124507", "seq": 110, "pitch_deg": 15.2989, "yaw_deg": 19.5158, "roll_deg": 18.8718, "lat_deg": 34.0441962, "lon_deg": -117.8141064, "altitude_rel_ft": -0.1411, "ground_speed_ft_s": 1.7759, "vel_north_m_s": -0.49, "vel_east_m_s": 0.23, "vel_down_m_s": 0.01, "battery_remain_pct": 9900.0}
{"t_rx_ms": 1776455327726, "run_id": "20260417_124507", "seq": 111, "pitch_deg": 15.2989, "yaw_deg": 19.5158, "roll_deg": 18.8718, "lat_deg": 34.0441962, "lon_deg": -117.8141064, "altitude_rel_ft": -0.1411, "ground_speed_ft_s": 1.7759, "vel_north_m_s": -0.49, "vel_east_m_s": 0.23, "vel_down_m_s": 0.01, "battery_remain_pct": 9900.0}
{"t_rx_ms": 1776455327925, "run_id": "20260417_124507", "seq": 112, "pitch_deg": 15.2989, "yaw_deg": 19.5158, "roll_deg": 18.8718, "lat_deg": 34.0441962, "lon_deg": -117.8141064, "altitude_rel_ft": -0.1411, "ground_speed_ft_s": 1.7759, "vel_north_m_s": -0.49, "vel_east_m_s": 0.23, "vel_down_m_s": 0.01, "battery_remain_pct": 9900.0}
{"t_rx_ms": 1776455328127, "run_id": "20260417_124507", "seq": 113, "pitch_deg": 15.2989, "yaw_deg": 19.5158, "roll_deg": 18.8718, "lat_deg": 34.0441962, "lon_deg": -117.8141064, "altitude_rel_ft": -0.1411, "ground_speed_ft_s": 1.7759, "vel_north_m_s": -0.49, "vel_east_m_s": 0.23, "vel_down_m_s": 0.01, "battery_remain_pct": 9900.0}
{"t_rx_ms": 1776455328328, "run_id": "20260417_124507", "seq": 114, "pitch_deg": 14.7233, "yaw_deg": 18.3505, "roll_deg": 19.5968, "lat_deg": 34.0441919, "lon_deg": -117.814099, "altitude_rel_ft": -0.1017, "ground_speed_ft_s": 2.1288, "vel_north_m_s": -0.57, "vel_east_m_s": 0.31, "vel_down_m_s": 0.0, "battery_remain_pct": 9900.0}
{"t_rx_ms": 1776455328528, "run_id": "20260417_124507", "seq": 115, "pitch_deg": 14.7233, "yaw_deg": 18.3505, "roll_deg": 19.5968, "lat_deg": 34.0441919, "lon_deg": -117.814099, "altitude_rel_ft": -0.1017, "ground_speed_ft_s": 2.1288, "vel_north_m_s": -0.57, "vel_east_m_s": 0.31, "vel_down_m_s": 0.0, "battery_remain_pct": 9900.0}
{"t_rx_ms": 1776455328731, "run_id": "20260417_124507", "seq": 116, "pitch_deg": 14.7233, "yaw_deg": 18.3505, "roll_deg": 19.5968, "lat_deg": 34.0441919, "lon_deg": -117.814099, "altitude_rel_ft": -0.1017, "ground_speed_ft_s": 2.1288, "vel_north_m_s": -0.57, "vel_east_m_s": 0.31, "vel_down_m_s": 0.0, "battery_remain_pct": 9900.0}
{"t_rx_ms": 1776455328932, "run_id": "20260417_124507", "seq": 117, "pitch_deg": 14.7233, "yaw_deg": 18.3505, "roll_deg": 19.5968, "lat_deg": 34.0441919, "lon_deg": -117.814099, "altitude_rel_ft": -0.1017, "ground_speed_ft_s": 2.1288, "vel_north_m_s": -0.57, "vel_east_m_s": 0.31, "vel_down_m_s": 0.0, "battery_remain_pct": 9900.0}
{"t_rx_ms": 1776455329136, "run_id": "20260417_124507", "seq": 118, "pitch_deg": 14.7233, "yaw_deg": 18.3505, "roll_deg": 19.5968, "lat_deg": 34.0441919, "lon_deg": -117.814099, "altitude_rel_ft": -0.1017, "ground_speed_ft_s": 2.1288, "vel_north_m_s": -0.57, "vel_east_m_s": 0.31, "vel_down_m_s": 0.0, "battery_remain_pct": 9900.0}
{"t_rx_ms": 1776455329338, "run_id": "20260417_124507", "seq": 119, "pitch_deg": 13.9581, "yaw_deg": 17.0492, "roll_deg": 19.3798, "lat_deg": 34.044185299999995, "lon_deg": -117.81409079999999, "altitude_rel_ft": -0.0328, "ground_speed_ft_s": 3.5031, "vel_north_m_s": -0.99, "vel_east_m_s": 0.4, "vel_down_m_s": 0.02, "battery_remain_pct": 9900.0}
{"t_rx_ms": 1776455329540, "run_id": "20260417_124507", "seq": 120, "pitch_deg": 13.9581, "yaw_deg": 17.0492, "roll_deg": 19.3798, "lat_deg": 34.044185299999995, "lon_deg": -117.81409079999999, "altitude_rel_ft": -0.0328, "ground_speed_ft_s": 3.5031, "vel_north_m_s": -0.99, "vel_east_m_s": 0.4, "vel_down_m_s": 0.02, "battery_remain_pct": 9900.0}
{"t_rx_ms": 1776455329741, "run_id": "20260417_124507", "seq": 121, "pitch_deg": 13.9581, "yaw_deg": 17.0492, "roll_deg": 19.3798, "lat_deg": 34.044185299999995, "lon_deg": -117.81409079999999, "altitude_rel_ft": -0.0328, "ground_speed_ft_s": 3.5031, "vel_north_m_s": -0.99, "vel_east_m_s": 0.4, "vel_down_m_s": 0.02, "battery_remain_pct": 9900.0}
{"t_rx_ms": 1776455329944, "run_id": "20260417_124507", "seq": 122, "pitch_deg": 13.9581, "yaw_deg": 17.0492, "roll_deg": 19.3798, "lat_deg": 34.044185299999995, "lon_deg": -117.81409079999999, "altitude_rel_ft": -0.0328, "ground_speed_ft_s": 3.5031, "vel_north_m_s": -0.99, "vel_east_m_s": 0.4, "vel_down_m_s": 0.02, "battery_remain_pct": 9900.0}
{"t_rx_ms": 1776455330150, "run_id": "20260417_124507", "seq": 123, "pitch_deg": 13.9581, "yaw_deg": 17.0492, "roll_deg": 19.3798, "lat_deg": 34.044185299999995, "lon_deg": -117.81409079999999, "altitude_rel_ft": -0.0328, "ground_speed_ft_s": 3.5031, "vel_north_m_s": -0.99, "vel_east_m_s": 0.4, "vel_down_m_s": 0.02, "battery_remain_pct": 9900.0}
{"t_rx_ms": 1776455330351, "run_id": "20260417_124507", "seq": 124, "pitch_deg": 14.0229, "yaw_deg": 15.7971, "roll_deg": 18.7141, "lat_deg": 34.044174, "lon_deg": -117.8140787, "altitude_rel_ft": 0.0459, "ground_speed_ft_s": 5.9158, "vel_north_m_s": -1.67, "vel_east_m_s": 0.68, "vel_down_m_s": 0.0, "battery_remain_pct": 9900.0}
{"t_rx_ms": 1776455330553, "run_id": "20260417_124507", "seq": 125, "pitch_deg": 14.0229, "yaw_deg": 15.7971, "roll_deg": 18.7141, "lat_deg": 34.044174, "lon_deg": -117.8140787, "altitude_rel_ft": 0.0459, "ground_speed_ft_s": 5.9158, "vel_north_m_s": -1.67, "vel_east_m_s": 0.68, "vel_down_m_s": 0.0, "battery_remain_pct": 9900.0}
{"t_rx_ms": 1776455330754, "run_id": "20260417_124507", "seq": 126, "pitch_deg": 14.0229, "yaw_deg": 15.7971, "roll_deg": 18.7141, "lat_deg": 34.044174, "lon_deg": -117.8140787, "altitude_rel_ft": 0.0459, "ground_speed_ft_s": 5.9158, "vel_north_m_s": -1.67, "vel_east_m_s": 0.68, "vel_down_m_s": 0.0, "battery_remain_pct": 9900.0}
{"t_rx_ms": 1776455330955, "run_id": "20260417_124507", "seq": 127, "pitch_deg": 14.0229, "yaw_deg": 15.7971, "roll_deg": 18.7141, "lat_deg": 34.044174, "lon_deg": -117.8140787, "altitude_rel_ft": 0.0459, "ground_speed_ft_s": 5.9158, "vel_north_m_s": -1.67, "vel_east_m_s": 0.68, "vel_down_m_s": 0.0, "battery_remain_pct": 9900.0}
{"t_rx_ms": 1776455331159, "run_id": "20260417_124507", "seq": 128, "pitch_deg": 14.0229, "yaw_deg": 15.7971, "roll_deg": 18.7141, "lat_deg": 34.044174, "lon_deg": -117.8140787, "altitude_rel_ft": 0.0459, "ground_speed_ft_s": 5.9158, "vel_north_m_s": -1.67, "vel_east_m_s": 0.68, "vel_down_m_s": 0.0, "battery_remain_pct": 9900.0}
{"t_rx_ms": 1776455331363, "run_id": "20260417_124507", "seq": 129, "pitch_deg": 13.9564, "yaw_deg": 13.2604, "roll_deg": 18.5237, "lat_deg": 34.044158599999996, "lon_deg": -117.8140593, "altitude_rel_ft": 0.1804, "ground_speed_ft_s": 8.3372, "vel_north_m_s": -2.24, "vel_east_m_s": 1.2, "vel_down_m_s": -0.01, "battery_remain_pct": 9900.0}
{"t_rx_ms": 1776455331561, "run_id": "20260417_124507", "seq": 130, "pitch_deg": 13.9564, "yaw_deg": 13.2604, "roll_deg": 18.5237, "lat_deg": 34.044158599999996, "lon_deg": -117.8140593, "altitude_rel_ft": 0.1804, "ground_speed_ft_s": 8.3372, "vel_north_m_s": -2.24, "vel_east_m_s": 1.2, "vel_down_m_s": -0.01, "battery_remain_pct": 9900.0}
{"t_rx_ms": 1776455331763, "run_id": "20260417_124507", "seq": 131, "pitch_deg": 13.9564, "yaw_deg": 13.2604, "roll_deg": 18.5237, "lat_deg": 34.044158599999996, "lon_deg": -117.8140593, "altitude_rel_ft": 0.1804, "ground_speed_ft_s": 8.3372, "vel_north_m_s": -2.24, "vel_east_m_s": 1.2, "vel_down_m_s": -0.01, "battery_remain_pct": 9900.0}
{"t_rx_ms": 1776455331964, "run_id": "20260417_124507", "seq": 132, "pitch_deg": 13.9564, "yaw_deg": 13.2604, "roll_deg": 18.5237, "lat_deg": 34.044158599999996, "lon_deg": -117.8140593, "altitude_rel_ft": 0.1804, "ground_speed_ft_s": 8.3372, "vel_north_m_s": -2.24, "vel_east_m_s": 1.2, "vel_down_m_s": -0.01, "battery_remain_pct": 9900.0}
{"t_rx_ms": 1776455332167, "run_id": "20260417_124507", "seq": 133, "pitch_deg": 13.9564, "yaw_deg": 13.2604, "roll_deg": 18.5237, "lat_deg": 34.044158599999996, "lon_deg": -117.8140593, "altitude_rel_ft": 0.1804, "ground_speed_ft_s": 8.3372, "vel_north_m_s": -2.24, "vel_east_m_s": 1.2, "vel_down_m_s": -0.01, "battery_remain_pct": 9900.0}
{"t_rx_ms": 1776455332368, "run_id": "20260417_124507", "seq": 134, "pitch_deg": 13.0231, "yaw_deg": 11.8516, "roll_deg": 19.7552, "lat_deg": 34.044139099999995, "lon_deg": -117.8140313, "altitude_rel_ft": 0.3215, "ground_speed_ft_s": 10.8024, "vel_north_m_s": -2.71, "vel_east_m_s": 1.87, "vel_down_m_s": -0.02, "battery_remain_pct": 9900.0}
{"t_rx_ms": 1776455332570, "run_id": "20260417_124507", "seq": 135, "pitch_deg": 13.0231, "yaw_deg": 11.8516, "roll_deg": 19.7552, "lat_deg": 34.044139099999995, "lon_deg": -117.8140313, "altitude_rel_ft": 0.3215, "ground_speed_ft_s": 10.8024, "vel_north_m_s": -2.71, "vel_east_m_s": 1.87, "vel_down_m_s": -0.02, "battery_remain_pct": 9900.0}
{"t_rx_ms": 1776455332771, "run_id": "20260417_124507", "seq": 136, "pitch_deg": 13.0231, "yaw_deg": 11.8516, "roll_deg": 19.7552, "lat_deg": 34.044139099999995, "lon_deg": -117.8140313, "altitude_rel_ft": 0.3215, "ground_speed_ft_s": 10.8024, "vel_north_m_s": -2.71, "vel_east_m_s": 1.87, "vel_down_m_s": -0.02, "battery_remain_pct": 9900.0}
{"t_rx_ms": 1776455332975, "run_id": "20260417_124507", "seq": 137, "pitch_deg": 13.0231, "yaw_deg": 11.8516, "roll_deg": 19.7552, "lat_deg": 34.044139099999995, "lon_deg": -117.8140313, "altitude_rel_ft": 0.3215, "ground_speed_ft_s": 10.8024, "vel_north_m_s": -2.71, "vel_east_m_s": 1.87, "vel_down_m_s": -0.02, "battery_remain_pct": 9900.0}
{"t_rx_ms": 1776455333176, "run_id": "20260417_124507", "seq": 138, "pitch_deg": 13.0231, "yaw_deg": 11.8516, "roll_deg": 19.7552, "lat_deg": 34.044139099999995, "lon_deg": -117.8140313, "altitude_rel_ft": 0.3215, "ground_speed_ft_s": 10.8024, "vel_north_m_s": -2.71, "vel_east_m_s": 1.87, "vel_down_m_s": -0.02, "battery_remain_pct": 9900.0}
{"t_rx_ms": 1776455333376, "run_id": "20260417_124507", "seq": 139, "pitch_deg": 13.0396, "yaw_deg": 9.7544, "roll_deg": 17.627, "lat_deg": 34.0441167, "lon_deg": -117.8139954, "altitude_rel_ft": 0.4495, "ground_speed_ft_s": 12.9743, "vel_north_m_s": -2.88, "vel_east_m_s": 2.71, "vel_down_m_s": -0.02, "battery_remain_pct": 9900.0}
{"t_rx_ms": 1776455333578, "run_id": "20260417_124507", "seq": 140, "pitch_deg": 13.0396, "yaw_deg": 9.7544, "roll_deg": 17.627, "lat_deg": 34.0441167, "lon_deg": -117.8139954, "altitude_rel_ft": 0.4495, "ground_speed_ft_s": 12.9743, "vel_north_m_s": -2.88, "vel_east_m_s": 2.71, "vel_down_m_s": -0.02, "battery_remain_pct": 9900.0}
{"t_rx_ms": 1776455333784, "run_id": "20260417_124507", "seq": 141, "pitch_deg": 13.0396, "yaw_deg": 9.7544, "roll_deg": 17.627, "lat_deg": 34.0441167, "lon_deg": -117.8139954, "altitude_rel_ft": 0.4495, "ground_speed_ft_s": 12.9743, "vel_north_m_s": -2.88, "vel_east_m_s": 2.71, "vel_down_m_s": -0.02, "battery_remain_pct": 9900.0}
{"t_rx_ms": 1776455333985, "run_id": "20260417_124507", "seq": 142, "pitch_deg": 13.0396, "yaw_deg": 9.7544, "roll_deg": 17.627, "lat_deg": 34.0441167, "lon_deg": -117.8139954, "altitude_rel_ft": 0.4495, "ground_speed_ft_s": 12.9743, "vel_north_m_s": -2.88, "vel_east_m_s": 2.71, "vel_down_m_s": -0.02, "battery_remain_pct": 9900.0}
{"t_rx_ms": 1776455334186, "run_id": "20260417_124507", "seq": 143, "pitch_deg": 13.0396, "yaw_deg": 9.7544, "roll_deg": 17.627, "lat_deg": 34.0441167, "lon_deg": -117.8139954, "altitude_rel_ft": 0.4495, "ground_speed_ft_s": 12.9743, "vel_north_m_s": -2.88, "vel_east_m_s": 2.71, "vel_down_m_s": -0.02, "battery_remain_pct": 9900.0}
{"t_rx_ms": 1776455334389, "run_id": "20260417_124507", "seq": 144, "pitch_deg": 12.5581, "yaw_deg": 7.674, "roll_deg": 21.0557, "lat_deg": 34.0440925, "lon_deg": -117.81395359999999, "altitude_rel_ft": 0.5512, "ground_speed_ft_s": 14.5226, "vel_north_m_s": -2.87, "vel_east_m_s": 3.37, "vel_down_m_s": 0.02, "battery_remain_pct": 9900.0}
{"t_rx_ms": 1776455334590, "run_id": "20260417_124507", "seq": 145, "pitch_deg": 12.5581, "yaw_deg": 7.674, "roll_deg": 21.0557, "lat_deg": 34.0440925, "lon_deg": -117.81395359999999, "altitude_rel_ft": 0.5512, "ground_speed_ft_s": 14.5226, "vel_north_m_s": -2.87, "vel_east_m_s": 3.37, "vel_down_m_s": 0.02, "battery_remain_pct": 9900.0}
{"t_rx_ms": 1776455334792, "run_id": "20260417_124507", "seq": 146, "pitch_deg": 12.5581, "yaw_deg": 7.674, "roll_deg": 21.0557, "lat_deg": 34.0440925, "lon_deg": -117.81395359999999, "altitude_rel_ft": 0.5512, "ground_speed_ft_s": 14.5226, "vel_north_m_s": -2.87, "vel_east_m_s": 3.37, "vel_down_m_s": 0.02, "battery_remain_pct": 9900.0}
{"t_rx_ms": 1776455334994, "run_id": "20260417_124507", "seq": 147, "pitch_deg": 12.5581, "yaw_deg": 7.674, "roll_deg": 21.0557, "lat_deg": 34.0440925, "lon_deg": -117.81395359999999, "altitude_rel_ft": 0.5512, "ground_speed_ft_s": 14.5226, "vel_north_m_s": -2.87, "vel_east_m_s": 3.37, "vel_down_m_s": 0.02, "battery_remain_pct": 9900.0}
{"t_rx_ms": 1776455335194, "run_id": "20260417_124507", "seq": 148, "pitch_deg": 12.2347, "yaw_deg": 5.7743, "roll_deg": 21.011, "lat_deg": 34.044067, "lon_deg": -117.8139083, "altitude_rel_ft": 0.1575, "ground_speed_ft_s": 15.9924, "vel_north_m_s": -2.87, "vel_east_m_s": 3.94, "vel_down_m_s": 0.0, "battery_remain_pct": 9900.0}
{"t_rx_ms": 1776455335397, "run_id": "20260417_124507", "seq": 149, "pitch_deg": 12.2347, "yaw_deg": 5.7743, "roll_deg": 21.011, "lat_deg": 34.044067, "lon_deg": -117.8139083, "altitude_rel_ft": 0.1575, "ground_speed_ft_s": 15.9924, "vel_north_m_s": -2.87, "vel_east_m_s": 3.94, "vel_down_m_s": 0.0, "battery_remain_pct": 9900.0}
{"t_rx_ms": 1776455335600, "run_id": "20260417_124507", "seq": 150, "pitch_deg": 12.2347, "yaw_deg": 5.7743, "roll_deg": 21.011, "lat_deg": 34.044067, "lon_deg": -117.8139083, "altitude_rel_ft": 0.1575, "ground_speed_ft_s": 15.9924, "vel_north_m_s": -2.87, "vel_east_m_s": 3.94, "vel_down_m_s": 0.0, "battery_remain_pct": 9900.0}
{"t_rx_ms": 1776455335802, "run_id": "20260417_124507", "seq": 151, "pitch_deg": 12.2347, "yaw_deg": 5.7743, "roll_deg": 21.011, "lat_deg": 34.044067, "lon_deg": -117.8139083, "altitude_rel_ft": 0.1575, "ground_speed_ft_s": 15.9924, "vel_north_m_s": -2.87, "vel_east_m_s": 3.94, "vel_down_m_s": 0.0, "battery_remain_pct": 9900.0}
{"t_rx_ms": 1776455336004, "run_id": "20260417_124507", "seq": 152, "pitch_deg": 12.2347, "yaw_deg": 5.7743, "roll_deg": 21.011, "lat_deg": 34.044067, "lon_deg": -117.8139083, "altitude_rel_ft": 0.1575, "ground_speed_ft_s": 15.9924, "vel_north_m_s": -2.87, "vel_east_m_s": 3.94, "vel_down_m_s": 0.0, "battery_remain_pct": 9900.0}
{"t_rx_ms": 1776455336206, "run_id": "20260417_124507", "seq": 153, "pitch_deg": 13.883, "yaw_deg": 5.3255, "roll_deg": 17.3887, "lat_deg": 34.044039999999995, "lon_deg": -117.8138615, "altitude_rel_ft": -0.1476, "ground_speed_ft_s": 17.2424, "vel_north_m_s": -2.78, "vel_east_m_s": 4.46, "vel_down_m_s": 0.0, "battery_remain_pct": 9900.0}
{"t_rx_ms": 1776455336407, "run_id": "20260417_124507", "seq": 154, "pitch_deg": 13.883, "yaw_deg": 5.3255, "roll_deg": 17.3887, "lat_deg": 34.044039999999995, "lon_deg": -117.8138615, "altitude_rel_ft": -0.1476, "ground_speed_ft_s": 17.2424, "vel_north_m_s": -2.78, "vel_east_m_s": 4.46, "vel_down_m_s": 0.0, "battery_remain_pct": 9900.0}
{"t_rx_ms": 1776455336608, "run_id": "20260417_124507", "seq": 155, "pitch_deg": 13.883, "yaw_deg": 5.3255, "roll_deg": 17.3887, "lat_deg": 34.044039999999995, "lon_deg": -117.8138615, "altitude_rel_ft": -0.1476, "ground_speed_ft_s": 17.2424, "vel_north_m_s": -2.78, "vel_east_m_s": 4.46, "vel_down_m_s": 0.0, "battery_remain_pct": 9900.0}
{"t_rx_ms": 1776455336810, "run_id": "20260417_124507", "seq": 156, "pitch_deg": 13.883, "yaw_deg": 5.3255, "roll_deg": 17.3887, "lat_deg": 34.044039999999995, "lon_deg": -117.8138615, "altitude_rel_ft": -0.1476, "ground_speed_ft_s": 17.2424, "vel_north_m_s": -2.78, "vel_east_m_s": 4.46, "vel_down_m_s": 0.0, "battery_remain_pct": 9900.0}
{"t_rx_ms": 1776455337011, "run_id": "20260417_124507", "seq": 157, "pitch_deg": 13.883, "yaw_deg": 5.3255, "roll_deg": 17.3887, "lat_deg": 34.044039999999995, "lon_deg": -117.8138615, "altitude_rel_ft": -0.1476, "ground_speed_ft_s": 17.2424, "vel_north_m_s": -2.78, "vel_east_m_s": 4.46, "vel_down_m_s": 0.0, "battery_remain_pct": 9900.0}
{"t_rx_ms": 1776455337224, "run_id": "20260417_124507", "seq": 158, "pitch_deg": 12.3474, "yaw_deg": 4.3596, "roll_deg": 22.2904, "lat_deg": 34.0440119, "lon_deg": -117.81381429999999, "altitude_rel_ft": -0.4364, "ground_speed_ft_s": 17.9671, "vel_north_m_s": -2.76, "vel_east_m_s": 4.73, "vel_down_m_s": 0.12, "battery_remain_pct": 9900.0}
{"t_rx_ms": 1776455337425, "run_id": "20260417_124507", "seq": 159, "pitch_deg": 12.3474, "yaw_deg": 4.3596, "roll_deg": 22.2904, "lat_deg": 34.0440119, "lon_deg": -117.81381429999999, "altitude_rel_ft": -0.4364, "ground_speed_ft_s": 17.9671, "vel_north_m_s": -2.76, "vel_east_m_s": 4.73, "vel_down_m_s": 0.12, "battery_remain_pct": 9900.0}
{"t_rx_ms": 1776455337626, "run_id": "20260417_124507", "seq": 160, "pitch_deg": 12.3474, "yaw_deg": 4.3596, "roll_deg": 22.2904, "lat_deg": 34.0440119, "lon_deg": -117.81381429999999, "altitude_rel_ft": -0.4364, "ground_speed_ft_s": 17.9671, "vel_north_m_s": -2.76, "vel_east_m_s": 4.73, "vel_down_m_s": 0.12, "battery_remain_pct": 9900.0}
{"t_rx_ms": 1776455337827, "run_id": "20260417_124507", "seq": 161, "pitch_deg": 12.3474, "yaw_deg": 4.3596, "roll_deg": 22.2904, "lat_deg": 34.0440119, "lon_deg": -117.81381429999999, "altitude_rel_ft": -0.4364, "ground_speed_ft_s": 17.9671, "vel_north_m_s": -2.76, "vel_east_m_s": 4.73, "vel_down_m_s": 0.12, "battery_remain_pct": 9900.0}
{"t_rx_ms": 1776455338030, "run_id": "20260417_124507", "seq": 162, "pitch_deg": 12.3474, "yaw_deg": 4.3596, "roll_deg": 22.2904, "lat_deg": 34.0440119, "lon_deg": -117.81381429999999, "altitude_rel_ft": -0.4364, "ground_speed_ft_s": 17.9671, "vel_north_m_s": -2.76, "vel_east_m_s": 4.73, "vel_down_m_s": 0.12, "battery_remain_pct": 9900.0}
{"t_rx_ms": 1776455338230, "run_id": "20260417_124507", "seq": 163, "pitch_deg": 12.8065, "yaw_deg": 3.5238, "roll_deg": 21.4122, "lat_deg": 34.0439824, "lon_deg": -117.81376709999999, "altitude_rel_ft": -0.6693, "ground_speed_ft_s": 18.298, "vel_north_m_s": -2.84, "vel_east_m_s": 4.8, "vel_down_m_s": 0.11, "battery_remain_pct": 9900.0}
{"t_rx_ms": 1776455338431, "run_id": "20260417_124507", "seq": 164, "pitch_deg": 12.8065, "yaw_deg": 3.5238, "roll_deg": 21.4122, "lat_deg": 34.0439824, "lon_deg": -117.81376709999999, "altitude_rel_ft": -0.6693, "ground_speed_ft_s": 18.298, "vel_north_m_s": -2.84, "vel_east_m_s": 4.8, "vel_down_m_s": 0.11, "battery_remain_pct": 9900.0}
{"t_rx_ms": 1776455338634, "run_id": "20260417_124507", "seq": 165, "pitch_deg": 12.8065, "yaw_deg": 3.5238, "roll_deg": 21.4122, "lat_deg": 34.0439824, "lon_deg": -117.81376709999999, "altitude_rel_ft": -0.6693, "ground_speed_ft_s": 18.298, "vel_north_m_s": -2.84, "vel_east_m_s": 4.8, "vel_down_m_s": 0.11, "battery_remain_pct": 9900.0}
{"t_rx_ms": 1776455338840, "run_id": "20260417_124507", "seq": 166, "pitch_deg": 12.8065, "yaw_deg": 3.5238, "roll_deg": 21.4122, "lat_deg": 34.0439824, "lon_deg": -117.81376709999999, "altitude_rel_ft": -0.6693, "ground_speed_ft_s": 18.298, "vel_north_m_s": -2.84, "vel_east_m_s": 4.8, "vel_down_m_s": 0.11, "battery_remain_pct": 9900.0}
{"t_rx_ms": 1776455339041, "run_id": "20260417_124507", "seq": 167, "pitch_deg": 12.8065, "yaw_deg": 3.5238, "roll_deg": 21.4122, "lat_deg": 34.0439824, "lon_deg": -117.81376709999999, "altitude_rel_ft": -0.6693, "ground_speed_ft_s": 18.298, "vel_north_m_s": -2.84, "vel_east_m_s": 4.8, "vel_down_m_s": 0.11, "battery_remain_pct": 9900.0}
{"t_rx_ms": 1776455339242, "run_id": "20260417_124507", "seq": 168, "pitch_deg": 13.2892, "yaw_deg": 2.6826, "roll_deg": 20.7212, "lat_deg": 34.0439515, "lon_deg": -117.8137204, "altitude_rel_ft": -0.8333, "ground_speed_ft_s": 18.4352, "vel_north_m_s": -2.97, "vel_east_m_s": 4.77, "vel_down_m_s": 0.09, "battery_remain_pct": 9900.0}
{"t_rx_ms": 1776455339444, "run_id": "20260417_124507", "seq": 169, "pitch_deg": 13.2892, "yaw_deg": 2.6826, "roll_deg": 20.7212, "lat_deg": 34.0439515, "lon_deg": -117.8137204, "altitude_rel_ft": -0.8333, "ground_speed_ft_s": 18.4352, "vel_north_m_s": -2.97, "vel_east_m_s": 4.77, "vel_down_m_s": 0.09, "battery_remain_pct": 9900.0}
{"t_rx_ms": 1776455339645, "run_id": "20260417_124507", "seq": 170, "pitch_deg": 13.2892, "yaw_deg": 2.6826, "roll_deg": 20.7212, "lat_deg": 34.0439515, "lon_deg": -117.8137204, "altitude_rel_ft": -0.8333, "ground_speed_ft_s": 18.4352, "vel_north_m_s": -2.97, "vel_east_m_s": 4.77, "vel_down_m_s": 0.09, "battery_remain_pct": 9900.0}
{"t_rx_ms": 1776455339846, "run_id": "20260417_124507", "seq": 171, "pitch_deg": 13.2892, "yaw_deg": 2.6826, "roll_deg": 20.7212, "lat_deg": 34.0439515, "lon_deg": -117.8137204, "altitude_rel_ft": -0.8333, "ground_speed_ft_s": 18.4352, "vel_north_m_s": -2.97, "vel_east_m_s": 4.77, "vel_down_m_s": 0.09, "battery_remain_pct": 9900.0}
{"t_rx_ms": 1776455340050, "run_id": "20260417_124507", "seq": 172, "pitch_deg": 13.2892, "yaw_deg": 2.6826, "roll_deg": 20.7212, "lat_deg": 34.0439515, "lon_deg": -117.8137204, "altitude_rel_ft": -0.8333, "ground_speed_ft_s": 18.4352, "vel_north_m_s": -2.97, "vel_east_m_s": 4.77, "vel_down_m_s": 0.09, "battery_remain_pct": 9900.0}
{"t_rx_ms": 1776455340257, "run_id": "20260417_124507", "seq": 173, "pitch_deg": 13.3097, "yaw_deg": 1.9052, "roll_deg": 21.215, "lat_deg": 34.0439192, "lon_deg": -117.81367399999999, "altitude_rel_ft": -0.9285, "ground_speed_ft_s": 18.2625, "vel_north_m_s": -3.09, "vel_east_m_s": 4.63, "vel_down_m_s": 0.04, "battery_remain_pct": 9900.0}
{"t_rx_ms": 1776455340460, "run_id": "20260417_124507", "seq": 174, "pitch_deg": 13.3097, "yaw_deg": 1.9052, "roll_deg": 21.215, "lat_deg": 34.0439192, "lon_deg": -117.81367399999999, "altitude_rel_ft": -0.9285, "ground_speed_ft_s": 18.2625, "vel_north_m_s": -3.09, "vel_east_m_s": 4.63, "vel_down_m_s": 0.04, "battery_remain_pct": 9900.0}
{"t_rx_ms": 1776455340663, "run_id": "20260417_124507", "seq": 175, "pitch_deg": 13.3097, "yaw_deg": 1.9052, "roll_deg": 21.215, "lat_deg": 34.0439192, "lon_deg": -117.81367399999999, "altitude_rel_ft": -0.9285, "ground_speed_ft_s": 18.2625, "vel_north_m_s": -3.09, "vel_east_m_s": 4.63, "vel_down_m_s": 0.04, "battery_remain_pct": 9900.0}
{"t_rx_ms": 1776455340865, "run_id": "20260417_124507", "seq": 176, "pitch_deg": 13.3097, "yaw_deg": 1.9052, "roll_deg": 21.215, "lat_deg": 34.0439192, "lon_deg": -117.81367399999999, "altitude_rel_ft": -0.9285, "ground_speed_ft_s": 18.2625, "vel_north_m_s": -3.09, "vel_east_m_s": 4.63, "vel_down_m_s": 0.04, "battery_remain_pct": 9900.0}
