{"t_rx_ms": 1774568613356, "run_id": "SIM_TEST", "seq": 0, "pitch_deg": -3.9524, "yaw_deg": 168.3863, "roll_deg": 3.8494, "lat_deg": 33.99054360118059, "lon_deg": -117.99466599805413, "altitude_rel_ft": 87.6982, "ground_speed_ft_s": 54.8432, "vel_north_m_s": -9.622, "vel_east_m_s": -1.1126, "vel_down_m_s": -0.7978, "battery_remain_pct": 87.1748}
{"t_rx_ms": 1774568613457, "run_id": "SIM_TEST", "seq": 1, "pitch_deg": -2.0654, "yaw_deg": 327.2153, "roll_deg": -6.1838, "lat_deg": 33.99355042678575, "lon_deg": -118.00334800254282, "altitude_rel_ft": 20.3706, "ground_speed_ft_s": 25.9848, "vel_north_m_s": -9.1053, "vel_east_m_s": 0.0067, "vel_down_m_s": 0.548, "battery_remain_pct": 69.3233}
{"t_rx_ms": 1774568613562, "run_id": "SIM_TEST", "seq": 2, "pitch_deg": -8.5127, "yaw_deg": 85.42, "roll_deg": -14.0265, "lat_deg": 34.00560390748305, "lon_deg": -117.99950767021265, "altitude_rel_ft": 31.422, "ground_speed_ft_s": 49.3515, "vel_north_m_s": 5.8111, "vel_east_m_s": 5.8316, "vel_down_m_s": 0.2999, "battery_remain_pct": 72.7966}
{"t_rx_ms": 1774568613662, "run_id": "SIM_TEST", "seq": 3, "pitch_deg": 4.0162, "yaw_deg": 228.4921, "roll_deg": 14.099, "lat_deg": 33.99806507554604, "lon_deg": -117.99711423841275, "altitude_rel_ft": 67.2024, "ground_speed_ft_s": 38.1869, "vel_north_m_s": -3.8433, "vel_east_m_s": -6.9085, "vel_down_m_s": 0.4648, "battery_remain_pct": 94.6532}
{"t_rx_ms": 1774568613764, "run_id": "SIM_TEST", "seq": 4, "pitch_deg": 3.4156, "yaw_deg": 170.6617, "roll_deg": 12.5544, "lat_deg": 34.000097067282844, "lon_deg": -117.99576906295533, "altitude_rel_ft": 39.1333, "ground_speed_ft_s": 33.2091, "vel_north_m_s": -1.7846, "vel_east_m_s": -7.0008, "vel_down_m_s": -0.1413, "battery_remain_pct": 62.84}
{"t_rx_ms": 1774568613865, "run_id": "SIM_TEST", "seq": 5, "pitch_deg": -0.6766, "yaw_deg": 326.1275, "roll_deg": 4.2276, "lat_deg": 34.000647449653606, "lon_deg": -118.00601981409356, "altitude_rel_ft": 62.1762, "ground_speed_ft_s": 43.3223, "vel_north_m_s": 3.0739, "vel_east_m_s": 0.6944, "vel_down_m_s": -0.4142, "battery_remain_pct": 70.1971}
{"t_rx_ms": 1774568613965, "run_id": "SIM_TEST", "seq": 6, "pitch_deg": -4.7282, "yaw_deg": 231.9515, "roll_deg": -6.7092, "lat_deg": 33.99157080051448, "lon_deg": -118.00339860319656, "altitude_rel_ft": 37.4478, "ground_speed_ft_s": 15.3046, "vel_north_m_s": 2.3062, "vel_east_m_s": -1.9165, "vel_down_m_s": 0.4982, "battery_remain_pct": 65.0351}
{"t_rx_ms": 1774568614066, "run_id": "SIM_TEST", "seq": 7, "pitch_deg": -2.8967, "yaw_deg": 104.1222, "roll_deg": 11.7566, "lat_deg": 34.00439801211576, "lon_deg": -117.99706285491496, "altitude_rel_ft": 20.9692, "ground_speed_ft_s": 48.8406, "vel_north_m_s": -2.0435, "vel_east_m_s": 2.74, "vel_down_m_s": -0.3175, "battery_remain_pct": 84.2812}
{"t_rx_ms": 1774568614167, "run_id": "SIM_TEST", "seq": 8, "pitch_deg": -7.4655, "yaw_deg": 33.8172, "roll_deg": 0.7572, "lat_deg": 34.007135803390625, "lon_deg": -118.00572554312309, "altitude_rel_ft": 50.726, "ground_speed_ft_s": 18.9005, "vel_north_m_s": 0.376, "vel_east_m_s": 2.3778, "vel_down_m_s": -0.781, "battery_remain_pct": 63.241}
{"t_rx_ms": 1774568614267, "run_id": "SIM_TEST", "seq": 9, "pitch_deg": -3.6621, "yaw_deg": 112.1455, "roll_deg": -5.0413, "lat_deg": 34.00527936710959, "lon_deg": -118.00484070328531, "altitude_rel_ft": 28.1066, "ground_speed_ft_s": 53.623, "vel_north_m_s": 7.431, "vel_east_m_s": 0.1797, "vel_down_m_s": -0.8694, "battery_remain_pct": 75.7891}
{"t_rx_ms": 1774568614368, "run_id": "SIM_TEST", "seq": 10, "pitch_deg": -1.6657, "yaw_deg": 286.6558, "roll_deg": 14.4934, "lat_deg": 34.00528501289202, "lon_deg": -117.99248811136583, "altitude_rel_ft": 71.4305, "ground_speed_ft_s": 48.6804, "vel_north_m_s": 1.7667, "vel_east_m_s": 0.5117, "vel_down_m_s": -0.4391, "battery_remain_pct": 53.1917}
{"t_rx_ms": 1774568614468, "run_id": "SIM_TEST", "seq": 11, "pitch_deg": 2.5934, "yaw_deg": 82.2485, "roll_deg": -9.8427, "lat_deg": 33.99246336519383, "lon_deg": -117.99249195599978, "altitude_rel_ft": 43.9061, "ground_speed_ft_s": 16.0675, "vel_north_m_s": 8.0911, "vel_east_m_s": 0.3227, "vel_down_m_s": -0.484, "battery_remain_pct": 51.451}
{"t_rx_ms": 1774568614569, "run_id": "SIM_TEST", "seq": 12, "pitch_deg": 6.004, "yaw_deg": 277.0618, "roll_deg": -2.0987, "lat_deg": 34.00736270712445, "lon_deg": -118.00410381747398, "altitude_rel_ft": 49.485, "ground_speed_ft_s": 51.0394, "vel_north_m_s": 0.4328, "vel_east_m_s": -6.8881, "vel_down_m_s": 0.696, "battery_remain_pct": 81.1721}
{"t_rx_ms": 1774568614669, "run_id": "SIM_TEST", "seq": 13, "pitch_deg": -8.2077, "yaw_deg": 169.1772, "roll_deg": -2.7601, "lat_deg": 34.00843318242981, "lon_deg": -118.00935173128521, "altitude_rel_ft": 28.8907, "ground_speed_ft_s": 47.7924, "vel_north_m_s": -5.9102, "vel_east_m_s": 9.3893, "vel_down_m_s": 0.0874, "battery_remain_pct": 74.4274}
{"t_rx_ms": 1774568614770, "run_id": "SIM_TEST", "seq": 14, "pitch_deg": 5.8237, "yaw_deg": 97.648, "roll_deg": -2.0255, "lat_deg": 34.009745280930304, "lon_deg": -117.99994367587213, "altitude_rel_ft": 70.6218, "ground_speed_ft_s": 29.4922, "vel_north_m_s": 8.6442, "vel_east_m_s": -0.6168, "vel_down_m_s": 0.8258, "battery_remain_pct": 90.5546}
{"t_rx_ms": 1774568614871, "run_id": "SIM_TEST", "seq": 15, "pitch_deg": 2.3639, "yaw_deg": 342.6406, "roll_deg": -2.9548, "lat_deg": 34.00518874127968, "lon_deg": -118.00421837013275, "altitude_rel_ft": 40.8065, "ground_speed_ft_s": 41.8043, "vel_north_m_s": -8.8392, "vel_east_m_s": 1.0033, "vel_down_m_s": 0.2619, "battery_remain_pct": 72.0627}
{"t_rx_ms": 1774568614971, "run_id": "SIM_TEST", "seq": 16, "pitch_deg": 5.1988, "yaw_deg": 123.3369, "roll_deg": -9.0507, "lat_deg": 34.00580731133176, "lon_deg": -117.99176051546661, "altitude_rel_ft": 43.1415, "ground_speed_ft_s": 47.6598, "vel_north_m_s": 2.7107, "vel_east_m_s": -4.442, "vel_down_m_s": 0.656, "battery_remain_pct": 67.5337}
{"t_rx_ms": 1774568615072, "run_id": "SIM_TEST", "seq": 17, "pitch_deg": -3.2838, "yaw_deg": 282.8172, "roll_deg": 9.6063, "lat_deg": 34.0022863105995, "lon_deg": -118.00735573682314, "altitude_rel_ft": 32.8195, "ground_speed_ft_s": 42.3477, "vel_north_m_s": -9.9937, "vel_east_m_s": 8.111, "vel_down_m_s": 0.2136, "battery_remain_pct": 64.5377}
{"t_rx_ms": 1774568615172, "run_id": "SIM_TEST", "seq": 18, "pitch_deg": -1.7765, "yaw_deg": 5.5141, "roll_deg": 13.959, "lat_deg": 34.004827214134885, "lon_deg": -117.99477626771056, "altitude_rel_ft": 38.642, "ground_speed_ft_s": 21.1515, "vel_north_m_s": 9.853, "vel_east_m_s": 0.4196, "vel_down_m_s": 0.5626, "battery_remain_pct": 79.5413}
{"t_rx_ms": 1774568615273, "run_id": "SIM_TEST", "seq": 19, "pitch_deg": -4.4493, "yaw_deg": 323.8733, "roll_deg": -2.162, "lat_deg": 33.99336229509955, "lon_deg": -117.99012983234492, "altitude_rel_ft": 98.4627, "ground_speed_ft_s": 56.2902, "vel_north_m_s": 8.1645, "vel_east_m_s": 6.5887, "vel_down_m_s": -0.8332, "battery_remain_pct": 79.8145}
{"t_rx_ms": 1774568615373, "run_id": "SIM_TEST", "seq": 20, "pitch_deg": -9.0399, "yaw_deg": 31.7959, "roll_deg": 6.1652, "lat_deg": 34.00747882201437, "lon_deg": -118.0066566590868, "altitude_rel_ft": 76.8135, "ground_speed_ft_s": 37.4647, "vel_north_m_s": 4.0095, "vel_east_m_s": 3.9523, "vel_down_m_s": -0.4606, "battery_remain_pct": 94.9011}
{"t_rx_ms": 1774568615474, "run_id": "SIM_TEST", "seq": 21, "pitch_deg": -9.7191, "yaw_deg": 71.898, "roll_deg": -7.3834, "lat_deg": 34.00591454966203, "lon_deg": -117.99929468779519, "altitude_rel_ft": 77.8413, "ground_speed_ft_s": 13.131, "vel_north_m_s": 1.5581, "vel_east_m_s": -1.2925, "vel_down_m_s": -0.6523, "battery_remain_pct": 81.5253}
{"t_rx_ms": 1774568615574, "run_id": "SIM_TEST", "seq": 22, "pitch_deg": -5.5908, "yaw_deg": 178.1897, "roll_deg": 13.9875, "lat_deg": 34.00378810925687, "lon_deg": -117.99178436151692, "altitude_rel_ft": 70.9498, "ground_speed_ft_s": 31.169, "vel_north_m_s": -9.9989, "vel_east_m_s": -0.7232, "vel_down_m_s": -0.3814, "battery_remain_pct": 59.5426}
{"t_rx_ms": 1774568615675, "run_id": "SIM_TEST", "seq": 23, "pitch_deg": 3.775, "yaw_deg": 89.1915, "roll_deg": 2.8834, "lat_deg": 34.00938490345465, "lon_deg": -118.00555503700762, "altitude_rel_ft": 96.201, "ground_speed_ft_s": 25.2109, "vel_north_m_s": -8.2214, "vel_east_m_s": 9.5696, "vel_down_m_s": -0.733, "battery_remain_pct": 65.5771}
{"t_rx_ms": 1774568615776, "run_id": "SIM_TEST", "seq": 24, "pitch_deg": -2.6931, "yaw_deg": 324.1832, "roll_deg": -8.6723, "lat_deg": 33.996347571725615, "lon_deg": -117.99809658329657, "altitude_rel_ft": 91.9151, "ground_speed_ft_s": 45.456, "vel_north_m_s": -2.8516, "vel_east_m_s": -6.2092, "vel_down_m_s": -0.6127, "battery_remain_pct": 87.7711}
{"t_rx_ms": 1774568615877, "run_id": "SIM_TEST", "seq": 25, "pitch_deg": 2.5119, "yaw_deg": 299.9304, "roll_deg": -2.0664, "lat_deg": 34.00810018484383, "lon_deg": -117.99873310525695, "altitude_rel_ft": 93.5375, "ground_speed_ft_s": 13.1059, "vel_north_m_s": -0.8118, "vel_east_m_s": 9.6368, "vel_down_m_s": 0.2798, "battery_remain_pct": 59.2607}
{"t_rx_ms": 1774568615978, "run_id": "SIM_TEST", "seq": 26, "pitch_deg": 5.4486, "yaw_deg": 31.0673, "roll_deg": 9.2697, "lat_deg": 33.991756469074765, "lon_deg": -118.00357465349327, "altitude_rel_ft": 40.9173, "ground_speed_ft_s": 16.4992, "vel_north_m_s": -8.9766, "vel_east_m_s": -2.5409, "vel_down_m_s": 0.9059, "battery_remain_pct": 78.6646}
{"t_rx_ms": 1774568616079, "run_id": "SIM_TEST", "seq": 27, "pitch_deg": -0.2307, "yaw_deg": 132.3271, "roll_deg": -9.8538, "lat_deg": 34.00595732205658, "lon_deg": -117.99767896718417, "altitude_rel_ft": 35.9966, "ground_speed_ft_s": 33.3917, "vel_north_m_s": 5.431, "vel_east_m_s": 7.5759, "vel_down_m_s": -0.9997, "battery_remain_pct": 69.8256}
{"t_rx_ms": 1774568616179, "run_id": "SIM_TEST", "seq": 28, "pitch_deg": 0.3399, "yaw_deg": 57.4314, "roll_deg": 5.2155, "lat_deg": 33.99337873464972, "lon_deg": -117.99254460515539, "altitude_rel_ft": 96.2558, "ground_speed_ft_s": 10.1766, "vel_north_m_s": 9.7549, "vel_east_m_s": -4.6937, "vel_down_m_s": -0.4867, "battery_remain_pct": 53.1014}
{"t_rx_ms": 1774568616280, "run_id": "SIM_TEST", "seq": 29, "pitch_deg": -7.4444, "yaw_deg": 36.5841, "roll_deg": -3.5038, "lat_deg": 33.998243060368914, "lon_deg": -118.00400020713445, "altitude_rel_ft": 28.7199, "ground_speed_ft_s": 58.7607, "vel_north_m_s": -1.6591, "vel_east_m_s": 4.7377, "vel_down_m_s": -0.4873, "battery_remain_pct": 61.9088}
{"t_rx_ms": 1774568616380, "run_id": "SIM_TEST", "seq": 30, "pitch_deg": -6.3192, "yaw_deg": 309.484, "roll_deg": 14.8714, "lat_deg": 34.00581347086771, "lon_deg": -117.99995918685799, "altitude_rel_ft": 38.8396, "ground_speed_ft_s": 47.9904, "vel_north_m_s": 7.0204, "vel_east_m_s": -7.9938, "vel_down_m_s": 0.5253, "battery_remain_pct": 96.3819}
{"t_rx_ms": 1774568616481, "run_id": "SIM_TEST", "seq": 31, "pitch_deg": -4.2311, "yaw_deg": 290.0759, "roll_deg": -0.2553, "lat_deg": 33.99623357047786, "lon_deg": -117.99112278209056, "altitude_rel_ft": 57.6713, "ground_speed_ft_s": 50.0419, "vel_north_m_s": 1.5633, "vel_east_m_s": 8.2428, "vel_down_m_s": 0.9879, "battery_remain_pct": 82.5074}
{"t_rx_ms": 1774568616582, "run_id": "SIM_TEST", "seq": 32, "pitch_deg": -6.6826, "yaw_deg": 40.6465, "roll_deg": 1.9926, "lat_deg": 34.00103755615453, "lon_deg": -117.99999238559198, "altitude_rel_ft": 39.4962, "ground_speed_ft_s": 13.2659, "vel_north_m_s": -5.5972, "vel_east_m_s": 7.658, "vel_down_m_s": 0.5432, "battery_remain_pct": 68.0947}
{"t_rx_ms": 1774568616683, "run_id": "SIM_TEST", "seq": 33, "pitch_deg": 5.7837, "yaw_deg": 154.9676, "roll_deg": 14.8471, "lat_deg": 33.99434003243824, "lon_deg": -118.00851807840648, "altitude_rel_ft": 71.684, "ground_speed_ft_s": 11.4698, "vel_north_m_s": -0.9293, "vel_east_m_s": 3.2072, "vel_down_m_s": 0.7965, "battery_remain_pct": 56.1596}
{"t_rx_ms": 1774568616784, "run_id": "SIM_TEST", "seq": 34, "pitch_deg": 8.5266, "yaw_deg": 229.1276, "roll_deg": 14.8719, "lat_deg": 33.99000128826335, "lon_deg": -118.00303585900944, "altitude_rel_ft": 95.7898, "ground_speed_ft_s": 49.749, "vel_north_m_s": -7.5377, "vel_east_m_s": 7.9021, "vel_down_m_s": -0.5499, "battery_remain_pct": 62.5299}
{"t_rx_ms": 1774568616886, "run_id": "SIM_TEST", "seq": 35, "pitch_deg": -5.8854, "yaw_deg": 249.4684, "roll_deg": 10.4731, "lat_deg": 34.00835889468656, "lon_deg": -118.00402521273992, "altitude_rel_ft": 82.4453, "ground_speed_ft_s": 45.0215, "vel_north_m_s": 8.0637, "vel_east_m_s": 9.6333, "vel_down_m_s": -0.0579, "battery_remain_pct": 62.7726}
{"t_rx_ms": 1774568616987, "run_id": "SIM_TEST", "seq": 36, "pitch_deg": 4.4392, "yaw_deg": 274.1995, "roll_deg": 8.5153, "lat_deg": 33.990220622834656, "lon_deg": -117.99415007402337, "altitude_rel_ft": 73.5462, "ground_speed_ft_s": 20.7959, "vel_north_m_s": 8.2437, "vel_east_m_s": -6.0959, "vel_down_m_s": 0.8545, "battery_remain_pct": 59.166}
{"t_rx_ms": 1774568617088, "run_id": "SIM_TEST", "seq": 37, "pitch_deg": 2.5023, "yaw_deg": 41.5822, "roll_deg": -4.7537, "lat_deg": 33.990333808614245, "lon_deg": -118.00671943130202, "altitude_rel_ft": 28.2707, "ground_speed_ft_s": 28.2863, "vel_north_m_s": 5.7628, "vel_east_m_s": -7.7851, "vel_down_m_s": -0.3349, "battery_remain_pct": 75.342}
{"t_rx_ms": 1774568617189, "run_id": "SIM_TEST", "seq": 38, "pitch_deg": 9.5175, "yaw_deg": 342.6799, "roll_deg": -2.999, "lat_deg": 33.99764843217617, "lon_deg": -118.00369966464088, "altitude_rel_ft": 91.1919, "ground_speed_ft_s": 43.1374, "vel_north_m_s": -2.6088, "vel_east_m_s": -0.4751, "vel_down_m_s": -0.7317, "battery_remain_pct": 76.2051}
{"t_rx_ms": 1774568617290, "run_id": "SIM_TEST", "seq": 39, "pitch_deg": -7.508, "yaw_deg": 96.7027, "roll_deg": -7.2326, "lat_deg": 34.00643845212328, "lon_deg": -118.00506202174238, "altitude_rel_ft": 62.0891, "ground_speed_ft_s": 49.3035, "vel_north_m_s": 5.216, "vel_east_m_s": 4.9891, "vel_down_m_s": 0.5468, "battery_remain_pct": 77.1213}
{"t_rx_ms": 1774568617391, "run_id": "SIM_TEST", "seq": 40, "pitch_deg": -4.3319, "yaw_deg": 165.2658, "roll_deg": -12.1156, "lat_deg": 33.99546810115952, "lon_deg": -118.00312545666075, "altitude_rel_ft": 20.7915, "ground_speed_ft_s": 27.7515, "vel_north_m_s": 1.9145, "vel_east_m_s": 8.9808, "vel_down_m_s": 0.8716, "battery_remain_pct": 56.2267}
{"t_rx_ms": 1774568617492, "run_id": "SIM_TEST", "seq": 41, "pitch_deg": -0.5908, "yaw_deg": 175.5438, "roll_deg": 11.4769, "lat_deg": 33.99015689774766, "lon_deg": -118.007781921025, "altitude_rel_ft": 79.4339, "ground_speed_ft_s": 5.4818, "vel_north_m_s": -7.4296, "vel_east_m_s": 1.9111, "vel_down_m_s": 0.7864, "battery_remain_pct": 74.0318}
{"t_rx_ms": 1774568617593, "run_id": "SIM_TEST", "seq": 42, "pitch_deg": 8.0435, "yaw_deg": 152.9045, "roll_deg": -11.8503, "lat_deg": 33.993567124160485, "lon_deg": -117.99637095140677, "altitude_rel_ft": 23.3323, "ground_speed_ft_s": 33.0586, "vel_north_m_s": 0.0646, "vel_east_m_s": -2.2582, "vel_down_m_s": -0.6743, "battery_remain_pct": 99.3859}
{"t_rx_ms": 1774568617695, "run_id": "SIM_TEST", "seq": 43, "pitch_deg": 6.0508, "yaw_deg": 314.4867, "roll_deg": 12.8801, "lat_deg": 34.001306040608014, "lon_deg": -117.9998487895909, "altitude_rel_ft": 25.2931, "ground_speed_ft_s": 42.3144, "vel_north_m_s": 9.6484, "vel_east_m_s": -5.863, "vel_down_m_s": 0.081, "battery_remain_pct": 57.9066}
{"t_rx_ms": 1774568617795, "run_id": "SIM_TEST", "seq": 44, "pitch_deg": -7.9415, "yaw_deg": 345.8574, "roll_deg": 10.3895, "lat_deg": 34.0027514641522, "lon_deg": -117.99137481362371, "altitude_rel_ft": 83.2039, "ground_speed_ft_s": 40.7865, "vel_north_m_s": 6.5763, "vel_east_m_s": 6.71, "vel_down_m_s": -0.6039, "battery_remain_pct": 94.7857}
{"t_rx_ms": 1774568617896, "run_id": "SIM_TEST", "seq": 45, "pitch_deg": 0.8073, "yaw_deg": 198.5296, "roll_deg": -0.7964, "lat_deg": 34.000431970033446, "lon_deg": -118.00376934104577, "altitude_rel_ft": 40.3218, "ground_speed_ft_s": 35.7638, "vel_north_m_s": -3.4259, "vel_east_m_s": 8.2414, "vel_down_m_s": 0.2258, "battery_remain_pct": 66.9976}
{"t_rx_ms": 1774568617997, "run_id": "SIM_TEST", "seq": 46, "pitch_deg": 3.2723, "yaw_deg": 175.1408, "roll_deg": 3.8023, "lat_deg": 34.00756538118704, "lon_deg": -118.00879675401812, "altitude_rel_ft": 89.1158, "ground_speed_ft_s": 54.2072, "vel_north_m_s": -3.0673, "vel_east_m_s": 8.1661, "vel_down_m_s": 0.8593, "battery_remain_pct": 69.2816}
{"t_rx_ms": 1774568618097, "run_id": "SIM_TEST", "seq": 47, "pitch_deg": -0.6938, "yaw_deg": 41.7487, "roll_deg": -4.6094, "lat_deg": 33.99747779475336, "lon_deg": -118.00466023042489, "altitude_rel_ft": 38.9594, "ground_speed_ft_s": 20.4551, "vel_north_m_s": -8.7266, "vel_east_m_s": -1.7613, "vel_down_m_s": 0.7541, "battery_remain_pct": 60.0926}
{"t_rx_ms": 1774568618198, "run_id": "SIM_TEST", "seq": 48, "pitch_deg": -2.117, "yaw_deg": 21.2216, "roll_deg": -4.5192, "lat_deg": 34.00050755242173, "lon_deg": -118.0043691403326, "altitude_rel_ft": 82.3747, "ground_speed_ft_s": 11.2618, "vel_north_m_s": 4.5162, "vel_east_m_s": 9.4666, "vel_down_m_s": -0.2735, "battery_remain_pct": 95.1893}
{"t_rx_ms": 1774568618299, "run_id": "SIM_TEST", "seq": 49, "pitch_deg": -9.2094, "yaw_deg": 144.5532, "roll_deg": -12.5207, "lat_deg": 34.001856573611896, "lon_deg": -118.00806823317046, "altitude_rel_ft": 64.8029, "ground_speed_ft_s": 32.1848, "vel_north_m_s": -6.4883, "vel_east_m_s": 1.5519, "vel_down_m_s": 0.2542, "battery_remain_pct": 71.7617}
{"t_rx_ms": 1774568618400, "run_id": "SIM_TEST", "seq": 50, "pitch_deg": -3.4224, "yaw_deg": 250.26, "roll_deg": -5.513, "lat_deg": 33.99865165070701, "lon_deg": -118.00970073636604, "altitude_rel_ft": 49.0757, "ground_speed_ft_s": 14.4363, "vel_north_m_s": -1.5635, "vel_east_m_s": 1.0192, "vel_down_m_s": 0.4082, "battery_remain_pct": 76.7781}
{"t_rx_ms": 1774568618501, "run_id": "SIM_TEST", "seq": 51, "pitch_deg": -6.7701, "yaw_deg": 329.7503, "roll_deg": -12.2751, "lat_deg": 34.00518484966173, "lon_deg": -117.99874363136783, "altitude_rel_ft": 77.1892, "ground_speed_ft_s": 20.1965, "vel_north_m_s": -6.7815, "vel_east_m_s": 8.2354, "vel_down_m_s": -0.6007, "battery_remain_pct": 75.6338}
{"t_rx_ms": 1774568618601, "run_id": "SIM_TEST", "seq": 52, "pitch_deg": -3.897, "yaw_deg": 257.8412, "roll_deg": -12.3612, "lat_deg": 34.009059869013186, "lon_deg": -118.00223996787781, "altitude_rel_ft": 26.2613, "ground_speed_ft_s": 18.1576, "vel_north_m_s": 1.4996, "vel_east_m_s": 7.9449, "vel_down_m_s": 0.9062, "battery_remain_pct": 65.7181}
{"t_rx_ms": 1774568618702, "run_id": "SIM_TEST", "seq": 53, "pitch_deg": 9.9587, "yaw_deg": 1.4136, "roll_deg": -5.8115, "lat_deg": 33.99258913772793, "lon_deg": -118.00177401111827, "altitude_rel_ft": 84.6657, "ground_speed_ft_s": 52.3233, "vel_north_m_s": 4.7153, "vel_east_m_s": 6.7801, "vel_down_m_s": -0.9817, "battery_remain_pct": 68.5921}
{"t_rx_ms": 1774568618802, "run_id": "SIM_TEST", "seq": 54, "pitch_deg": -1.2565, "yaw_deg": 84.4221, "roll_deg": -4.4097, "lat_deg": 33.991801632903524, "lon_deg": -117.99126647063244, "altitude_rel_ft": 59.8149, "ground_speed_ft_s": 36.944, "vel_north_m_s": -5.6632, "vel_east_m_s": -5.2342, "vel_down_m_s": 0.2409, "battery_remain_pct": 73.8718}
{"t_rx_ms": 1774568618903, "run_id": "SIM_TEST", "seq": 55, "pitch_deg": -4.5088, "yaw_deg": 97.1535, "roll_deg": 4.5444, "lat_deg": 33.99081995787118, "lon_deg": -117.99912467090144, "altitude_rel_ft": 82.6054, "ground_speed_ft_s": 19.7475, "vel_north_m_s": -8.119, "vel_east_m_s": 3.2265, "vel_down_m_s": -0.9882, "battery_remain_pct": 80.1253}
{"t_rx_ms": 1774568619003, "run_id": "SIM_TEST", "seq": 56, "pitch_deg": 3.1034, "yaw_deg": 107.8944, "roll_deg": 13.0296, "lat_deg": 34.00931535816641, "lon_deg": -118.00930020036826, "altitude_rel_ft": 98.213, "ground_speed_ft_s": 49.5336, "vel_north_m_s": -8.6383, "vel_east_m_s": 9.3637, "vel_down_m_s": 0.1468, "battery_remain_pct": 86.0905}
{"t_rx_ms": 1774568619103, "run_id": "SIM_TEST", "seq": 57, "pitch_deg": 9.0196, "yaw_deg": 277.1752, "roll_deg": -7.7678, "lat_deg": 33.99863375846774, "lon_deg": -118.00223616057066, "altitude_rel_ft": 74.0841, "ground_speed_ft_s": 15.8554, "vel_north_m_s": -6.7186, "vel_east_m_s": -8.3006, "vel_down_m_s": -0.3, "battery_remain_pct": 98.3335}
{"t_rx_ms": 1774568619204, "run_id": "SIM_TEST", "seq": 58, "pitch_deg": 9.1722, "yaw_deg": 354.7454, "roll_deg": -13.4328, "lat_deg": 33.991123605706285, "lon_deg": -118.00581643461845, "altitude_rel_ft": 67.0, "ground_speed_ft_s": 32.9828, "vel_north_m_s": 2.7056, "vel_east_m_s": -6.3385, "vel_down_m_s": -0.0091, "battery_remain_pct": 84.5485}
{"t_rx_ms": 1774568619305, "run_id": "SIM_TEST", "seq": 59, "pitch_deg": -7.4854, "yaw_deg": 307.9874, "roll_deg": 0.2818, "lat_deg": 34.0088622236109, "lon_deg": -117.99381471966748, "altitude_rel_ft": 38.2755, "ground_speed_ft_s": 37.2521, "vel_north_m_s": 3.4173, "vel_east_m_s": -0.1787, "vel_down_m_s": -0.6343, "battery_remain_pct": 92.5647}
{"t_rx_ms": 1774568619406, "run_id": "SIM_TEST", "seq": 60, "pitch_deg": 5.2691, "yaw_deg": 92.6191, "roll_deg": -14.6483, "lat_deg": 34.00862247935851, "lon_deg": -118.00036009582307, "altitude_rel_ft": 58.3189, "ground_speed_ft_s": 28.3644, "vel_north_m_s": -5.6101, "vel_east_m_s": -2.2619, "vel_down_m_s": 0.4837, "battery_remain_pct": 99.8864}
{"t_rx_ms": 1774568619507, "run_id": "SIM_TEST", "seq": 61, "pitch_deg": -5.499, "yaw_deg": 102.4534, "roll_deg": -2.3973, "lat_deg": 33.994783056683, "lon_deg": -118.00389892681649, "altitude_rel_ft": 30.4113, "ground_speed_ft_s": 59.1159, "vel_north_m_s": 4.1681, "vel_east_m_s": 9.2774, "vel_down_m_s": 0.5821, "battery_remain_pct": 86.2266}
{"t_rx_ms": 1774568619608, "run_id": "SIM_TEST", "seq": 62, "pitch_deg": -2.5026, "yaw_deg": 219.6317, "roll_deg": -14.4524, "lat_deg": 33.99855595908212, "lon_deg": -118.0008099266268, "altitude_rel_ft": 85.5541, "ground_speed_ft_s": 20.9217, "vel_north_m_s": -3.126, "vel_east_m_s": 2.5009, "vel_down_m_s": 0.1288, "battery_remain_pct": 78.6067}
{"t_rx_ms": 1774568619709, "run_id": "SIM_TEST", "seq": 63, "pitch_deg": 3.7376, "yaw_deg": 191.4075, "roll_deg": -2.8207, "lat_deg": 33.99921751440284, "lon_deg": -117.99490854710444, "altitude_rel_ft": 70.5861, "ground_speed_ft_s": 42.7778, "vel_north_m_s": 5.619, "vel_east_m_s": -1.1708, "vel_down_m_s": 0.3231, "battery_remain_pct": 84.3176}
{"t_rx_ms": 1774568619810, "run_id": "SIM_TEST", "seq": 64, "pitch_deg": -3.972, "yaw_deg": 300.7294, "roll_deg": -13.6924, "lat_deg": 33.99243472245988, "lon_deg": -117.99356337483148, "altitude_rel_ft": 97.6547, "ground_speed_ft_s": 24.9293, "vel_north_m_s": 8.1044, "vel_east_m_s": 1.9679, "vel_down_m_s": -0.1657, "battery_remain_pct": 87.4369}
{"t_rx_ms": 1774568619910, "run_id": "SIM_TEST", "seq": 65, "pitch_deg": 4.4708, "yaw_deg": 333.205, "roll_deg": 0.481, "lat_deg": 33.99165404384263, "lon_deg": -117.99988146742032, "altitude_rel_ft": 52.6257, "ground_speed_ft_s": 26.5706, "vel_north_m_s": -1.1963, "vel_east_m_s": 4.2781, "vel_down_m_s": -0.3677, "battery_remain_pct": 52.2673}
{"t_rx_ms": 1774568620011, "run_id": "SIM_TEST", "seq": 66, "pitch_deg": 5.1066, "yaw_deg": 326.0436, "roll_deg": -11.4787, "lat_deg": 33.993860299520655, "lon_deg": -118.00673217034692, "altitude_rel_ft": 81.1256, "ground_speed_ft_s": 52.6365, "vel_north_m_s": 7.0074, "vel_east_m_s": -6.8415, "vel_down_m_s": 0.7359, "battery_remain_pct": 62.0418}
{"t_rx_ms": 1774568620112, "run_id": "SIM_TEST", "seq": 67, "pitch_deg": 5.9331, "yaw_deg": 293.831, "roll_deg": -6.5504, "lat_deg": 34.00293294235348, "lon_deg": -117.99424784381033, "altitude_rel_ft": 27.6762, "ground_speed_ft_s": 54.8116, "vel_north_m_s": 2.9006, "vel_east_m_s": 7.6598, "vel_down_m_s": -0.7804, "battery_remain_pct": 81.3325}
{"t_rx_ms": 1774568620213, "run_id": "SIM_TEST", "seq": 68, "pitch_deg": 6.9787, "yaw_deg": 255.7065, "roll_deg": -1.9596, "lat_deg": 34.00048609131926, "lon_deg": -117.99574190083032, "altitude_rel_ft": 37.5778, "ground_speed_ft_s": 19.0815, "vel_north_m_s": -0.5388, "vel_east_m_s": 4.5551, "vel_down_m_s": -0.8171, "battery_remain_pct": 59.2333}
{"t_rx_ms": 1774568620314, "run_id": "SIM_TEST", "seq": 69, "pitch_deg": -4.2296, "yaw_deg": 89.0786, "roll_deg": 6.9212, "lat_deg": 34.005055158824256, "lon_deg": -117.99142689927156, "altitude_rel_ft": 27.6467, "ground_speed_ft_s": 53.821, "vel_north_m_s": -0.4026, "vel_east_m_s": 7.3823, "vel_down_m_s": 0.3439, "battery_remain_pct": 79.1702}
{"t_rx_ms": 1774568620415, "run_id": "SIM_TEST", "seq": 70, "pitch_deg": -9.4011, "yaw_deg": 166.8871, "roll_deg": -4.9078, "lat_deg": 33.99983510443561, "lon_deg": -117.99263760861137, "altitude_rel_ft": 69.7217, "ground_speed_ft_s": 20.2302, "vel_north_m_s": -3.4475, "vel_east_m_s": 9.6323, "vel_down_m_s": -0.7096, "battery_remain_pct": 64.8546}
{"t_rx_ms": 1774568620516, "run_id": "SIM_TEST", "seq": 71, "pitch_deg": 7.6522, "yaw_deg": 290.2408, "roll_deg": 9.7777, "lat_deg": 33.99024195316372, "lon_deg": -118.0068903754601, "altitude_rel_ft": 96.3461, "ground_speed_ft_s": 48.0986, "vel_north_m_s": -1.9199, "vel_east_m_s": 3.098, "vel_down_m_s": 0.468, "battery_remain_pct": 59.2398}
{"t_rx_ms": 1774568620617, "run_id": "SIM_TEST", "seq": 72, "pitch_deg": 9.7884, "yaw_deg": 258.1587, "roll_deg": -4.9454, "lat_deg": 34.00218449022063, "lon_deg": -117.99541975918147, "altitude_rel_ft": 31.6427, "ground_speed_ft_s": 7.7313, "vel_north_m_s": -3.4355, "vel_east_m_s": 7.6522, "vel_down_m_s": -0.3665, "battery_remain_pct": 55.3967}
{"t_rx_ms": 1774568620718, "run_id": "SIM_TEST", "seq": 73, "pitch_deg": 5.3843, "yaw_deg": 135.3796, "roll_deg": 11.1451, "lat_deg": 34.003879886017145, "lon_deg": -118.00199674028399, "altitude_rel_ft": 40.813, "ground_speed_ft_s": 37.9266, "vel_north_m_s": 3.4729, "vel_east_m_s": 1.9387, "vel_down_m_s": -0.7889, "battery_remain_pct": 58.365}
{"t_rx_ms": 1774568620819, "run_id": "SIM_TEST", "seq": 74, "pitch_deg": -0.296, "yaw_deg": 313.393, "roll_deg": 1.6504, "lat_deg": 33.99547196533276, "lon_deg": -117.99912783650657, "altitude_rel_ft": 77.9799, "ground_speed_ft_s": 46.3076, "vel_north_m_s": -8.9175, "vel_east_m_s": -8.9563, "vel_down_m_s": -0.6648, "battery_remain_pct": 70.4893}
{"t_rx_ms": 1774568620920, "run_id": "SIM_TEST", "seq": 75, "pitch_deg": 9.3704, "yaw_deg": 139.7834, "roll_deg": 1.0975, "lat_deg": 34.006047529116245, "lon_deg": -118.00948382104244, "altitude_rel_ft": 85.7446, "ground_speed_ft_s": 27.1564, "vel_north_m_s": -8.3393, "vel_east_m_s": 0.912, "vel_down_m_s": 0.0918, "battery_remain_pct": 68.6853}
{"t_rx_ms": 1774568621020, "run_id": "SIM_TEST", "seq": 76, "pitch_deg": -2.9094, "yaw_deg": 332.358, "roll_deg": -0.9312, "lat_deg": 34.006000240116066, "lon_deg": -118.00995127468613, "altitude_rel_ft": 37.7201, "ground_speed_ft_s": 28.5927, "vel_north_m_s": 9.1084, "vel_east_m_s": -3.3272, "vel_down_m_s": -0.481, "battery_remain_pct": 77.5703}
{"t_rx_ms": 1774568621121, "run_id": "SIM_TEST", "seq": 77, "pitch_deg": 5.8536, "yaw_deg": 210.3688, "roll_deg": 14.4038, "lat_deg": 34.00310433518686, "lon_deg": -118.00086607269407, "altitude_rel_ft": 42.1947, "ground_speed_ft_s": 55.8795, "vel_north_m_s": -1.6367, "vel_east_m_s": 4.624, "vel_down_m_s": -0.3751, "battery_remain_pct": 66.5224}
{"t_rx_ms": 1774568621221, "run_id": "SIM_TEST", "seq": 78, "pitch_deg": 8.9197, "yaw_deg": 193.7349, "roll_deg": 12.2963, "lat_deg": 33.999855235658764, "lon_deg": -118.00027909801668, "altitude_rel_ft": 31.5935, "ground_speed_ft_s": 14.3159, "vel_north_m_s": -9.8465, "vel_east_m_s": -0.2802, "vel_down_m_s": 0.3147, "battery_remain_pct": 82.7506}
{"t_rx_ms": 1774568621322, "run_id": "SIM_TEST", "seq": 79, "pitch_deg": 4.9244, "yaw_deg": 165.0432, "roll_deg": -9.3568, "lat_deg": 34.0066132415878, "lon_deg": -117.99821522590199, "altitude_rel_ft": 72.3138, "ground_speed_ft_s": 23.6583, "vel_north_m_s": 1.7757, "vel_east_m_s": 2.1016, "vel_down_m_s": -0.4742, "battery_remain_pct": 83.0812}
{"t_rx_ms": 1774568621423, "run_id": "SIM_TEST", "seq": 80, "pitch_deg": 0.6984, "yaw_deg": 11.2745, "roll_deg": 2.7483, "lat_deg": 33.99763904882893, "lon_deg": -118.00786866924679, "altitude_rel_ft": 54.1332, "ground_speed_ft_s": 17.4937, "vel_north_m_s": 1.0361, "vel_east_m_s": 1.7064, "vel_down_m_s": -0.4266, "battery_remain_pct": 75.417}
{"t_rx_ms": 1774568621524, "run_id": "SIM_TEST", "seq": 81, "pitch_deg": -8.8842, "yaw_deg": 88.577, "roll_deg": -9.5272, "lat_deg": 34.00074808527771, "lon_deg": -118.008623106821, "altitude_rel_ft": 39.2851, "ground_speed_ft_s": 47.6618, "vel_north_m_s": -1.2149, "vel_east_m_s": 6.7858, "vel_down_m_s": 0.1711, "battery_remain_pct": 99.9346}
{"t_rx_ms": 1774568621625, "run_id": "SIM_TEST", "seq": 82, "pitch_deg": 9.0456, "yaw_deg": 304.9243, "roll_deg": -4.6487, "lat_deg": 34.004123667676524, "lon_deg": -117.99174361155302, "altitude_rel_ft": 74.6361, "ground_speed_ft_s": 27.1182, "vel_north_m_s": -4.6051, "vel_east_m_s": 8.5128, "vel_down_m_s": 0.7979, "battery_remain_pct": 68.8895}
{"t_rx_ms": 1774568621726, "run_id": "SIM_TEST", "seq": 83, "pitch_deg": -8.3448, "yaw_deg": 153.3472, "roll_deg": 8.9868, "lat_deg": 34.00034847745682, "lon_deg": -117.99497069215585, "altitude_rel_ft": 69.1649, "ground_speed_ft_s": 45.5624, "vel_north_m_s": -7.3552, "vel_east_m_s": 6.7678, "vel_down_m_s": -0.7759, "battery_remain_pct": 73.2129}
{"t_rx_ms": 1774568621827, "run_id": "SIM_TEST", "seq": 84, "pitch_deg": 2.3782, "yaw_deg": 239.3189, "roll_deg": -9.6547, "lat_deg": 34.000896561951464, "lon_deg": -118.00184204407306, "altitude_rel_ft": 45.012, "ground_speed_ft_s": 14.3822, "vel_north_m_s": -5.8498, "vel_east_m_s": 8.4942, "vel_down_m_s": 0.692, "battery_remain_pct": 88.6235}
{"t_rx_ms": 1774568621927, "run_id": "SIM_TEST", "seq": 85, "pitch_deg": -7.3977, "yaw_deg": 170.5723, "roll_deg": 0.2864, "lat_deg": 34.0072146760849, "lon_deg": -117.99512971672875, "altitude_rel_ft": 29.5329, "ground_speed_ft_s": 26.2309, "vel_north_m_s": 0.8715, "vel_east_m_s": -1.1414, "vel_down_m_s": 0.434, "battery_remain_pct": 97.9895}
{"t_rx_ms": 1774568622028, "run_id": "SIM_TEST", "seq": 86, "pitch_deg": -8.7464, "yaw_deg": 67.4448, "roll_deg": -3.1078, "lat_deg": 33.99929239879797, "lon_deg": -118.00663651842838, "altitude_rel_ft": 80.091, "ground_speed_ft_s": 45.238, "vel_north_m_s": -9.8975, "vel_east_m_s": 7.6884, "vel_down_m_s": -0.0984, "battery_remain_pct": 51.0595}
{"t_rx_ms": 1774568622130, "run_id": "SIM_TEST", "seq": 87, "pitch_deg": 5.4614, "yaw_deg": 30.3334, "roll_deg": -9.1633, "lat_deg": 34.004540340333484, "lon_deg": -118.00135473345756, "altitude_rel_ft": 93.6686, "ground_speed_ft_s": 52.924, "vel_north_m_s": 7.2849, "vel_east_m_s": -2.0596, "vel_down_m_s": 0.3596, "battery_remain_pct": 79.0107}
{"t_rx_ms": 1774568622231, "run_id": "SIM_TEST", "seq": 88, "pitch_deg": -6.2072, "yaw_deg": 352.9494, "roll_deg": -5.6814, "lat_deg": 34.00953742710544, "lon_deg": -118.00512268027381, "altitude_rel_ft": 37.5001, "ground_speed_ft_s": 22.0381, "vel_north_m_s": -7.4031, "vel_east_m_s": -6.6172, "vel_down_m_s": -0.6874, "battery_remain_pct": 74.5617}
{"t_rx_ms": 1774568622332, "run_id": "SIM_TEST", "seq": 89, "pitch_deg": 8.7108, "yaw_deg": 178.3306, "roll_deg": -3.8166, "lat_deg": 34.0097290563808, "lon_deg": -117.99339667013668, "altitude_rel_ft": 99.1316, "ground_speed_ft_s": 10.8835, "vel_north_m_s": -5.325, "vel_east_m_s": -4.2883, "vel_down_m_s": 0.1139, "battery_remain_pct": 90.8707}
{"t_rx_ms": 1774568622433, "run_id": "SIM_TEST", "seq": 90, "pitch_deg": -8.2114, "yaw_deg": 68.7123, "roll_deg": -12.7754, "lat_deg": 33.990162630742816, "lon_deg": -117.99039034240569, "altitude_rel_ft": 75.2413, "ground_speed_ft_s": 15.1523, "vel_north_m_s": 5.467, "vel_east_m_s": -5.9581, "vel_down_m_s": -0.6368, "battery_remain_pct": 65.2639}
{"t_rx_ms": 1774568622534, "run_id": "SIM_TEST", "seq": 91, "pitch_deg": 0.0799, "yaw_deg": 33.8616, "roll_deg": 12.0002, "lat_deg": 33.99610496507271, "lon_deg": -117.99003332492154, "altitude_rel_ft": 61.1934, "ground_speed_ft_s": 43.5628, "vel_north_m_s": -7.5789, "vel_east_m_s": -7.9937, "vel_down_m_s": 0.6942, "battery_remain_pct": 81.4792}
{"t_rx_ms": 1774568622635, "run_id": "SIM_TEST", "seq": 92, "pitch_deg": 7.7051, "yaw_deg": 189.2188, "roll_deg": -4.2008, "lat_deg": 33.99704506117283, "lon_deg": -117.99576481745024, "altitude_rel_ft": 96.5792, "ground_speed_ft_s": 47.8239, "vel_north_m_s": -4.7454, "vel_east_m_s": 4.5775, "vel_down_m_s": 0.2504, "battery_remain_pct": 88.6023}
{"t_rx_ms": 1774568622736, "run_id": "SIM_TEST", "seq": 93, "pitch_deg": -7.8294, "yaw_deg": 290.2982, "roll_deg": -10.7063, "lat_deg": 34.000958609155326, "lon_deg": -118.00645942525509, "altitude_rel_ft": 29.6026, "ground_speed_ft_s": 21.7833, "vel_north_m_s": -0.3297, "vel_east_m_s": -0.0698, "vel_down_m_s": 0.0897, "battery_remain_pct": 64.735}
{"t_rx_ms": 1774568622837, "run_id": "SIM_TEST", "seq": 94, "pitch_deg": -8.1061, "yaw_deg": 310.6669, "roll_deg": -5.0635, "lat_deg": 33.99370901645289, "lon_deg": -117.99981194176755, "altitude_rel_ft": 96.5146, "ground_speed_ft_s": 17.7538, "vel_north_m_s": 4.5241, "vel_east_m_s": -7.9284, "vel_down_m_s": -0.0675, "battery_remain_pct": 82.4107}
{"t_rx_ms": 1774568622938, "run_id": "SIM_TEST", "seq": 95, "pitch_deg": 9.5619, "yaw_deg": 120.9539, "roll_deg": 11.0065, "lat_deg": 34.007197155784596, "lon_deg": -118.00522015526701, "altitude_rel_ft": 40.6383, "ground_speed_ft_s": 12.7045, "vel_north_m_s": 1.9481, "vel_east_m_s": 3.8799, "vel_down_m_s": 0.4367, "battery_remain_pct": 76.5098}
{"t_rx_ms": 1774568623039, "run_id": "SIM_TEST", "seq": 96, "pitch_deg": -8.0577, "yaw_deg": 355.6456, "roll_deg": 5.1076, "lat_deg": 33.990682163633515, "lon_deg": -117.99936575839332, "altitude_rel_ft": 54.9639, "ground_speed_ft_s": 55.1493, "vel_north_m_s": -3.9815, "vel_east_m_s": -5.7987, "vel_down_m_s": 0.965, "battery_remain_pct": 55.383}
{"t_rx_ms": 1774568623141, "run_id": "SIM_TEST", "seq": 97, "pitch_deg": -5.899, "yaw_deg": 29.6368, "roll_deg": -11.0929, "lat_deg": 33.9930265638194, "lon_deg": -117.9931549899625, "altitude_rel_ft": 68.8351, "ground_speed_ft_s": 10.7043, "vel_north_m_s": -3.7932, "vel_east_m_s": 6.667, "vel_down_m_s": 0.4404, "battery_remain_pct": 50.7993}
{"t_rx_ms": 1774568623242, "run_id": "SIM_TEST", "seq": 98, "pitch_deg": -8.5711, "yaw_deg": 227.8549, "roll_deg": 1.9257, "lat_deg": 33.9976663062523, "lon_deg": -117.99805577551476, "altitude_rel_ft": 60.4171, "ground_speed_ft_s": 36.1584, "vel_north_m_s": 8.4127, "vel_east_m_s": -4.2591, "vel_down_m_s": 0.9981, "battery_remain_pct": 76.947}
{"t_rx_ms": 1774568623343, "run_id": "SIM_TEST", "seq": 99, "pitch_deg": -0.5393, "yaw_deg": 242.6929, "roll_deg": 1.0512, "lat_deg": 34.00883705746799, "lon_deg": -118.00706754545101, "altitude_rel_ft": 39.7977, "ground_speed_ft_s": 17.4472, "vel_north_m_s": -2.2214, "vel_east_m_s": 3.387, "vel_down_m_s": -0.7683, "battery_remain_pct": 90.208}
{"t_rx_ms": 1774568623444, "run_id": "SIM_TEST", "seq": 100, "pitch_deg": -3.8462, "yaw_deg": 277.513, "roll_deg": 10.9076, "lat_deg": 33.99378181031036, "lon_deg": -117.9965344800357, "altitude_rel_ft": 20.5987, "ground_speed_ft_s": 34.6169, "vel_north_m_s": 5.6632, "vel_east_m_s": -3.0989, "vel_down_m_s": 0.3924, "battery_remain_pct": 55.0579}
{"t_rx_ms": 1774568623545, "run_id": "SIM_TEST", "seq": 101, "pitch_deg": 7.1967, "yaw_deg": 253.5118, "roll_deg": 0.898, "lat_deg": 33.990175572853495, "lon_deg": -118.0085564142386, "altitude_rel_ft": 24.7877, "ground_speed_ft_s": 21.8207, "vel_north_m_s": -3.4087, "vel_east_m_s": -1.7247, "vel_down_m_s": -0.4602, "battery_remain_pct": 74.7955}
{"t_rx_ms": 1774568623645, "run_id": "SIM_TEST", "seq": 102, "pitch_deg": -1.2979, "yaw_deg": 25.2556, "roll_deg": -8.9129, "lat_deg": 34.000250978034316, "lon_deg": -117.99884861236103, "altitude_rel_ft": 73.4603, "ground_speed_ft_s": 15.7671, "vel_north_m_s": 5.2212, "vel_east_m_s": 1.415, "vel_down_m_s": 0.405, "battery_remain_pct": 77.8141}
{"t_rx_ms": 1774568623746, "run_id": "SIM_TEST", "seq": 103, "pitch_deg": 3.4971, "yaw_deg": 155.8143, "roll_deg": -4.533, "lat_deg": 34.006328777384404, "lon_deg": -117.99371295784611, "altitude_rel_ft": 25.0613, "ground_speed_ft_s": 15.0311, "vel_north_m_s": 1.5293, "vel_east_m_s": 5.7569, "vel_down_m_s": -0.0132, "battery_remain_pct": 84.7544}
{"t_rx_ms": 1774568623846, "run_id": "SIM_TEST", "seq": 104, "pitch_deg": 5.3516, "yaw_deg": 240.3913, "roll_deg": 0.219, "lat_deg": 34.000094329094395, "lon_deg": -117.99889268433594, "altitude_rel_ft": 76.6864, "ground_speed_ft_s": 44.74, "vel_north_m_s": 3.4898, "vel_east_m_s": 0.0248, "vel_down_m_s": -0.686, "battery_remain_pct": 55.2461}
{"t_rx_ms": 1774568623947, "run_id": "SIM_TEST", "seq": 105, "pitch_deg": -8.5162, "yaw_deg": 87.9809, "roll_deg": 13.3962, "lat_deg": 33.99150643704812, "lon_deg": -117.99718855798562, "altitude_rel_ft": 35.3202, "ground_speed_ft_s": 37.6614, "vel_north_m_s": -8.8795, "vel_east_m_s": 0.434, "vel_down_m_s": -0.0419, "battery_remain_pct": 75.8422}
{"t_rx_ms": 1774568624047, "run_id": "SIM_TEST", "seq": 106, "pitch_deg": -9.9023, "yaw_deg": 185.4121, "roll_deg": 3.8091, "lat_deg": 34.00060673425292, "lon_deg": -118.00564316164733, "altitude_rel_ft": 26.3987, "ground_speed_ft_s": 41.5723, "vel_north_m_s": 4.1704, "vel_east_m_s": 6.0311, "vel_down_m_s": -0.8275, "battery_remain_pct": 82.3063}
{"t_rx_ms": 1774568624148, "run_id": "SIM_TEST", "seq": 107, "pitch_deg": -2.539, "yaw_deg": 283.7508, "roll_deg": -2.8365, "lat_deg": 33.99091127280364, "lon_deg": -118.00240093228204, "altitude_rel_ft": 59.9365, "ground_speed_ft_s": 5.223, "vel_north_m_s": 2.113, "vel_east_m_s": -7.2586, "vel_down_m_s": -0.0972, "battery_remain_pct": 59.8649}
{"t_rx_ms": 1774568624249, "run_id": "SIM_TEST", "seq": 108, "pitch_deg": 2.004, "yaw_deg": 38.2327, "roll_deg": 8.5508, "lat_deg": 33.99835445610041, "lon_deg": -117.99793819829644, "altitude_rel_ft": 30.7605, "ground_speed_ft_s": 9.5991, "vel_north_m_s": 6.5436, "vel_east_m_s": 6.3901, "vel_down_m_s": -0.0298, "battery_remain_pct": 73.4677}
{"t_rx_ms": 1774568624350, "run_id": "SIM_TEST", "seq": 109, "pitch_deg": -8.5616, "yaw_deg": 236.2066, "roll_deg": 0.7829, "lat_deg": 33.99305497172605, "lon_deg": -117.99344401052585, "altitude_rel_ft": 47.4703, "ground_speed_ft_s": 51.7071, "vel_north_m_s": -5.4551, "vel_east_m_s": -5.1933, "vel_down_m_s": -0.2474, "battery_remain_pct": 91.4592}
{"t_rx_ms": 1774568624451, "run_id": "SIM_TEST", "seq": 110, "pitch_deg": 8.6467, "yaw_deg": 319.4441, "roll_deg": -12.3972, "lat_deg": 33.99712091891621, "lon_deg": -118.00946157230169, "altitude_rel_ft": 47.9129, "ground_speed_ft_s": 45.3362, "vel_north_m_s": -7.1221, "vel_east_m_s": -4.6638, "vel_down_m_s": 0.2484, "battery_remain_pct": 93.4579}
{"t_rx_ms": 1774568624552, "run_id": "SIM_TEST", "seq": 111, "pitch_deg": -6.2812, "yaw_deg": 163.3162, "roll_deg": -12.426, "lat_deg": 33.99016865841139, "lon_deg": -117.994588062676, "altitude_rel_ft": 90.0487, "ground_speed_ft_s": 56.3342, "vel_north_m_s": 2.3044, "vel_east_m_s": -1.3853, "vel_down_m_s": -0.7151, "battery_remain_pct": 89.2209}
{"t_rx_ms": 1774568624652, "run_id": "SIM_TEST", "seq": 112, "pitch_deg": 5.5976, "yaw_deg": 161.9412, "roll_deg": 4.1725, "lat_deg": 33.992194858866014, "lon_deg": -117.99760231948558, "altitude_rel_ft": 67.9963, "ground_speed_ft_s": 39.2326, "vel_north_m_s": -6.0788, "vel_east_m_s": 3.2889, "vel_down_m_s": 0.9773, "battery_remain_pct": 61.5663}
{"t_rx_ms": 1774568624753, "run_id": "SIM_TEST", "seq": 113, "pitch_deg": -8.8529, "yaw_deg": 30.1042, "roll_deg": 0.6374, "lat_deg": 34.00099533120728, "lon_deg": -117.99856538541411, "altitude_rel_ft": 80.5595, "ground_speed_ft_s": 55.2499, "vel_north_m_s": -3.011, "vel_east_m_s": -9.3249, "vel_down_m_s": 0.6804, "battery_remain_pct": 94.5154}
{"t_rx_ms": 1774568624853, "run_id": "SIM_TEST", "seq": 114, "pitch_deg": 8.5099, "yaw_deg": 40.3204, "roll_deg": 14.215, "lat_deg": 33.996901191686106, "lon_deg": -118.00015076618999, "altitude_rel_ft": 44.4041, "ground_speed_ft_s": 33.5703, "vel_north_m_s": 9.7288, "vel_east_m_s": -6.6635, "vel_down_m_s": -0.0906, "battery_remain_pct": 87.2013}
{"t_rx_ms": 1774568624954, "run_id": "SIM_TEST", "seq": 115, "pitch_deg": -5.8226, "yaw_deg": 6.4379, "roll_deg": 14.3363, "lat_deg": 34.00671366550142, "lon_deg": -118.00702074946857, "altitude_rel_ft": 69.2795, "ground_speed_ft_s": 15.4804, "vel_north_m_s": 3.2031, "vel_east_m_s": -1.5741, "vel_down_m_s": -0.7231, "battery_remain_pct": 56.2639}
{"t_rx_ms": 1774568625055, "run_id": "SIM_TEST", "seq": 116, "pitch_deg": 6.443, "yaw_deg": 79.2401, "roll_deg": 10.6549, "lat_deg": 34.00565080870302, "lon_deg": -117.99604859266108, "altitude_rel_ft": 63.1703, "ground_speed_ft_s": 31.5714, "vel_north_m_s": 8.822, "vel_east_m_s": -1.2829, "vel_down_m_s": -0.4288, "battery_remain_pct": 63.0738}
{"t_rx_ms": 1774568625155, "run_id": "SIM_TEST", "seq": 117, "pitch_deg": 0.7857, "yaw_deg": 134.3791, "roll_deg": -14.7358, "lat_deg": 33.99846640210837, "lon_deg": -118.00571663984563, "altitude_rel_ft": 69.2918, "ground_speed_ft_s": 28.3567, "vel_north_m_s": -9.1516, "vel_east_m_s": -7.5521, "vel_down_m_s": 0.3405, "battery_remain_pct": 98.2292}
{"t_rx_ms": 1774568625256, "run_id": "SIM_TEST", "seq": 118, "pitch_deg": -0.1259, "yaw_deg": 165.5583, "roll_deg": 13.4042, "lat_deg": 33.99295581637579, "lon_deg": -117.99924115530015, "altitude_rel_ft": 80.162, "ground_speed_ft_s": 32.7477, "vel_north_m_s": 5.6526, "vel_east_m_s": -1.8254, "vel_down_m_s": -0.0619, "battery_remain_pct": 90.6716}
{"t_rx_ms": 1774568625357, "run_id": "SIM_TEST", "seq": 119, "pitch_deg": -7.891, "yaw_deg": 333.4311, "roll_deg": 0.8995, "lat_deg": 34.006095568053745, "lon_deg": -117.99723811098761, "altitude_rel_ft": 20.9279, "ground_speed_ft_s": 14.7385, "vel_north_m_s": -4.2743, "vel_east_m_s": 7.9252, "vel_down_m_s": -0.5195, "battery_remain_pct": 89.6158}
{"t_rx_ms": 1774568625458, "run_id": "SIM_TEST", "seq": 120, "pitch_deg": 2.9596, "yaw_deg": 46.412, "roll_deg": -9.1387, "lat_deg": 34.00280015406128, "lon_deg": -117.9986035429851, "altitude_rel_ft": 83.8875, "ground_speed_ft_s": 38.3317, "vel_north_m_s": 9.4846, "vel_east_m_s": 4.8194, "vel_down_m_s": -0.4004, "battery_remain_pct": 74.797}
{"t_rx_ms": 1774568625559, "run_id": "SIM_TEST", "seq": 121, "pitch_deg": -7.5896, "yaw_deg": 115.6201, "roll_deg": 6.3627, "lat_deg": 34.003093300191004, "lon_deg": -118.00638723160593, "altitude_rel_ft": 71.0669, "ground_speed_ft_s": 53.2895, "vel_north_m_s": 7.8005, "vel_east_m_s": 7.3942, "vel_down_m_s": 0.3142, "battery_remain_pct": 59.0927}
{"t_rx_ms": 1774568625660, "run_id": "SIM_TEST", "seq": 122, "pitch_deg": 2.3283, "yaw_deg": 199.3635, "roll_deg": 11.2298, "lat_deg": 34.00154299844215, "lon_deg": -117.9919233442101, "altitude_rel_ft": 74.0408, "ground_speed_ft_s": 9.388, "vel_north_m_s": -5.5947, "vel_east_m_s": 8.734, "vel_down_m_s": 0.5029, "battery_remain_pct": 62.2481}
{"t_rx_ms": 1774568625761, "run_id": "SIM_TEST", "seq": 123, "pitch_deg": 0.3391, "yaw_deg": 11.5476, "roll_deg": -5.1578, "lat_deg": 34.00199618060607, "lon_deg": -118.00607331862885, "altitude_rel_ft": 75.4556, "ground_speed_ft_s": 41.0247, "vel_north_m_s": -6.2425, "vel_east_m_s": 9.3601, "vel_down_m_s": 0.2095, "battery_remain_pct": 65.0702}
{"t_rx_ms": 1774568625862, "run_id": "SIM_TEST", "seq": 124, "pitch_deg": 3.0646, "yaw_deg": 116.6789, "roll_deg": -2.0893, "lat_deg": 34.00258283336042, "lon_deg": -117.99857863929381, "altitude_rel_ft": 24.6108, "ground_speed_ft_s": 9.3242, "vel_north_m_s": 4.8424, "vel_east_m_s": 1.3217, "vel_down_m_s": 0.3279, "battery_remain_pct": 70.0155}
{"t_rx_ms": 1774568625963, "run_id": "SIM_TEST", "seq": 125, "pitch_deg": -7.6315, "yaw_deg": 113.9278, "roll_deg": 3.2207, "lat_deg": 33.995712145114105, "lon_deg": -118.00305945938352, "altitude_rel_ft": 26.1783, "ground_speed_ft_s": 48.855, "vel_north_m_s": 8.4808, "vel_east_m_s": -8.4003, "vel_down_m_s": 0.3437, "battery_remain_pct": 66.0267}
{"t_rx_ms": 1774568626065, "run_id": "SIM_TEST", "seq": 126, "pitch_deg": -7.3611, "yaw_deg": 235.7662, "roll_deg": -6.2315, "lat_deg": 34.009953836831016, "lon_deg": -117.99155417198152, "altitude_rel_ft": 80.4056, "ground_speed_ft_s": 55.4581, "vel_north_m_s": -8.1808, "vel_east_m_s": 7.4403, "vel_down_m_s": 0.2138, "battery_remain_pct": 87.9391}
{"t_rx_ms": 1774568626165, "run_id": "SIM_TEST", "seq": 127, "pitch_deg": -8.0773, "yaw_deg": 86.0971, "roll_deg": 5.6298, "lat_deg": 34.009673795458916, "lon_deg": -118.00630378461663, "altitude_rel_ft": 36.8808, "ground_speed_ft_s": 36.4281, "vel_north_m_s": -9.044, "vel_east_m_s": -4.2707, "vel_down_m_s": 0.5196, "battery_remain_pct": 74.0266}
{"t_rx_ms": 1774568626267, "run_id": "SIM_TEST", "seq": 128, "pitch_deg": 8.0038, "yaw_deg": 332.5235, "roll_deg": 12.4597, "lat_deg": 33.99060034793773, "lon_deg": -118.00368895183529, "altitude_rel_ft": 22.7511, "ground_speed_ft_s": 14.5974, "vel_north_m_s": 5.1679, "vel_east_m_s": 1.1804, "vel_down_m_s": -0.5303, "battery_remain_pct": 78.0032}
{"t_rx_ms": 1774568626367, "run_id": "SIM_TEST", "seq": 129, "pitch_deg": 5.6093, "yaw_deg": 97.9319, "roll_deg": 6.9229, "lat_deg": 34.001614216906404, "lon_deg": -118.00060348990559, "altitude_rel_ft": 90.2333, "ground_speed_ft_s": 57.1433, "vel_north_m_s": 8.1434, "vel_east_m_s": 0.2773, "vel_down_m_s": 0.4319, "battery_remain_pct": 95.7724}
{"t_rx_ms": 1774568626469, "run_id": "SIM_TEST", "seq": 130, "pitch_deg": -1.6964, "yaw_deg": 171.3638, "roll_deg": -6.8745, "lat_deg": 33.99555931705532, "lon_deg": -118.00595042108198, "altitude_rel_ft": 54.5114, "ground_speed_ft_s": 41.7754, "vel_north_m_s": -6.5662, "vel_east_m_s": -0.0098, "vel_down_m_s": -0.9865, "battery_remain_pct": 66.3246}
{"t_rx_ms": 1774568626570, "run_id": "SIM_TEST", "seq": 131, "pitch_deg": -0.0039, "yaw_deg": 204.1539, "roll_deg": -1.5801, "lat_deg": 33.99275916907583, "lon_deg": -118.00671134334746, "altitude_rel_ft": 21.773, "ground_speed_ft_s": 20.7072, "vel_north_m_s": -4.702, "vel_east_m_s": 2.4412, "vel_down_m_s": 0.9081, "battery_remain_pct": 90.0552}
{"t_rx_ms": 1774568626671, "run_id": "SIM_TEST", "seq": 132, "pitch_deg": -4.1441, "yaw_deg": 33.782, "roll_deg": -4.0422, "lat_deg": 33.99861823397513, "lon_deg": -117.99772409134356, "altitude_rel_ft": 68.1667, "ground_speed_ft_s": 47.9406, "vel_north_m_s": 8.0003, "vel_east_m_s": 5.3809, "vel_down_m_s": 0.6673, "battery_remain_pct": 66.3658}
{"t_rx_ms": 1774568626772, "run_id": "SIM_TEST", "seq": 133, "pitch_deg": 7.4368, "yaw_deg": 205.9285, "roll_deg": -8.2425, "lat_deg": 34.00785628592967, "lon_deg": -117.99645716365272, "altitude_rel_ft": 62.1969, "ground_speed_ft_s": 40.2206, "vel_north_m_s": 1.0963, "vel_east_m_s": -2.0726, "vel_down_m_s": -0.7418, "battery_remain_pct": 93.9687}
{"t_rx_ms": 1774568626873, "run_id": "SIM_TEST", "seq": 134, "pitch_deg": 9.5681, "yaw_deg": 254.2269, "roll_deg": -3.7034, "lat_deg": 34.002577273290086, "lon_deg": -117.99606191850343, "altitude_rel_ft": 72.7533, "ground_speed_ft_s": 42.8065, "vel_north_m_s": -6.4074, "vel_east_m_s": 3.8538, "vel_down_m_s": -0.4298, "battery_remain_pct": 74.2299}
{"t_rx_ms": 1774568626973, "run_id": "SIM_TEST", "seq": 135, "pitch_deg": -2.0512, "yaw_deg": 64.8861, "roll_deg": 3.0158, "lat_deg": 34.00496416322429, "lon_deg": -117.99107465401012, "altitude_rel_ft": 33.597, "ground_speed_ft_s": 11.2893, "vel_north_m_s": 7.6966, "vel_east_m_s": -5.5295, "vel_down_m_s": -0.0764, "battery_remain_pct": 70.8177}
{"t_rx_ms": 1774568627074, "run_id": "SIM_TEST", "seq": 136, "pitch_deg": 6.3416, "yaw_deg": 210.807, "roll_deg": -4.3214, "lat_deg": 33.99933730793951, "lon_deg": -117.99156357880285, "altitude_rel_ft": 33.7212, "ground_speed_ft_s": 23.668, "vel_north_m_s": -8.2136, "vel_east_m_s": -9.0103, "vel_down_m_s": 0.9982, "battery_remain_pct": 53.3681}
{"t_rx_ms": 1774568627175, "run_id": "SIM_TEST", "seq": 137, "pitch_deg": -9.7671, "yaw_deg": 346.6186, "roll_deg": 13.5667, "lat_deg": 33.99440121856967, "lon_deg": -117.99874830019091, "altitude_rel_ft": 40.7477, "ground_speed_ft_s": 12.2734, "vel_north_m_s": 2.8385, "vel_east_m_s": 1.9363, "vel_down_m_s": -0.7761, "battery_remain_pct": 70.4541}
{"t_rx_ms": 1774568627276, "run_id": "SIM_TEST", "seq": 138, "pitch_deg": -6.7458, "yaw_deg": 185.0835, "roll_deg": 4.9949, "lat_deg": 33.99593863628401, "lon_deg": -118.00460856957729, "altitude_rel_ft": 51.656, "ground_speed_ft_s": 40.4136, "vel_north_m_s": 1.1968, "vel_east_m_s": 3.1429, "vel_down_m_s": 0.2784, "battery_remain_pct": 78.179}
{"t_rx_ms": 1774568627377, "run_id": "SIM_TEST", "seq": 139, "pitch_deg": -5.4571, "yaw_deg": 1.1801, "roll_deg": -2.0615, "lat_deg": 33.997489414391154, "lon_deg": -118.00679168083546, "altitude_rel_ft": 50.0984, "ground_speed_ft_s": 7.8372, "vel_north_m_s": 2.4989, "vel_east_m_s": -0.5875, "vel_down_m_s": -0.4765, "battery_remain_pct": 82.1002}
{"t_rx_ms": 1774568627477, "run_id": "SIM_TEST", "seq": 140, "pitch_deg": 8.6841, "yaw_deg": 313.3336, "roll_deg": -11.404, "lat_deg": 33.99005980202368, "lon_deg": -118.00362591003922, "altitude_rel_ft": 45.3892, "ground_speed_ft_s": 13.9818, "vel_north_m_s": -6.4464, "vel_east_m_s": -7.4699, "vel_down_m_s": -0.6204, "battery_remain_pct": 87.8412}
{"t_rx_ms": 1774568627578, "run_id": "SIM_TEST", "seq": 141, "pitch_deg": 4.4988, "yaw_deg": 43.2507, "roll_deg": 13.5861, "lat_deg": 34.00722180121508, "lon_deg": -118.00883474036065, "altitude_rel_ft": 97.3886, "ground_speed_ft_s": 26.2539, "vel_north_m_s": -1.4159, "vel_east_m_s": 9.3204, "vel_down_m_s": -0.5001, "battery_remain_pct": 62.9075}
{"t_rx_ms": 1774568627679, "run_id": "SIM_TEST", "seq": 142, "pitch_deg": 7.5364, "yaw_deg": 57.0802, "roll_deg": -2.3821, "lat_deg": 34.00335352541029, "lon_deg": -117.99362884512777, "altitude_rel_ft": 73.9988, "ground_speed_ft_s": 6.4273, "vel_north_m_s": 6.6281, "vel_east_m_s": -7.1942, "vel_down_m_s": -0.8255, "battery_remain_pct": 92.9776}
{"t_rx_ms": 1774568627779, "run_id": "SIM_TEST", "seq": 143, "pitch_deg": 8.4699, "yaw_deg": 307.3163, "roll_deg": 7.4878, "lat_deg": 33.99648973722023, "lon_deg": -117.99577136189255, "altitude_rel_ft": 32.2842, "ground_speed_ft_s": 15.5626, "vel_north_m_s": -0.4101, "vel_east_m_s": 9.8334, "vel_down_m_s": -0.6943, "battery_remain_pct": 83.2206}
{"t_rx_ms": 1774568627880, "run_id": "SIM_TEST", "seq": 144, "pitch_deg": -0.3901, "yaw_deg": 309.7296, "roll_deg": -9.8312, "lat_deg": 34.00924426608043, "lon_deg": -117.99876866460656, "altitude_rel_ft": 70.072, "ground_speed_ft_s": 40.9026, "vel_north_m_s": -5.7784, "vel_east_m_s": -3.3366, "vel_down_m_s": 0.6202, "battery_remain_pct": 95.4363}
{"t_rx_ms": 1774568627981, "run_id": "SIM_TEST", "seq": 145, "pitch_deg": 1.0348, "yaw_deg": 126.5408, "roll_deg": -0.6007, "lat_deg": 34.00442777670896, "lon_deg": -118.0000838483565, "altitude_rel_ft": 95.8199, "ground_speed_ft_s": 43.4309, "vel_north_m_s": 4.9418, "vel_east_m_s": -8.641, "vel_down_m_s": 0.3171, "battery_remain_pct": 97.6197}
{"t_rx_ms": 1774568628082, "run_id": "SIM_TEST", "seq": 146, "pitch_deg": 0.7897, "yaw_deg": 136.4896, "roll_deg": 1.9419, "lat_deg": 34.00196078454384, "lon_deg": -118.00859723076614, "altitude_rel_ft": 28.1093, "ground_speed_ft_s": 27.4764, "vel_north_m_s": -1.2837, "vel_east_m_s": 3.4796, "vel_down_m_s": -0.6674, "battery_remain_pct": 85.8117}
{"t_rx_ms": 1774568628183, "run_id": "SIM_TEST", "seq": 147, "pitch_deg": -2.9061, "yaw_deg": 218.989, "roll_deg": 3.185, "lat_deg": 34.00448120068503, "lon_deg": -117.99817660601508, "altitude_rel_ft": 36.4266, "ground_speed_ft_s": 26.364, "vel_north_m_s": -8.5019, "vel_east_m_s": -1.5615, "vel_down_m_s": -0.8961, "battery_remain_pct": 81.8196}
{"t_rx_ms": 1774568628284, "run_id": "SIM_TEST", "seq": 148, "pitch_deg": 5.0516, "yaw_deg": 161.66, "roll_deg": -5.0254, "lat_deg": 33.99524578765885, "lon_deg": -117.99390814666059, "altitude_rel_ft": 42.5691, "ground_speed_ft_s": 39.5915, "vel_north_m_s": -9.4106, "vel_east_m_s": 4.8828, "vel_down_m_s": 0.8078, "battery_remain_pct": 99.7235}
{"t_rx_ms": 1774568628385, "run_id": "SIM_TEST", "seq": 149, "pitch_deg": -2.0556, "yaw_deg": 98.5344, "roll_deg": -9.3824, "lat_deg": 33.99456849956877, "lon_deg": -117.9916854839502, "altitude_rel_ft": 58.9476, "ground_speed_ft_s": 37.1992, "vel_north_m_s": 4.4683, "vel_east_m_s": -8.9438, "vel_down_m_s": 0.3302, "battery_remain_pct": 96.3779}
{"t_rx_ms": 1774568628486, "run_id": "SIM_TEST", "seq": 150, "pitch_deg": 6.4874, "yaw_deg": 9.212, "roll_deg": -4.8661, "lat_deg": 33.990212687799676, "lon_deg": -118.00590103747611, "altitude_rel_ft": 34.3619, "ground_speed_ft_s": 39.4388, "vel_north_m_s": 9.3532, "vel_east_m_s": -7.4274, "vel_down_m_s": -0.8529, "battery_remain_pct": 50.4062}
{"t_rx_ms": 1774568628587, "run_id": "SIM_TEST", "seq": 151, "pitch_deg": 5.0154, "yaw_deg": 216.4762, "roll_deg": -13.6544, "lat_deg": 34.00019375598421, "lon_deg": -118.00837749081187, "altitude_rel_ft": 67.3211, "ground_speed_ft_s": 11.992, "vel_north_m_s": -6.1074, "vel_east_m_s": 9.7187, "vel_down_m_s": -0.1397, "battery_remain_pct": 78.0788}
{"t_rx_ms": 1774568628688, "run_id": "SIM_TEST", "seq": 152, "pitch_deg": 9.6404, "yaw_deg": 162.3447, "roll_deg": 9.4274, "lat_deg": 33.99144436212671, "lon_deg": -118.00367466762962, "altitude_rel_ft": 68.9263, "ground_speed_ft_s": 41.594, "vel_north_m_s": -4.6551, "vel_east_m_s": 8.9711, "vel_down_m_s": 0.7382, "battery_remain_pct": 50.1538}
{"t_rx_ms": 1774568628789, "run_id": "SIM_TEST", "seq": 153, "pitch_deg": -6.9966, "yaw_deg": 13.5993, "roll_deg": -8.3831, "lat_deg": 34.004034633429875, "lon_deg": -117.99177281864773, "altitude_rel_ft": 58.8393, "ground_speed_ft_s": 17.183, "vel_north_m_s": -0.6645, "vel_east_m_s": -8.3813, "vel_down_m_s": 0.3928, "battery_remain_pct": 67.8727}
{"t_rx_ms": 1774568628890, "run_id": "SIM_TEST", "seq": 154, "pitch_deg": 3.328, "yaw_deg": 355.8438, "roll_deg": -14.6862, "lat_deg": 34.00466263717931, "lon_deg": -118.00629444488055, "altitude_rel_ft": 40.4968, "ground_speed_ft_s": 31.6701, "vel_north_m_s": -2.2252, "vel_east_m_s": -1.1155, "vel_down_m_s": 0.2109, "battery_remain_pct": 82.4788}
{"t_rx_ms": 1774568628991, "run_id": "SIM_TEST", "seq": 155, "pitch_deg": 5.3843, "yaw_deg": 286.8425, "roll_deg": -7.1472, "lat_deg": 34.00738682190739, "lon_deg": -117.99110476609185, "altitude_rel_ft": 82.4428, "ground_speed_ft_s": 17.0923, "vel_north_m_s": -4.2585, "vel_east_m_s": -7.5993, "vel_down_m_s": 0.2118, "battery_remain_pct": 96.6933}
{"t_rx_ms": 1774568629092, "run_id": "SIM_TEST", "seq": 156, "pitch_deg": -1.2197, "yaw_deg": 235.8598, "roll_deg": -11.7111, "lat_deg": 34.00306408208573, "lon_deg": -117.99335065713183, "altitude_rel_ft": 61.8187, "ground_speed_ft_s": 17.1606, "vel_north_m_s": 9.2222, "vel_east_m_s": 8.6666, "vel_down_m_s": -0.8622, "battery_remain_pct": 89.968}
{"t_rx_ms": 1774568629193, "run_id": "SIM_TEST", "seq": 157, "pitch_deg": -1.8753, "yaw_deg": 220.9437, "roll_deg": -13.4188, "lat_deg": 33.992327722933084, "lon_deg": -117.99014184823878, "altitude_rel_ft": 30.3999, "ground_speed_ft_s": 47.0796, "vel_north_m_s": -1.4215, "vel_east_m_s": -8.9324, "vel_down_m_s": -0.6459, "battery_remain_pct": 92.2283}
{"t_rx_ms": 1774568629294, "run_id": "SIM_TEST", "seq": 158, "pitch_deg": 9.2095, "yaw_deg": 181.4813, "roll_deg": 3.3126, "lat_deg": 33.99060351425938, "lon_deg": -117.99354008758753, "altitude_rel_ft": 62.5526, "ground_speed_ft_s": 40.2578, "vel_north_m_s": -0.4799, "vel_east_m_s": 3.7756, "vel_down_m_s": -0.7646, "battery_remain_pct": 63.6384}
{"t_rx_ms": 1774568629395, "run_id": "SIM_TEST", "seq": 159, "pitch_deg": -4.8691, "yaw_deg": 46.5602, "roll_deg": -11.4866, "lat_deg": 33.99237250597208, "lon_deg": -118.00940039231727, "altitude_rel_ft": 81.5578, "ground_speed_ft_s": 5.7088, "vel_north_m_s": 3.5042, "vel_east_m_s": -4.2885, "vel_down_m_s": 0.9079, "battery_remain_pct": 87.6248}
{"t_rx_ms": 1774568629496, "run_id": "SIM_TEST", "seq": 160, "pitch_deg": -0.5766, "yaw_deg": 9.0376, "roll_deg": -13.8266, "lat_deg": 34.00109882643546, "lon_deg": -117.9991123274175, "altitude_rel_ft": 50.1775, "ground_speed_ft_s": 15.8791, "vel_north_m_s": -2.2605, "vel_east_m_s": 7.3423, "vel_down_m_s": 0.8616, "battery_remain_pct": 78.4789}
{"t_rx_ms": 1774568629597, "run_id": "SIM_TEST", "seq": 161, "pitch_deg": 4.234, "yaw_deg": 53.3648, "roll_deg": -7.426, "lat_deg": 34.008450718515796, "lon_deg": -117.9950818047461, "altitude_rel_ft": 27.8895, "ground_speed_ft_s": 27.4865, "vel_north_m_s": -5.5017, "vel_east_m_s": -9.2759, "vel_down_m_s": -0.0398, "battery_remain_pct": 70.751}
{"t_rx_ms": 1774568629698, "run_id": "SIM_TEST", "seq": 162, "pitch_deg": 7.1754, "yaw_deg": 205.0176, "roll_deg": 14.3845, "lat_deg": 34.00877534590512, "lon_deg": -118.00273452098232, "altitude_rel_ft": 25.8924, "ground_speed_ft_s": 47.7488, "vel_north_m_s": 9.7502, "vel_east_m_s": -8.3579, "vel_down_m_s": 0.0449, "battery_remain_pct": 64.8799}
{"t_rx_ms": 1774568629799, "run_id": "SIM_TEST", "seq": 163, "pitch_deg": -6.2418, "yaw_deg": 235.2075, "roll_deg": -14.521, "lat_deg": 34.00943967870392, "lon_deg": -118.00429091842311, "altitude_rel_ft": 25.5437, "ground_speed_ft_s": 53.7286, "vel_north_m_s": -1.423, "vel_east_m_s": 4.3144, "vel_down_m_s": 0.2582, "battery_remain_pct": 57.7836}
{"t_rx_ms": 1774568629900, "run_id": "SIM_TEST", "seq": 164, "pitch_deg": 5.7172, "yaw_deg": 20.3769, "roll_deg": 3.3818, "lat_deg": 33.99245515051737, "lon_deg": -117.99747525226132, "altitude_rel_ft": 22.6321, "ground_speed_ft_s": 25.4916, "vel_north_m_s": -7.3365, "vel_east_m_s": 2.451, "vel_down_m_s": -0.5875, "battery_remain_pct": 95.7887}
{"t_rx_ms": 1774568630001, "run_id": "SIM_TEST", "seq": 165, "pitch_deg": -0.3685, "yaw_deg": 276.6433, "roll_deg": 8.3431, "lat_deg": 33.997523496640945, "lon_deg": -117.99454854425576, "altitude_rel_ft": 77.1937, "ground_speed_ft_s": 7.1933, "vel_north_m_s": 2.0799, "vel_east_m_s": -9.6007, "vel_down_m_s": -0.4009, "battery_remain_pct": 68.547}
{"t_rx_ms": 1774568630101, "run_id": "SIM_TEST", "seq": 166, "pitch_deg": -5.1929, "yaw_deg": 246.0158, "roll_deg": -13.8339, "lat_deg": 34.00180001489878, "lon_deg": -117.99863668852872, "altitude_rel_ft": 20.3871, "ground_speed_ft_s": 35.0852, "vel_north_m_s": 4.3859, "vel_east_m_s": -6.5943, "vel_down_m_s": 0.6523, "battery_remain_pct": 84.4776}
{"t_rx_ms": 1774568630202, "run_id": "SIM_TEST", "seq": 167, "pitch_deg": 6.0369, "yaw_deg": 345.0196, "roll_deg": -11.195, "lat_deg": 34.00607800660548, "lon_deg": -117.99474697074467, "altitude_rel_ft": 59.4496, "ground_speed_ft_s": 39.2754, "vel_north_m_s": 5.1707, "vel_east_m_s": -3.2783, "vel_down_m_s": 0.6965, "battery_remain_pct": 95.699}
{"t_rx_ms": 1774568630302, "run_id": "SIM_TEST", "seq": 168, "pitch_deg": 6.1749, "yaw_deg": 55.5788, "roll_deg": 4.9763, "lat_deg": 33.991052495868786, "lon_deg": -117.99572029850661, "altitude_rel_ft": 20.9919, "ground_speed_ft_s": 49.5787, "vel_north_m_s": -8.4943, "vel_east_m_s": 3.9253, "vel_down_m_s": 0.0856, "battery_remain_pct": 51.3196}
{"t_rx_ms": 1774568630403, "run_id": "SIM_TEST", "seq": 169, "pitch_deg": -4.1525, "yaw_deg": 349.7095, "roll_deg": -9.8163, "lat_deg": 34.00050335348257, "lon_deg": -117.99027195572846, "altitude_rel_ft": 26.8677, "ground_speed_ft_s": 32.4823, "vel_north_m_s": -9.4362, "vel_east_m_s": 1.1509, "vel_down_m_s": 0.225, "battery_remain_pct": 79.0641}
{"t_rx_ms": 1774568630504, "run_id": "SIM_TEST", "seq": 170, "pitch_deg": -4.6487, "yaw_deg": 356.0298, "roll_deg": -3.3773, "lat_deg": 33.995041579967285, "lon_deg": -118.00232808678587, "altitude_rel_ft": 38.0656, "ground_speed_ft_s": 29.2409, "vel_north_m_s": -6.9157, "vel_east_m_s": -2.1898, "vel_down_m_s": 0.3801, "battery_remain_pct": 55.9903}
{"t_rx_ms": 1774568630605, "run_id": "SIM_TEST", "seq": 171, "pitch_deg": -4.6461, "yaw_deg": 121.5446, "roll_deg": 4.4984, "lat_deg": 34.005548723121905, "lon_deg": -117.99601769392756, "altitude_rel_ft": 78.3399, "ground_speed_ft_s": 32.5624, "vel_north_m_s": -9.9103, "vel_east_m_s": 7.3223, "vel_down_m_s": -0.5067, "battery_remain_pct": 79.565}
