{"t_rx_ms": 1774580909486, "run_id": "SIM_TEST", "seq": 0, "pitch_deg": 0.6567, "yaw_deg": 211.3356, "roll_deg": -0.4441, "lat_deg": 34.00155251054577, "lon_deg": -118.00437758189628, "altitude_rel_ft": 37.4184, "ground_speed_ft_s": 5.8467, "vel_north_m_s": 6.8431, "vel_east_m_s": 3.9615, "vel_down_m_s": -0.9779, "battery_remain_pct": 95.2203}
{"t_rx_ms": 1774580909586, "run_id": "SIM_TEST", "seq": 1, "pitch_deg": -2.3707, "yaw_deg": 94.7392, "roll_deg": 0.6552, "lat_deg": 34.00887738907694, "lon_deg": -117.99447880816567, "altitude_rel_ft": 85.5415, "ground_speed_ft_s": 51.1157, "vel_north_m_s": 6.8802, "vel_east_m_s": -7.3176, "vel_down_m_s": 0.5359, "battery_remain_pct": 90.6038}
{"t_rx_ms": 1774580909688, "run_id": "SIM_TEST", "seq": 2, "pitch_deg": 2.9874, "yaw_deg": 288.0174, "roll_deg": -12.6664, "lat_deg": 33.99052367344919, "lon_deg": -117.99114411922788, "altitude_rel_ft": 84.4832, "ground_speed_ft_s": 38.6999, "vel_north_m_s": 3.7835, "vel_east_m_s": 7.1331, "vel_down_m_s": 0.217, "battery_remain_pct": 54.2651}
{"t_rx_ms": 1774580909788, "run_id": "SIM_TEST", "seq": 3, "pitch_deg": 3.3694, "yaw_deg": 87.9716, "roll_deg": -6.2758, "lat_deg": 33.99850562211383, "lon_deg": -118.00060654207685, "altitude_rel_ft": 67.2785, "ground_speed_ft_s": 42.1165, "vel_north_m_s": 5.8452, "vel_east_m_s": 3.9491, "vel_down_m_s": 0.4054, "battery_remain_pct": 70.0873}
{"t_rx_ms": 1774580909889, "run_id": "SIM_TEST", "seq": 4, "pitch_deg": 0.1381, "yaw_deg": 78.6568, "roll_deg": -10.1493, "lat_deg": 33.994750124034326, "lon_deg": -117.99565343373008, "altitude_rel_ft": 85.9596, "ground_speed_ft_s": 35.612, "vel_north_m_s": 4.02, "vel_east_m_s": -6.3388, "vel_down_m_s": 0.9096, "battery_remain_pct": 63.7144}
{"t_rx_ms": 1774580909990, "run_id": "SIM_TEST", "seq": 5, "pitch_deg": -1.3078, "yaw_deg": 286.5719, "roll_deg": -8.8209, "lat_deg": 33.99002250707568, "lon_deg": -118.00426518002133, "altitude_rel_ft": 86.9974, "ground_speed_ft_s": 9.4094, "vel_north_m_s": 9.8379, "vel_east_m_s": -9.6733, "vel_down_m_s": 0.7466, "battery_remain_pct": 90.2537}
{"t_rx_ms": 1774580910091, "run_id": "SIM_TEST", "seq": 6, "pitch_deg": -5.1603, "yaw_deg": 160.307, "roll_deg": -10.7251, "lat_deg": 33.995859939209005, "lon_deg": -118.00436543360476, "altitude_rel_ft": 82.7893, "ground_speed_ft_s": 56.0202, "vel_north_m_s": -2.71, "vel_east_m_s": -3.1841, "vel_down_m_s": -0.1857, "battery_remain_pct": 68.6873}
{"t_rx_ms": 1774580910192, "run_id": "SIM_TEST", "seq": 7, "pitch_deg": -3.1579, "yaw_deg": 330.5027, "roll_deg": -9.3152, "lat_deg": 33.998681938383534, "lon_deg": -118.00701628892774, "altitude_rel_ft": 44.5362, "ground_speed_ft_s": 33.6396, "vel_north_m_s": -4.0316, "vel_east_m_s": 2.6139, "vel_down_m_s": 0.7164, "battery_remain_pct": 89.8464}
{"t_rx_ms": 1774580910292, "run_id": "SIM_TEST", "seq": 8, "pitch_deg": 6.7187, "yaw_deg": 218.0346, "roll_deg": -6.3918, "lat_deg": 33.99188155776952, "lon_deg": -118.00441458089799, "altitude_rel_ft": 68.9223, "ground_speed_ft_s": 48.9458, "vel_north_m_s": -5.2948, "vel_east_m_s": -2.2065, "vel_down_m_s": -0.5693, "battery_remain_pct": 67.5582}
{"t_rx_ms": 1774580910393, "run_id": "SIM_TEST", "seq": 9, "pitch_deg": 3.7361, "yaw_deg": 235.4356, "roll_deg": 5.426, "lat_deg": 34.004855490160246, "lon_deg": -117.99636673813235, "altitude_rel_ft": 89.8371, "ground_speed_ft_s": 7.286, "vel_north_m_s": 1.6854, "vel_east_m_s": 4.9755, "vel_down_m_s": -0.2134, "battery_remain_pct": 88.2001}
{"t_rx_ms": 1774580910495, "run_id": "SIM_TEST", "seq": 10, "pitch_deg": 0.3557, "yaw_deg": 187.4672, "roll_deg": 5.7403, "lat_deg": 33.99300027005803, "lon_deg": -117.9946917133087, "altitude_rel_ft": 63.1028, "ground_speed_ft_s": 40.3881, "vel_north_m_s": -9.4685, "vel_east_m_s": 0.2191, "vel_down_m_s": -0.5098, "battery_remain_pct": 98.3441}
{"t_rx_ms": 1774580910595, "run_id": "SIM_TEST", "seq": 11, "pitch_deg": 1.1503, "yaw_deg": 216.7003, "roll_deg": -9.2458, "lat_deg": 33.99717012189259, "lon_deg": -118.00151018454358, "altitude_rel_ft": 47.4538, "ground_speed_ft_s": 59.5984, "vel_north_m_s": -6.0749, "vel_east_m_s": 2.956, "vel_down_m_s": -0.3562, "battery_remain_pct": 85.633}
{"t_rx_ms": 1774580910696, "run_id": "SIM_TEST", "seq": 12, "pitch_deg": 5.2838, "yaw_deg": 181.2478, "roll_deg": 3.1698, "lat_deg": 33.992753004886275, "lon_deg": -117.99818019034164, "altitude_rel_ft": 88.631, "ground_speed_ft_s": 50.5014, "vel_north_m_s": 1.9765, "vel_east_m_s": 8.8804, "vel_down_m_s": 0.3766, "battery_remain_pct": 70.7745}
{"t_rx_ms": 1774580910798, "run_id": "SIM_TEST", "seq": 13, "pitch_deg": 6.5304, "yaw_deg": 272.3387, "roll_deg": 8.1254, "lat_deg": 33.997032053315486, "lon_deg": -117.99814058688429, "altitude_rel_ft": 69.3577, "ground_speed_ft_s": 18.0397, "vel_north_m_s": -8.7203, "vel_east_m_s": -9.2063, "vel_down_m_s": -0.6401, "battery_remain_pct": 80.6238}
{"t_rx_ms": 1774580910898, "run_id": "SIM_TEST", "seq": 14, "pitch_deg": -7.6432, "yaw_deg": 267.5152, "roll_deg": 10.8269, "lat_deg": 34.0069235669371, "lon_deg": -118.0020850416068, "altitude_rel_ft": 53.2927, "ground_speed_ft_s": 46.3127, "vel_north_m_s": -1.4999, "vel_east_m_s": 5.728, "vel_down_m_s": -0.025, "battery_remain_pct": 50.6614}
{"t_rx_ms": 1774580911000, "run_id": "SIM_TEST", "seq": 15, "pitch_deg": -5.3701, "yaw_deg": 251.9926, "roll_deg": -2.1397, "lat_deg": 34.006381634708006, "lon_deg": -118.00204591869205, "altitude_rel_ft": 20.8462, "ground_speed_ft_s": 38.7565, "vel_north_m_s": -8.9978, "vel_east_m_s": 5.0335, "vel_down_m_s": -0.301, "battery_remain_pct": 50.991}
{"t_rx_ms": 1774580911101, "run_id": "SIM_TEST", "seq": 16, "pitch_deg": 6.4213, "yaw_deg": 261.5286, "roll_deg": 13.1551, "lat_deg": 34.00375763806054, "lon_deg": -117.99808279080655, "altitude_rel_ft": 64.0751, "ground_speed_ft_s": 15.1146, "vel_north_m_s": -6.0244, "vel_east_m_s": 4.7852, "vel_down_m_s": -0.517, "battery_remain_pct": 65.4688}
{"t_rx_ms": 1774580911202, "run_id": "SIM_TEST", "seq": 17, "pitch_deg": 7.5901, "yaw_deg": 211.8963, "roll_deg": -10.5193, "lat_deg": 34.007035960049365, "lon_deg": -118.00130683797919, "altitude_rel_ft": 42.6785, "ground_speed_ft_s": 13.4101, "vel_north_m_s": -8.0081, "vel_east_m_s": 4.4679, "vel_down_m_s": -0.4549, "battery_remain_pct": 94.7675}
{"t_rx_ms": 1774580911303, "run_id": "SIM_TEST", "seq": 18, "pitch_deg": -1.6532, "yaw_deg": 164.0463, "roll_deg": 2.8136, "lat_deg": 34.009081335783215, "lon_deg": -118.0014855124202, "altitude_rel_ft": 86.1966, "ground_speed_ft_s": 40.0603, "vel_north_m_s": -0.745, "vel_east_m_s": -4.7276, "vel_down_m_s": -0.8546, "battery_remain_pct": 53.7715}
{"t_rx_ms": 1774580911404, "run_id": "SIM_TEST", "seq": 19, "pitch_deg": -5.7885, "yaw_deg": 355.1128, "roll_deg": -0.2299, "lat_deg": 33.99770605972347, "lon_deg": -118.0016188265535, "altitude_rel_ft": 35.6498, "ground_speed_ft_s": 10.4979, "vel_north_m_s": -4.3964, "vel_east_m_s": 8.9451, "vel_down_m_s": 0.9353, "battery_remain_pct": 88.4744}
{"t_rx_ms": 1774580911505, "run_id": "SIM_TEST", "seq": 20, "pitch_deg": -3.3352, "yaw_deg": 126.9082, "roll_deg": -3.9059, "lat_deg": 34.00755455366371, "lon_deg": -118.00086588553374, "altitude_rel_ft": 97.0586, "ground_speed_ft_s": 16.9252, "vel_north_m_s": -2.0339, "vel_east_m_s": 9.1597, "vel_down_m_s": -0.0328, "battery_remain_pct": 76.9755}
{"t_rx_ms": 1774580911606, "run_id": "SIM_TEST", "seq": 21, "pitch_deg": -5.1659, "yaw_deg": 334.8124, "roll_deg": -6.7218, "lat_deg": 33.99087617871585, "lon_deg": -118.00997352585132, "altitude_rel_ft": 94.8924, "ground_speed_ft_s": 47.0424, "vel_north_m_s": -1.2931, "vel_east_m_s": -8.3184, "vel_down_m_s": -0.6907, "battery_remain_pct": 64.2661}
{"t_rx_ms": 1774580911706, "run_id": "SIM_TEST", "seq": 22, "pitch_deg": 4.1252, "yaw_deg": 158.2435, "roll_deg": 0.689, "lat_deg": 34.00001922655099, "lon_deg": -118.00368870757582, "altitude_rel_ft": 74.1858, "ground_speed_ft_s": 59.2141, "vel_north_m_s": -1.2632, "vel_east_m_s": -9.5695, "vel_down_m_s": -0.8692, "battery_remain_pct": 94.7705}
{"t_rx_ms": 1774580911808, "run_id": "SIM_TEST", "seq": 23, "pitch_deg": -8.3424, "yaw_deg": 204.8758, "roll_deg": -2.0414, "lat_deg": 34.00396001448117, "lon_deg": -118.00648296674612, "altitude_rel_ft": 71.5302, "ground_speed_ft_s": 33.3558, "vel_north_m_s": 5.1166, "vel_east_m_s": -0.923, "vel_down_m_s": -0.5465, "battery_remain_pct": 69.0612}
{"t_rx_ms": 1774580911910, "run_id": "SIM_TEST", "seq": 24, "pitch_deg": -2.4164, "yaw_deg": 284.6961, "roll_deg": -7.3652, "lat_deg": 34.001112465174465, "lon_deg": -118.00246396301564, "altitude_rel_ft": 40.4026, "ground_speed_ft_s": 53.1804, "vel_north_m_s": -9.0416, "vel_east_m_s": -0.2987, "vel_down_m_s": 0.152, "battery_remain_pct": 82.3801}
{"t_rx_ms": 1774580912011, "run_id": "SIM_TEST", "seq": 25, "pitch_deg": -7.5432, "yaw_deg": 233.0573, "roll_deg": 1.6244, "lat_deg": 33.99872820934516, "lon_deg": -118.00438307350632, "altitude_rel_ft": 91.6385, "ground_speed_ft_s": 38.0628, "vel_north_m_s": -2.4642, "vel_east_m_s": -3.7189, "vel_down_m_s": 0.3181, "battery_remain_pct": 76.3071}
{"t_rx_ms": 1774580912112, "run_id": "SIM_TEST", "seq": 26, "pitch_deg": -3.8123, "yaw_deg": 223.2728, "roll_deg": -10.5009, "lat_deg": 33.997378237374456, "lon_deg": -117.99460547724368, "altitude_rel_ft": 61.6783, "ground_speed_ft_s": 46.7507, "vel_north_m_s": -5.9758, "vel_east_m_s": -1.1718, "vel_down_m_s": -0.2787, "battery_remain_pct": 73.9808}
{"t_rx_ms": 1774580912213, "run_id": "SIM_TEST", "seq": 27, "pitch_deg": -6.8631, "yaw_deg": 11.2527, "roll_deg": 7.2934, "lat_deg": 33.9924575863207, "lon_deg": -118.00175560967114, "altitude_rel_ft": 57.4423, "ground_speed_ft_s": 7.5663, "vel_north_m_s": -3.3941, "vel_east_m_s": 5.2525, "vel_down_m_s": 0.455, "battery_remain_pct": 55.764}
{"t_rx_ms": 1774580912314, "run_id": "SIM_TEST", "seq": 28, "pitch_deg": 2.4181, "yaw_deg": 204.0667, "roll_deg": 4.8985, "lat_deg": 33.99527362113406, "lon_deg": -117.99006827284734, "altitude_rel_ft": 89.154, "ground_speed_ft_s": 14.2941, "vel_north_m_s": 0.1329, "vel_east_m_s": -0.6087, "vel_down_m_s": -0.347, "battery_remain_pct": 93.0811}
{"t_rx_ms": 1774580912415, "run_id": "SIM_TEST", "seq": 29, "pitch_deg": 1.5297, "yaw_deg": 161.8806, "roll_deg": 11.7229, "lat_deg": 34.005356725085264, "lon_deg": -117.99389471491565, "altitude_rel_ft": 67.7567, "ground_speed_ft_s": 56.5768, "vel_north_m_s": -2.5547, "vel_east_m_s": 4.7655, "vel_down_m_s": 0.5303, "battery_remain_pct": 62.8735}
{"t_rx_ms": 1774580912516, "run_id": "SIM_TEST", "seq": 30, "pitch_deg": 4.6187, "yaw_deg": 91.6205, "roll_deg": -11.3742, "lat_deg": 33.99956886570348, "lon_deg": -117.99668953880393, "altitude_rel_ft": 30.8435, "ground_speed_ft_s": 39.4861, "vel_north_m_s": -7.5778, "vel_east_m_s": 8.5862, "vel_down_m_s": 0.3532, "battery_remain_pct": 64.6581}
{"t_rx_ms": 1774580912617, "run_id": "SIM_TEST", "seq": 31, "pitch_deg": -8.9966, "yaw_deg": 132.0223, "roll_deg": 6.7827, "lat_deg": 33.993031892390306, "lon_deg": -118.0019435832089, "altitude_rel_ft": 98.3091, "ground_speed_ft_s": 20.1688, "vel_north_m_s": 3.2643, "vel_east_m_s": -9.2273, "vel_down_m_s": -0.029, "battery_remain_pct": 79.7395}
{"t_rx_ms": 1774580912718, "run_id": "SIM_TEST", "seq": 32, "pitch_deg": -6.2617, "yaw_deg": 183.8628, "roll_deg": 7.0275, "lat_deg": 33.99343611303237, "lon_deg": -118.00749420437656, "altitude_rel_ft": 97.6374, "ground_speed_ft_s": 40.8003, "vel_north_m_s": -5.076, "vel_east_m_s": -0.9176, "vel_down_m_s": -0.8344, "battery_remain_pct": 72.6062}
{"t_rx_ms": 1774580912820, "run_id": "SIM_TEST", "seq": 33, "pitch_deg": 5.5091, "yaw_deg": 82.8723, "roll_deg": 7.4329, "lat_deg": 34.007456965368, "lon_deg": -118.00398390576278, "altitude_rel_ft": 47.6401, "ground_speed_ft_s": 57.3835, "vel_north_m_s": -6.6714, "vel_east_m_s": 9.8377, "vel_down_m_s": -0.8351, "battery_remain_pct": 66.8893}
{"t_rx_ms": 1774580912921, "run_id": "SIM_TEST", "seq": 34, "pitch_deg": 8.7388, "yaw_deg": 45.3883, "roll_deg": -14.7564, "lat_deg": 34.00793868699838, "lon_deg": -117.9923261549175, "altitude_rel_ft": 72.181, "ground_speed_ft_s": 14.1899, "vel_north_m_s": -1.076, "vel_east_m_s": -0.5725, "vel_down_m_s": -0.3803, "battery_remain_pct": 56.3786}
{"t_rx_ms": 1774580913022, "run_id": "SIM_TEST", "seq": 35, "pitch_deg": 9.9091, "yaw_deg": 319.0905, "roll_deg": 6.9457, "lat_deg": 34.00854902945844, "lon_deg": -118.00835627647332, "altitude_rel_ft": 67.8054, "ground_speed_ft_s": 27.4085, "vel_north_m_s": 3.2432, "vel_east_m_s": -3.5518, "vel_down_m_s": -0.7179, "battery_remain_pct": 95.0875}
{"t_rx_ms": 1774580913123, "run_id": "SIM_TEST", "seq": 36, "pitch_deg": -8.5383, "yaw_deg": 178.7691, "roll_deg": -11.0055, "lat_deg": 33.99128725383514, "lon_deg": -117.9941319622664, "altitude_rel_ft": 54.4155, "ground_speed_ft_s": 43.2096, "vel_north_m_s": 8.1881, "vel_east_m_s": -7.9657, "vel_down_m_s": -0.8253, "battery_remain_pct": 50.5183}
{"t_rx_ms": 1774580913225, "run_id": "SIM_TEST", "seq": 37, "pitch_deg": -0.1692, "yaw_deg": 231.9258, "roll_deg": 11.8964, "lat_deg": 33.99243263553086, "lon_deg": -117.99205761341051, "altitude_rel_ft": 51.8739, "ground_speed_ft_s": 20.7908, "vel_north_m_s": 4.9922, "vel_east_m_s": -8.8492, "vel_down_m_s": -0.0398, "battery_remain_pct": 64.1418}
{"t_rx_ms": 1774580913326, "run_id": "SIM_TEST", "seq": 38, "pitch_deg": 2.1132, "yaw_deg": 276.1054, "roll_deg": -4.3715, "lat_deg": 33.99470358340517, "lon_deg": -118.00977701506186, "altitude_rel_ft": 32.062, "ground_speed_ft_s": 27.4995, "vel_north_m_s": -3.5004, "vel_east_m_s": 6.3313, "vel_down_m_s": 0.9802, "battery_remain_pct": 63.7672}
{"t_rx_ms": 1774580913427, "run_id": "SIM_TEST", "seq": 39, "pitch_deg": 4.083, "yaw_deg": 104.5393, "roll_deg": 11.7933, "lat_deg": 33.99929334481245, "lon_deg": -118.00981008594492, "altitude_rel_ft": 40.135, "ground_speed_ft_s": 33.7246, "vel_north_m_s": -8.5751, "vel_east_m_s": -1.1645, "vel_down_m_s": 0.7908, "battery_remain_pct": 91.9131}
{"t_rx_ms": 1774580913528, "run_id": "SIM_TEST", "seq": 40, "pitch_deg": 5.9094, "yaw_deg": 54.2031, "roll_deg": -1.4482, "lat_deg": 34.001801086838995, "lon_deg": -118.00316046286446, "altitude_rel_ft": 74.045, "ground_speed_ft_s": 57.9411, "vel_north_m_s": -3.6774, "vel_east_m_s": -2.9397, "vel_down_m_s": 0.5808, "battery_remain_pct": 88.6335}
{"t_rx_ms": 1774580913630, "run_id": "SIM_TEST", "seq": 41, "pitch_deg": 9.7111, "yaw_deg": 342.1099, "roll_deg": -10.2816, "lat_deg": 33.99270432760183, "lon_deg": -118.00890038089925, "altitude_rel_ft": 91.8053, "ground_speed_ft_s": 15.9912, "vel_north_m_s": 3.9868, "vel_east_m_s": 9.9661, "vel_down_m_s": 0.2957, "battery_remain_pct": 80.0317}
{"t_rx_ms": 1774580913731, "run_id": "SIM_TEST", "seq": 42, "pitch_deg": -0.7652, "yaw_deg": 27.1219, "roll_deg": 9.5272, "lat_deg": 33.99153565027609, "lon_deg": -118.00769306153774, "altitude_rel_ft": 56.3677, "ground_speed_ft_s": 18.4256, "vel_north_m_s": -5.0564, "vel_east_m_s": -8.2283, "vel_down_m_s": -0.8439, "battery_remain_pct": 82.439}
{"t_rx_ms": 1774580913832, "run_id": "SIM_TEST", "seq": 43, "pitch_deg": -8.7354, "yaw_deg": 210.8214, "roll_deg": -1.8727, "lat_deg": 34.001063895930315, "lon_deg": -117.99383725406598, "altitude_rel_ft": 97.0404, "ground_speed_ft_s": 6.1313, "vel_north_m_s": -8.6294, "vel_east_m_s": -3.4584, "vel_down_m_s": 0.2219, "battery_remain_pct": 64.3463}
{"t_rx_ms": 1774580913933, "run_id": "SIM_TEST", "seq": 44, "pitch_deg": 1.9247, "yaw_deg": 308.5992, "roll_deg": -10.0527, "lat_deg": 34.009850958171, "lon_deg": -117.99311090656283, "altitude_rel_ft": 65.617, "ground_speed_ft_s": 19.1694, "vel_north_m_s": -6.1797, "vel_east_m_s": -1.3718, "vel_down_m_s": -0.1638, "battery_remain_pct": 96.2645}
{"t_rx_ms": 1774580914035, "run_id": "SIM_TEST", "seq": 45, "pitch_deg": 5.0316, "yaw_deg": 8.6891, "roll_deg": 13.4648, "lat_deg": 33.992608949900315, "lon_deg": -118.00035438526447, "altitude_rel_ft": 48.1475, "ground_speed_ft_s": 7.5503, "vel_north_m_s": 4.7275, "vel_east_m_s": 9.6226, "vel_down_m_s": -0.9698, "battery_remain_pct": 85.0439}
{"t_rx_ms": 1774580914137, "run_id": "SIM_TEST", "seq": 46, "pitch_deg": 3.1048, "yaw_deg": 82.7886, "roll_deg": 4.6875, "lat_deg": 34.00173113825931, "lon_deg": -117.99016611515393, "altitude_rel_ft": 50.6426, "ground_speed_ft_s": 43.1076, "vel_north_m_s": -9.4977, "vel_east_m_s": 5.9506, "vel_down_m_s": 0.876, "battery_remain_pct": 90.9177}
{"t_rx_ms": 1774580914238, "run_id": "SIM_TEST", "seq": 47, "pitch_deg": -4.5617, "yaw_deg": 193.3701, "roll_deg": 9.6738, "lat_deg": 33.99293749347204, "lon_deg": -118.0009764029149, "altitude_rel_ft": 34.6538, "ground_speed_ft_s": 6.5023, "vel_north_m_s": -0.0639, "vel_east_m_s": 5.0284, "vel_down_m_s": -0.1392, "battery_remain_pct": 74.7529}
{"t_rx_ms": 1774580914339, "run_id": "SIM_TEST", "seq": 48, "pitch_deg": 9.6736, "yaw_deg": 317.2162, "roll_deg": -2.4605, "lat_deg": 34.00605474974739, "lon_deg": -118.00145702003186, "altitude_rel_ft": 52.7564, "ground_speed_ft_s": 21.1726, "vel_north_m_s": -2.759, "vel_east_m_s": 8.5115, "vel_down_m_s": -0.052, "battery_remain_pct": 63.902}
{"t_rx_ms": 1774580914442, "run_id": "SIM_TEST", "seq": 49, "pitch_deg": -0.239, "yaw_deg": 340.7287, "roll_deg": -12.6314, "lat_deg": 33.9911547584763, "lon_deg": -117.99089195402568, "altitude_rel_ft": 66.8916, "ground_speed_ft_s": 30.7812, "vel_north_m_s": -3.4538, "vel_east_m_s": 7.9367, "vel_down_m_s": -0.5003, "battery_remain_pct": 58.4581}
{"t_rx_ms": 1774580914543, "run_id": "SIM_TEST", "seq": 50, "pitch_deg": -5.0773, "yaw_deg": 132.5415, "roll_deg": 4.9696, "lat_deg": 34.009289165831284, "lon_deg": -117.99814584508144, "altitude_rel_ft": 39.5082, "ground_speed_ft_s": 58.0316, "vel_north_m_s": -8.9975, "vel_east_m_s": 3.3118, "vel_down_m_s": 0.9124, "battery_remain_pct": 69.0446}
{"t_rx_ms": 1774580914644, "run_id": "SIM_TEST", "seq": 51, "pitch_deg": 1.8912, "yaw_deg": 38.2759, "roll_deg": 9.4111, "lat_deg": 34.00863396358993, "lon_deg": -117.99742499937258, "altitude_rel_ft": 35.1276, "ground_speed_ft_s": 28.545, "vel_north_m_s": 0.9393, "vel_east_m_s": 1.7453, "vel_down_m_s": -0.3705, "battery_remain_pct": 59.4623}
{"t_rx_ms": 1774580914746, "run_id": "SIM_TEST", "seq": 52, "pitch_deg": 1.9797, "yaw_deg": 253.1515, "roll_deg": -3.8265, "lat_deg": 33.99094346391733, "lon_deg": -118.00589811123888, "altitude_rel_ft": 87.6283, "ground_speed_ft_s": 52.4975, "vel_north_m_s": -8.016, "vel_east_m_s": -0.8419, "vel_down_m_s": -0.5637, "battery_remain_pct": 62.206}
{"t_rx_ms": 1774580914847, "run_id": "SIM_TEST", "seq": 53, "pitch_deg": -1.4513, "yaw_deg": 66.6585, "roll_deg": 8.5266, "lat_deg": 34.00294624441216, "lon_deg": -118.00968969502414, "altitude_rel_ft": 32.4066, "ground_speed_ft_s": 43.9164, "vel_north_m_s": 3.3799, "vel_east_m_s": -7.216, "vel_down_m_s": 0.32, "battery_remain_pct": 80.9586}
{"t_rx_ms": 1774580914947, "run_id": "SIM_TEST", "seq": 54, "pitch_deg": 8.0985, "yaw_deg": 163.3215, "roll_deg": 10.5988, "lat_deg": 34.00451397214207, "lon_deg": -118.00476642211093, "altitude_rel_ft": 40.5, "ground_speed_ft_s": 59.6214, "vel_north_m_s": -2.572, "vel_east_m_s": -6.9496, "vel_down_m_s": 0.9423, "battery_remain_pct": 86.1189}
{"t_rx_ms": 1774580915049, "run_id": "SIM_TEST", "seq": 55, "pitch_deg": 0.1129, "yaw_deg": 313.9894, "roll_deg": 12.9009, "lat_deg": 33.99113723950973, "lon_deg": -117.9980715852274, "altitude_rel_ft": 78.0498, "ground_speed_ft_s": 15.427, "vel_north_m_s": -3.6236, "vel_east_m_s": -0.9452, "vel_down_m_s": -0.6476, "battery_remain_pct": 89.1065}
{"t_rx_ms": 1774580915150, "run_id": "SIM_TEST", "seq": 56, "pitch_deg": -5.192, "yaw_deg": 358.3042, "roll_deg": -12.5458, "lat_deg": 34.008555598060894, "lon_deg": -118.00085252348804, "altitude_rel_ft": 47.1816, "ground_speed_ft_s": 46.3353, "vel_north_m_s": 2.4932, "vel_east_m_s": 9.1931, "vel_down_m_s": -0.0239, "battery_remain_pct": 93.1738}
{"t_rx_ms": 1774580915251, "run_id": "SIM_TEST", "seq": 57, "pitch_deg": -1.4267, "yaw_deg": 310.4239, "roll_deg": 10.221, "lat_deg": 33.99730605786274, "lon_deg": -117.99081632830213, "altitude_rel_ft": 60.769, "ground_speed_ft_s": 34.705, "vel_north_m_s": 1.0782, "vel_east_m_s": 4.9016, "vel_down_m_s": -0.0858, "battery_remain_pct": 79.1101}
{"t_rx_ms": 1774580915352, "run_id": "SIM_TEST", "seq": 58, "pitch_deg": 3.0588, "yaw_deg": 225.1734, "roll_deg": -3.3653, "lat_deg": 34.00342858348446, "lon_deg": -117.99928335868171, "altitude_rel_ft": 26.6223, "ground_speed_ft_s": 36.3085, "vel_north_m_s": 8.6616, "vel_east_m_s": 8.505, "vel_down_m_s": -0.2486, "battery_remain_pct": 59.8708}
{"t_rx_ms": 1774580915453, "run_id": "SIM_TEST", "seq": 59, "pitch_deg": -5.8076, "yaw_deg": 134.1266, "roll_deg": 8.295, "lat_deg": 33.994131113721686, "lon_deg": -118.00498017003916, "altitude_rel_ft": 80.9887, "ground_speed_ft_s": 13.1025, "vel_north_m_s": 0.0457, "vel_east_m_s": 0.7084, "vel_down_m_s": -0.9422, "battery_remain_pct": 91.0015}
{"t_rx_ms": 1774580915554, "run_id": "SIM_TEST", "seq": 60, "pitch_deg": -4.4549, "yaw_deg": 7.0539, "roll_deg": -7.5364, "lat_deg": 34.00638665079861, "lon_deg": -118.00368962971928, "altitude_rel_ft": 47.0724, "ground_speed_ft_s": 37.1804, "vel_north_m_s": 3.282, "vel_east_m_s": -5.3099, "vel_down_m_s": -0.2925, "battery_remain_pct": 74.4943}
{"t_rx_ms": 1774580915655, "run_id": "SIM_TEST", "seq": 61, "pitch_deg": -0.1626, "yaw_deg": 85.8679, "roll_deg": -4.7995, "lat_deg": 34.00720906901366, "lon_deg": -118.00778915080723, "altitude_rel_ft": 52.9415, "ground_speed_ft_s": 48.2583, "vel_north_m_s": 7.6395, "vel_east_m_s": -4.963, "vel_down_m_s": -0.6902, "battery_remain_pct": 56.2656}
{"t_rx_ms": 1774580915757, "run_id": "SIM_TEST", "seq": 62, "pitch_deg": -4.4417, "yaw_deg": 119.1048, "roll_deg": 1.6528, "lat_deg": 33.991753870943306, "lon_deg": -118.00530275993309, "altitude_rel_ft": 76.7021, "ground_speed_ft_s": 19.3875, "vel_north_m_s": -4.1629, "vel_east_m_s": 9.2317, "vel_down_m_s": -0.4604, "battery_remain_pct": 98.1998}
{"t_rx_ms": 1774580915860, "run_id": "SIM_TEST", "seq": 63, "pitch_deg": -5.0355, "yaw_deg": 196.4564, "roll_deg": 0.8042, "lat_deg": 34.0092344677498, "lon_deg": -117.99293347187923, "altitude_rel_ft": 57.2289, "ground_speed_ft_s": 59.7439, "vel_north_m_s": 4.8407, "vel_east_m_s": -2.6893, "vel_down_m_s": 0.6115, "battery_remain_pct": 75.5791}
{"t_rx_ms": 1774580915961, "run_id": "SIM_TEST", "seq": 64, "pitch_deg": 7.7857, "yaw_deg": 212.8634, "roll_deg": 8.6081, "lat_deg": 33.99838622779972, "lon_deg": -117.99706946497417, "altitude_rel_ft": 59.651, "ground_speed_ft_s": 26.4855, "vel_north_m_s": 8.9316, "vel_east_m_s": -8.2723, "vel_down_m_s": 0.2657, "battery_remain_pct": 65.7736}
{"t_rx_ms": 1774580916061, "run_id": "SIM_TEST", "seq": 65, "pitch_deg": 1.6675, "yaw_deg": 32.7541, "roll_deg": -1.2809, "lat_deg": 33.99695642279253, "lon_deg": -118.00780268962876, "altitude_rel_ft": 21.2227, "ground_speed_ft_s": 26.2522, "vel_north_m_s": -1.852, "vel_east_m_s": -2.5312, "vel_down_m_s": 0.398, "battery_remain_pct": 76.8632}
{"t_rx_ms": 1774580916162, "run_id": "SIM_TEST", "seq": 66, "pitch_deg": -1.5796, "yaw_deg": 258.8389, "roll_deg": -6.0693, "lat_deg": 34.00981889601433, "lon_deg": -117.9981323879448, "altitude_rel_ft": 28.3067, "ground_speed_ft_s": 15.3209, "vel_north_m_s": -7.3944, "vel_east_m_s": -6.8956, "vel_down_m_s": 0.051, "battery_remain_pct": 70.1091}
{"t_rx_ms": 1774580916263, "run_id": "SIM_TEST", "seq": 67, "pitch_deg": 0.5292, "yaw_deg": 322.9429, "roll_deg": -9.1629, "lat_deg": 33.990157921105435, "lon_deg": -117.99148036241868, "altitude_rel_ft": 54.6265, "ground_speed_ft_s": 32.0596, "vel_north_m_s": 6.9763, "vel_east_m_s": 3.5788, "vel_down_m_s": 0.2493, "battery_remain_pct": 67.1933}
{"t_rx_ms": 1774580916364, "run_id": "SIM_TEST", "seq": 68, "pitch_deg": 9.4337, "yaw_deg": 274.447, "roll_deg": -4.4274, "lat_deg": 34.00666287919482, "lon_deg": -117.99261964499631, "altitude_rel_ft": 83.2192, "ground_speed_ft_s": 23.6048, "vel_north_m_s": 7.6689, "vel_east_m_s": 5.1339, "vel_down_m_s": 0.6076, "battery_remain_pct": 84.9384}
{"t_rx_ms": 1774580916466, "run_id": "SIM_TEST", "seq": 69, "pitch_deg": 6.1717, "yaw_deg": 337.9943, "roll_deg": -10.0478, "lat_deg": 34.00399404719242, "lon_deg": -118.00097828792236, "altitude_rel_ft": 71.1696, "ground_speed_ft_s": 16.7051, "vel_north_m_s": 0.5771, "vel_east_m_s": -9.1103, "vel_down_m_s": -0.284, "battery_remain_pct": 86.9903}
{"t_rx_ms": 1774580916567, "run_id": "SIM_TEST", "seq": 70, "pitch_deg": -8.2163, "yaw_deg": 195.9413, "roll_deg": 1.5166, "lat_deg": 34.00570983294272, "lon_deg": -117.99930651423807, "altitude_rel_ft": 99.8503, "ground_speed_ft_s": 14.5181, "vel_north_m_s": 2.9254, "vel_east_m_s": 0.5028, "vel_down_m_s": 0.1444, "battery_remain_pct": 62.4953}
{"t_rx_ms": 1774580916668, "run_id": "SIM_TEST", "seq": 71, "pitch_deg": -9.4909, "yaw_deg": 109.4712, "roll_deg": -3.7612, "lat_deg": 34.0008340862391, "lon_deg": -118.00340941430318, "altitude_rel_ft": 24.3923, "ground_speed_ft_s": 33.8205, "vel_north_m_s": -2.9935, "vel_east_m_s": -0.6789, "vel_down_m_s": -0.6646, "battery_remain_pct": 88.6384}
{"t_rx_ms": 1774580916772, "run_id": "SIM_TEST", "seq": 72, "pitch_deg": -6.2707, "yaw_deg": 243.1052, "roll_deg": -6.851, "lat_deg": 33.99014535660869, "lon_deg": -117.99900957703824, "altitude_rel_ft": 71.8594, "ground_speed_ft_s": 35.3047, "vel_north_m_s": -6.991, "vel_east_m_s": 9.1066, "vel_down_m_s": 0.6873, "battery_remain_pct": 85.5596}
{"t_rx_ms": 1774580916874, "run_id": "SIM_TEST", "seq": 73, "pitch_deg": -7.8633, "yaw_deg": 51.1, "roll_deg": -9.1765, "lat_deg": 33.999548040775814, "lon_deg": -118.00256212318607, "altitude_rel_ft": 70.9536, "ground_speed_ft_s": 42.1612, "vel_north_m_s": 7.0894, "vel_east_m_s": 5.058, "vel_down_m_s": -0.5276, "battery_remain_pct": 65.9122}
{"t_rx_ms": 1774580916975, "run_id": "SIM_TEST", "seq": 74, "pitch_deg": -3.8485, "yaw_deg": 235.5598, "roll_deg": 6.5979, "lat_deg": 33.99868240110529, "lon_deg": -118.00734700426896, "altitude_rel_ft": 49.5942, "ground_speed_ft_s": 57.78, "vel_north_m_s": -9.2767, "vel_east_m_s": 3.8911, "vel_down_m_s": -0.795, "battery_remain_pct": 52.0637}
{"t_rx_ms": 1774580917075, "run_id": "SIM_TEST", "seq": 75, "pitch_deg": -6.1694, "yaw_deg": 98.9931, "roll_deg": -8.3423, "lat_deg": 34.00533095516469, "lon_deg": -118.0077557186218, "altitude_rel_ft": 72.6417, "ground_speed_ft_s": 39.2529, "vel_north_m_s": -6.4985, "vel_east_m_s": -5.4402, "vel_down_m_s": -0.5046, "battery_remain_pct": 82.3997}
{"t_rx_ms": 1774580917177, "run_id": "SIM_TEST", "seq": 76, "pitch_deg": 0.3426, "yaw_deg": 286.0456, "roll_deg": -14.4977, "lat_deg": 33.99651075592872, "lon_deg": -117.99737510596023, "altitude_rel_ft": 42.6267, "ground_speed_ft_s": 23.8862, "vel_north_m_s": -4.5728, "vel_east_m_s": -0.0585, "vel_down_m_s": -0.0638, "battery_remain_pct": 87.5275}
{"t_rx_ms": 1774580917277, "run_id": "SIM_TEST", "seq": 77, "pitch_deg": 0.5296, "yaw_deg": 5.9613, "roll_deg": 2.961, "lat_deg": 33.99977498506343, "lon_deg": -118.00372229247998, "altitude_rel_ft": 39.9275, "ground_speed_ft_s": 10.9649, "vel_north_m_s": -6.1461, "vel_east_m_s": -4.1174, "vel_down_m_s": -0.3715, "battery_remain_pct": 54.314}
{"t_rx_ms": 1774580917378, "run_id": "SIM_TEST", "seq": 78, "pitch_deg": -3.8089, "yaw_deg": 195.0136, "roll_deg": -8.3601, "lat_deg": 34.001866463283605, "lon_deg": -117.99703091161193, "altitude_rel_ft": 36.5105, "ground_speed_ft_s": 7.8892, "vel_north_m_s": 8.714, "vel_east_m_s": -8.8231, "vel_down_m_s": -0.5137, "battery_remain_pct": 58.9477}
{"t_rx_ms": 1774580917479, "run_id": "SIM_TEST", "seq": 79, "pitch_deg": -0.6277, "yaw_deg": 201.0175, "roll_deg": 6.7494, "lat_deg": 34.007463802595055, "lon_deg": -117.99907711736317, "altitude_rel_ft": 58.1524, "ground_speed_ft_s": 12.3455, "vel_north_m_s": -5.7869, "vel_east_m_s": 3.3533, "vel_down_m_s": 0.3731, "battery_remain_pct": 90.4096}
{"t_rx_ms": 1774580917579, "run_id": "SIM_TEST", "seq": 80, "pitch_deg": -9.6416, "yaw_deg": 182.4408, "roll_deg": -8.0826, "lat_deg": 34.00916913130621, "lon_deg": -117.9930530696138, "altitude_rel_ft": 80.4637, "ground_speed_ft_s": 38.1161, "vel_north_m_s": -5.8864, "vel_east_m_s": 9.6758, "vel_down_m_s": 0.0596, "battery_remain_pct": 86.8905}
{"t_rx_ms": 1774580917681, "run_id": "SIM_TEST", "seq": 81, "pitch_deg": -1.9378, "yaw_deg": 64.1179, "roll_deg": 3.2299, "lat_deg": 33.998442243435676, "lon_deg": -118.00128069153044, "altitude_rel_ft": 92.5499, "ground_speed_ft_s": 27.7354, "vel_north_m_s": 8.0033, "vel_east_m_s": 6.4537, "vel_down_m_s": 0.7728, "battery_remain_pct": 66.4426}
{"t_rx_ms": 1774580917782, "run_id": "SIM_TEST", "seq": 82, "pitch_deg": -3.9638, "yaw_deg": 244.6329, "roll_deg": 10.0933, "lat_deg": 33.993036612879955, "lon_deg": -117.9927298535218, "altitude_rel_ft": 68.3613, "ground_speed_ft_s": 27.4012, "vel_north_m_s": 6.5831, "vel_east_m_s": 8.4831, "vel_down_m_s": -0.8213, "battery_remain_pct": 52.6482}
{"t_rx_ms": 1774580917883, "run_id": "SIM_TEST", "seq": 83, "pitch_deg": -3.2905, "yaw_deg": 81.3373, "roll_deg": -11.6685, "lat_deg": 33.99095725545115, "lon_deg": -118.00797519107056, "altitude_rel_ft": 91.9088, "ground_speed_ft_s": 57.5272, "vel_north_m_s": -8.2006, "vel_east_m_s": -0.7296, "vel_down_m_s": 0.5325, "battery_remain_pct": 97.7744}
{"t_rx_ms": 1774580917984, "run_id": "SIM_TEST", "seq": 84, "pitch_deg": 1.4121, "yaw_deg": 140.5701, "roll_deg": -1.0551, "lat_deg": 34.00646659118449, "lon_deg": -117.99852511372525, "altitude_rel_ft": 52.1589, "ground_speed_ft_s": 6.7205, "vel_north_m_s": -2.874, "vel_east_m_s": -6.7428, "vel_down_m_s": -0.8063, "battery_remain_pct": 64.1062}
{"t_rx_ms": 1774580918085, "run_id": "SIM_TEST", "seq": 85, "pitch_deg": 3.2923, "yaw_deg": 103.073, "roll_deg": 1.9148, "lat_deg": 34.002374662236996, "lon_deg": -117.99722533419794, "altitude_rel_ft": 67.8478, "ground_speed_ft_s": 7.7008, "vel_north_m_s": -2.6419, "vel_east_m_s": -4.6765, "vel_down_m_s": -0.9413, "battery_remain_pct": 64.9015}
{"t_rx_ms": 1774580918186, "run_id": "SIM_TEST", "seq": 86, "pitch_deg": 9.5228, "yaw_deg": 143.3979, "roll_deg": 14.5188, "lat_deg": 33.99485540518865, "lon_deg": -117.99984378553894, "altitude_rel_ft": 25.0635, "ground_speed_ft_s": 48.4088, "vel_north_m_s": -0.608, "vel_east_m_s": -4.4511, "vel_down_m_s": -0.2194, "battery_remain_pct": 62.4421}
{"t_rx_ms": 1774580918287, "run_id": "SIM_TEST", "seq": 87, "pitch_deg": -6.5987, "yaw_deg": 322.1213, "roll_deg": 12.4843, "lat_deg": 34.00789861498366, "lon_deg": -117.9924987719823, "altitude_rel_ft": 43.9072, "ground_speed_ft_s": 43.6714, "vel_north_m_s": 6.9787, "vel_east_m_s": 3.8893, "vel_down_m_s": 0.6558, "battery_remain_pct": 86.2802}
{"t_rx_ms": 1774580918388, "run_id": "SIM_TEST", "seq": 88, "pitch_deg": -3.6294, "yaw_deg": 91.379, "roll_deg": 9.9952, "lat_deg": 34.00584695138696, "lon_deg": -118.00203222073804, "altitude_rel_ft": 26.6086, "ground_speed_ft_s": 25.2602, "vel_north_m_s": -4.609, "vel_east_m_s": 6.3631, "vel_down_m_s": -0.9827, "battery_remain_pct": 55.2365}
{"t_rx_ms": 1774580918489, "run_id": "SIM_TEST", "seq": 89, "pitch_deg": 1.8772, "yaw_deg": 187.7582, "roll_deg": -0.3733, "lat_deg": 34.00464172284593, "lon_deg": -117.99497707417785, "altitude_rel_ft": 65.231, "ground_speed_ft_s": 41.4237, "vel_north_m_s": -9.8403, "vel_east_m_s": -3.3505, "vel_down_m_s": 0.32, "battery_remain_pct": 99.2024}
{"t_rx_ms": 1774580918590, "run_id": "SIM_TEST", "seq": 90, "pitch_deg": 7.7896, "yaw_deg": 355.2283, "roll_deg": 14.2485, "lat_deg": 34.00805313778174, "lon_deg": -118.0047744621879, "altitude_rel_ft": 79.1573, "ground_speed_ft_s": 13.7127, "vel_north_m_s": 3.5806, "vel_east_m_s": -4.4673, "vel_down_m_s": 0.9792, "battery_remain_pct": 56.9725}
{"t_rx_ms": 1774580918690, "run_id": "SIM_TEST", "seq": 91, "pitch_deg": 8.9989, "yaw_deg": 65.1618, "roll_deg": -2.4064, "lat_deg": 34.00954063493907, "lon_deg": -117.99684546959246, "altitude_rel_ft": 87.0279, "ground_speed_ft_s": 25.3325, "vel_north_m_s": 2.2575, "vel_east_m_s": -5.5265, "vel_down_m_s": -0.451, "battery_remain_pct": 53.2}
{"t_rx_ms": 1774580918791, "run_id": "SIM_TEST", "seq": 92, "pitch_deg": 1.2031, "yaw_deg": 128.1431, "roll_deg": 8.5263, "lat_deg": 33.996759424681656, "lon_deg": -118.00677996087887, "altitude_rel_ft": 35.5636, "ground_speed_ft_s": 11.0886, "vel_north_m_s": -1.2302, "vel_east_m_s": -1.6072, "vel_down_m_s": 0.9058, "battery_remain_pct": 68.2726}
{"t_rx_ms": 1774580918893, "run_id": "SIM_TEST", "seq": 93, "pitch_deg": 2.2489, "yaw_deg": 343.2766, "roll_deg": 7.4503, "lat_deg": 33.99860360083988, "lon_deg": -117.99493495013508, "altitude_rel_ft": 50.1133, "ground_speed_ft_s": 36.3628, "vel_north_m_s": -4.1458, "vel_east_m_s": -7.9731, "vel_down_m_s": -0.437, "battery_remain_pct": 72.4945}
{"t_rx_ms": 1774580918994, "run_id": "SIM_TEST", "seq": 94, "pitch_deg": 2.1236, "yaw_deg": 290.8219, "roll_deg": 8.5973, "lat_deg": 34.00985556211089, "lon_deg": -118.00340067087426, "altitude_rel_ft": 59.4162, "ground_speed_ft_s": 31.9165, "vel_north_m_s": 2.806, "vel_east_m_s": 1.1633, "vel_down_m_s": 0.6266, "battery_remain_pct": 50.2278}
{"t_rx_ms": 1774580919095, "run_id": "SIM_TEST", "seq": 95, "pitch_deg": 8.264, "yaw_deg": 133.7846, "roll_deg": -10.4458, "lat_deg": 33.997317123177176, "lon_deg": -117.99402508168345, "altitude_rel_ft": 63.6118, "ground_speed_ft_s": 27.9298, "vel_north_m_s": -7.6326, "vel_east_m_s": -7.9273, "vel_down_m_s": 0.5856, "battery_remain_pct": 53.6477}
{"t_rx_ms": 1774580919196, "run_id": "SIM_TEST", "seq": 96, "pitch_deg": -5.945, "yaw_deg": 273.6455, "roll_deg": 11.3227, "lat_deg": 34.0023501959421, "lon_deg": -117.9958417627467, "altitude_rel_ft": 37.4252, "ground_speed_ft_s": 51.9103, "vel_north_m_s": -6.6712, "vel_east_m_s": -1.8421, "vel_down_m_s": -0.525, "battery_remain_pct": 59.7611}
{"t_rx_ms": 1774580919297, "run_id": "SIM_TEST", "seq": 97, "pitch_deg": 4.1688, "yaw_deg": 187.052, "roll_deg": -6.9639, "lat_deg": 33.994304066901385, "lon_deg": -117.99310211898089, "altitude_rel_ft": 89.3098, "ground_speed_ft_s": 48.3636, "vel_north_m_s": -6.5996, "vel_east_m_s": 7.7727, "vel_down_m_s": -0.1536, "battery_remain_pct": 56.3912}
{"t_rx_ms": 1774580919399, "run_id": "SIM_TEST", "seq": 98, "pitch_deg": -4.7071, "yaw_deg": 335.6328, "roll_deg": -11.485, "lat_deg": 34.001091912836955, "lon_deg": -117.99559044923885, "altitude_rel_ft": 21.6111, "ground_speed_ft_s": 14.4112, "vel_north_m_s": -0.377, "vel_east_m_s": 2.3144, "vel_down_m_s": 0.1077, "battery_remain_pct": 50.5245}
{"t_rx_ms": 1774580919499, "run_id": "SIM_TEST", "seq": 99, "pitch_deg": -9.9573, "yaw_deg": 182.5569, "roll_deg": 4.2625, "lat_deg": 33.99130335647476, "lon_deg": -117.99136948838559, "altitude_rel_ft": 89.3744, "ground_speed_ft_s": 21.5858, "vel_north_m_s": -8.2567, "vel_east_m_s": -2.1751, "vel_down_m_s": 0.9438, "battery_remain_pct": 83.1617}
{"t_rx_ms": 1774580919600, "run_id": "SIM_TEST", "seq": 100, "pitch_deg": 7.6474, "yaw_deg": 137.0617, "roll_deg": -2.9312, "lat_deg": 34.00891049891265, "lon_deg": -118.00754658188913, "altitude_rel_ft": 32.9077, "ground_speed_ft_s": 5.0244, "vel_north_m_s": 6.7959, "vel_east_m_s": 2.1214, "vel_down_m_s": -0.6012, "battery_remain_pct": 85.0186}
{"t_rx_ms": 1774580919701, "run_id": "SIM_TEST", "seq": 101, "pitch_deg": 8.7951, "yaw_deg": 122.9876, "roll_deg": -12.7198, "lat_deg": 34.00841891252543, "lon_deg": -117.99579467669925, "altitude_rel_ft": 86.9441, "ground_speed_ft_s": 27.8207, "vel_north_m_s": -5.9775, "vel_east_m_s": -7.078, "vel_down_m_s": 0.8384, "battery_remain_pct": 54.2269}
{"t_rx_ms": 1774580919802, "run_id": "SIM_TEST", "seq": 102, "pitch_deg": -7.0022, "yaw_deg": 322.294, "roll_deg": 3.4258, "lat_deg": 34.00375058768102, "lon_deg": -117.99336751315549, "altitude_rel_ft": 75.4089, "ground_speed_ft_s": 23.0142, "vel_north_m_s": -1.1086, "vel_east_m_s": -4.7888, "vel_down_m_s": 0.6872, "battery_remain_pct": 84.5864}
{"t_rx_ms": 1774580919904, "run_id": "SIM_TEST", "seq": 103, "pitch_deg": 6.6902, "yaw_deg": 51.5876, "roll_deg": -5.8173, "lat_deg": 34.001024507481375, "lon_deg": -117.99162327000619, "altitude_rel_ft": 79.5664, "ground_speed_ft_s": 5.5247, "vel_north_m_s": -5.5694, "vel_east_m_s": -4.0794, "vel_down_m_s": -0.9474, "battery_remain_pct": 95.618}
{"t_rx_ms": 1774580920005, "run_id": "SIM_TEST", "seq": 104, "pitch_deg": 6.2991, "yaw_deg": 65.0327, "roll_deg": -12.0816, "lat_deg": 34.00548647388711, "lon_deg": -117.99044154097098, "altitude_rel_ft": 55.3013, "ground_speed_ft_s": 38.2339, "vel_north_m_s": 6.7989, "vel_east_m_s": -1.0135, "vel_down_m_s": -0.4133, "battery_remain_pct": 80.3459}
{"t_rx_ms": 1774580920106, "run_id": "SIM_TEST", "seq": 105, "pitch_deg": 6.4931, "yaw_deg": 90.773, "roll_deg": -13.1527, "lat_deg": 33.99707635793486, "lon_deg": -117.99942401346121, "altitude_rel_ft": 70.9141, "ground_speed_ft_s": 17.1579, "vel_north_m_s": 3.6506, "vel_east_m_s": 2.7682, "vel_down_m_s": -0.395, "battery_remain_pct": 95.7141}
{"t_rx_ms": 1774580920207, "run_id": "SIM_TEST", "seq": 106, "pitch_deg": 3.9062, "yaw_deg": 194.5209, "roll_deg": -11.9905, "lat_deg": 34.00304350806794, "lon_deg": -118.00447437094311, "altitude_rel_ft": 40.3099, "ground_speed_ft_s": 53.4793, "vel_north_m_s": 1.0828, "vel_east_m_s": 9.1613, "vel_down_m_s": -0.8162, "battery_remain_pct": 99.5574}
{"t_rx_ms": 1774580920308, "run_id": "SIM_TEST", "seq": 107, "pitch_deg": 6.9154, "yaw_deg": 240.1152, "roll_deg": -1.8552, "lat_deg": 33.99745661617578, "lon_deg": -117.9958933618455, "altitude_rel_ft": 43.8027, "ground_speed_ft_s": 45.9351, "vel_north_m_s": 7.506, "vel_east_m_s": 3.5453, "vel_down_m_s": -0.8487, "battery_remain_pct": 81.0944}
{"t_rx_ms": 1774580920410, "run_id": "SIM_TEST", "seq": 108, "pitch_deg": -6.7531, "yaw_deg": 180.6139, "roll_deg": 8.1047, "lat_deg": 33.994920219577, "lon_deg": -118.00577904656022, "altitude_rel_ft": 60.698, "ground_speed_ft_s": 23.9468, "vel_north_m_s": 3.957, "vel_east_m_s": -7.5582, "vel_down_m_s": 0.551, "battery_remain_pct": 73.7303}
{"t_rx_ms": 1774580920511, "run_id": "SIM_TEST", "seq": 109, "pitch_deg": 1.3405, "yaw_deg": 89.977, "roll_deg": 11.221, "lat_deg": 33.99639889198899, "lon_deg": -117.99590610430569, "altitude_rel_ft": 36.2672, "ground_speed_ft_s": 36.6157, "vel_north_m_s": 5.8848, "vel_east_m_s": -8.5985, "vel_down_m_s": 0.1397, "battery_remain_pct": 94.1707}
{"t_rx_ms": 1774580920612, "run_id": "SIM_TEST", "seq": 110, "pitch_deg": 6.583, "yaw_deg": 319.4502, "roll_deg": -10.0826, "lat_deg": 33.998432277655226, "lon_deg": -118.00274663695149, "altitude_rel_ft": 65.1107, "ground_speed_ft_s": 39.6396, "vel_north_m_s": -2.7761, "vel_east_m_s": -6.0835, "vel_down_m_s": -0.1681, "battery_remain_pct": 65.9942}
{"t_rx_ms": 1774580920714, "run_id": "SIM_TEST", "seq": 111, "pitch_deg": -4.1222, "yaw_deg": 299.1801, "roll_deg": -14.6179, "lat_deg": 34.00951065592473, "lon_deg": -117.99863907509557, "altitude_rel_ft": 96.6662, "ground_speed_ft_s": 48.3939, "vel_north_m_s": 8.5131, "vel_east_m_s": -6.2081, "vel_down_m_s": 0.6707, "battery_remain_pct": 63.0166}
{"t_rx_ms": 1774580920815, "run_id": "SIM_TEST", "seq": 112, "pitch_deg": 0.5139, "yaw_deg": 181.6265, "roll_deg": -2.1388, "lat_deg": 33.991353208843016, "lon_deg": -118.007670566624, "altitude_rel_ft": 76.7385, "ground_speed_ft_s": 50.2515, "vel_north_m_s": -7.9442, "vel_east_m_s": 4.5114, "vel_down_m_s": -0.968, "battery_remain_pct": 56.1869}
{"t_rx_ms": 1774580920916, "run_id": "SIM_TEST", "seq": 113, "pitch_deg": 3.5258, "yaw_deg": 125.667, "roll_deg": 13.5706, "lat_deg": 34.00778707767803, "lon_deg": -118.00017024221515, "altitude_rel_ft": 62.8789, "ground_speed_ft_s": 18.953, "vel_north_m_s": 0.7581, "vel_east_m_s": -4.4125, "vel_down_m_s": 0.7017, "battery_remain_pct": 67.8719}
{"t_rx_ms": 1774580921017, "run_id": "SIM_TEST", "seq": 114, "pitch_deg": 8.1171, "yaw_deg": 289.12, "roll_deg": -14.0166, "lat_deg": 33.99302694236749, "lon_deg": -117.99163971007634, "altitude_rel_ft": 49.7765, "ground_speed_ft_s": 34.1499, "vel_north_m_s": -9.0068, "vel_east_m_s": -9.5767, "vel_down_m_s": -0.3035, "battery_remain_pct": 59.676}
{"t_rx_ms": 1774580921118, "run_id": "SIM_TEST", "seq": 115, "pitch_deg": 1.0568, "yaw_deg": 139.3, "roll_deg": 4.566, "lat_deg": 34.00706255611597, "lon_deg": -118.00118034718558, "altitude_rel_ft": 69.7572, "ground_speed_ft_s": 31.1368, "vel_north_m_s": 7.5599, "vel_east_m_s": -2.2994, "vel_down_m_s": -0.8517, "battery_remain_pct": 69.9727}
{"t_rx_ms": 1774580921219, "run_id": "SIM_TEST", "seq": 116, "pitch_deg": 0.9741, "yaw_deg": 13.8925, "roll_deg": -7.3097, "lat_deg": 34.00852050041025, "lon_deg": -117.99515287802294, "altitude_rel_ft": 24.6847, "ground_speed_ft_s": 56.7868, "vel_north_m_s": 5.246, "vel_east_m_s": 6.5377, "vel_down_m_s": -0.1389, "battery_remain_pct": 82.2122}
{"t_rx_ms": 1774580921321, "run_id": "SIM_TEST", "seq": 117, "pitch_deg": 4.3349, "yaw_deg": 57.632, "roll_deg": 14.2821, "lat_deg": 34.0041487574576, "lon_deg": -117.99434017036953, "altitude_rel_ft": 89.9701, "ground_speed_ft_s": 10.1777, "vel_north_m_s": -2.8332, "vel_east_m_s": 5.1818, "vel_down_m_s": 0.3578, "battery_remain_pct": 98.8038}
{"t_rx_ms": 1774580921422, "run_id": "SIM_TEST", "seq": 118, "pitch_deg": -9.8546, "yaw_deg": 196.6202, "roll_deg": 0.8689, "lat_deg": 34.008739087501276, "lon_deg": -118.00238653573334, "altitude_rel_ft": 88.7658, "ground_speed_ft_s": 29.0749, "vel_north_m_s": -5.5327, "vel_east_m_s": -3.4436, "vel_down_m_s": 0.791, "battery_remain_pct": 57.7241}
{"t_rx_ms": 1774580921523, "run_id": "SIM_TEST", "seq": 119, "pitch_deg": 5.5333, "yaw_deg": 8.502, "roll_deg": 9.1187, "lat_deg": 34.00585298349813, "lon_deg": -117.99166836250535, "altitude_rel_ft": 89.4168, "ground_speed_ft_s": 27.5343, "vel_north_m_s": 4.1991, "vel_east_m_s": 4.9859, "vel_down_m_s": 0.9561, "battery_remain_pct": 96.3883}
{"t_rx_ms": 1774580921624, "run_id": "SIM_TEST", "seq": 120, "pitch_deg": 7.9146, "yaw_deg": 97.5902, "roll_deg": -13.8072, "lat_deg": 33.993957958384186, "lon_deg": -118.00263711692045, "altitude_rel_ft": 67.705, "ground_speed_ft_s": 49.7841, "vel_north_m_s": -2.3969, "vel_east_m_s": 3.7982, "vel_down_m_s": 0.1175, "battery_remain_pct": 54.842}
{"t_rx_ms": 1774580921725, "run_id": "SIM_TEST", "seq": 121, "pitch_deg": -5.8687, "yaw_deg": 225.9901, "roll_deg": -1.5509, "lat_deg": 33.99112060838134, "lon_deg": -118.00112323273089, "altitude_rel_ft": 21.2399, "ground_speed_ft_s": 31.1185, "vel_north_m_s": 1.7344, "vel_east_m_s": 7.9848, "vel_down_m_s": 0.2058, "battery_remain_pct": 85.8393}
{"t_rx_ms": 1774580921827, "run_id": "SIM_TEST", "seq": 122, "pitch_deg": 2.8478, "yaw_deg": 214.2477, "roll_deg": -4.8653, "lat_deg": 33.99089552354881, "lon_deg": -117.992777093565, "altitude_rel_ft": 93.955, "ground_speed_ft_s": 6.343, "vel_north_m_s": 2.8258, "vel_east_m_s": -1.943, "vel_down_m_s": -0.305, "battery_remain_pct": 54.4366}
{"t_rx_ms": 1774580921928, "run_id": "SIM_TEST", "seq": 123, "pitch_deg": -3.2026, "yaw_deg": 331.2876, "roll_deg": -3.4083, "lat_deg": 33.997276605098754, "lon_deg": -117.99631234143571, "altitude_rel_ft": 23.4466, "ground_speed_ft_s": 30.1108, "vel_north_m_s": 9.8923, "vel_east_m_s": 7.8603, "vel_down_m_s": -0.9953, "battery_remain_pct": 61.1803}
{"t_rx_ms": 1774580922029, "run_id": "SIM_TEST", "seq": 124, "pitch_deg": -9.7598, "yaw_deg": 207.5117, "roll_deg": 5.2579, "lat_deg": 34.001856178720445, "lon_deg": -117.9959271433778, "altitude_rel_ft": 34.8909, "ground_speed_ft_s": 6.1392, "vel_north_m_s": 5.1134, "vel_east_m_s": -6.3478, "vel_down_m_s": -0.2052, "battery_remain_pct": 74.1761}
{"t_rx_ms": 1774580922130, "run_id": "SIM_TEST", "seq": 125, "pitch_deg": 9.8433, "yaw_deg": 244.4223, "roll_deg": 13.11, "lat_deg": 34.009331137376826, "lon_deg": -117.99736164311781, "altitude_rel_ft": 46.1398, "ground_speed_ft_s": 40.3352, "vel_north_m_s": -5.3473, "vel_east_m_s": -5.8674, "vel_down_m_s": 0.9404, "battery_remain_pct": 71.9957}
{"t_rx_ms": 1774580922230, "run_id": "SIM_TEST", "seq": 126, "pitch_deg": 6.653, "yaw_deg": 244.7654, "roll_deg": 2.8734, "lat_deg": 33.99127437086252, "lon_deg": -117.9979216328548, "altitude_rel_ft": 28.1752, "ground_speed_ft_s": 18.8673, "vel_north_m_s": -9.2373, "vel_east_m_s": -8.4344, "vel_down_m_s": -0.2051, "battery_remain_pct": 85.5846}
{"t_rx_ms": 1774580922331, "run_id": "SIM_TEST", "seq": 127, "pitch_deg": 7.2366, "yaw_deg": 239.9094, "roll_deg": 5.5407, "lat_deg": 34.005555138440414, "lon_deg": -117.99426767344676, "altitude_rel_ft": 27.5314, "ground_speed_ft_s": 13.4522, "vel_north_m_s": -7.0838, "vel_east_m_s": -1.5944, "vel_down_m_s": -0.7185, "battery_remain_pct": 68.8477}
{"t_rx_ms": 1774580922432, "run_id": "SIM_TEST", "seq": 128, "pitch_deg": -4.4734, "yaw_deg": 103.2733, "roll_deg": 13.8826, "lat_deg": 34.00319714220633, "lon_deg": -117.99199937839647, "altitude_rel_ft": 55.6795, "ground_speed_ft_s": 11.9341, "vel_north_m_s": 5.2469, "vel_east_m_s": -5.2823, "vel_down_m_s": 0.9232, "battery_remain_pct": 50.5727}
{"t_rx_ms": 1774580922533, "run_id": "SIM_TEST", "seq": 129, "pitch_deg": 5.2392, "yaw_deg": 126.3845, "roll_deg": -2.6391, "lat_deg": 34.0034215870882, "lon_deg": -118.00676265420995, "altitude_rel_ft": 71.0988, "ground_speed_ft_s": 44.475, "vel_north_m_s": 5.8584, "vel_east_m_s": -2.2657, "vel_down_m_s": -0.7283, "battery_remain_pct": 77.1334}
{"t_rx_ms": 1774580922634, "run_id": "SIM_TEST", "seq": 130, "pitch_deg": -4.329, "yaw_deg": 149.0743, "roll_deg": -0.7135, "lat_deg": 34.00598514963256, "lon_deg": -118.00156073960956, "altitude_rel_ft": 24.7668, "ground_speed_ft_s": 32.5091, "vel_north_m_s": 6.4358, "vel_east_m_s": 0.6144, "vel_down_m_s": 0.7837, "battery_remain_pct": 65.7045}
{"t_rx_ms": 1774580922735, "run_id": "SIM_TEST", "seq": 131, "pitch_deg": 6.6068, "yaw_deg": 210.097, "roll_deg": 10.7156, "lat_deg": 33.992077781336796, "lon_deg": -117.9910088950381, "altitude_rel_ft": 52.5664, "ground_speed_ft_s": 52.0698, "vel_north_m_s": -3.1483, "vel_east_m_s": -3.0348, "vel_down_m_s": 0.2318, "battery_remain_pct": 59.1057}
{"t_rx_ms": 1774580922835, "run_id": "SIM_TEST", "seq": 132, "pitch_deg": -6.0525, "yaw_deg": 271.9284, "roll_deg": -5.2721, "lat_deg": 33.99877679472657, "lon_deg": -117.9961857195676, "altitude_rel_ft": 82.439, "ground_speed_ft_s": 30.1596, "vel_north_m_s": -7.4445, "vel_east_m_s": -8.7401, "vel_down_m_s": 0.1652, "battery_remain_pct": 93.5639}
{"t_rx_ms": 1774580922936, "run_id": "SIM_TEST", "seq": 133, "pitch_deg": 8.3511, "yaw_deg": 206.6134, "roll_deg": -11.6348, "lat_deg": 33.99703911674066, "lon_deg": -118.0036721713861, "altitude_rel_ft": 79.2806, "ground_speed_ft_s": 52.0036, "vel_north_m_s": 4.4854, "vel_east_m_s": 6.2799, "vel_down_m_s": -0.8008, "battery_remain_pct": 99.3283}
{"t_rx_ms": 1774580923037, "run_id": "SIM_TEST", "seq": 134, "pitch_deg": -7.1277, "yaw_deg": 17.4227, "roll_deg": 9.0299, "lat_deg": 33.99411780754313, "lon_deg": -118.00706891868583, "altitude_rel_ft": 96.5737, "ground_speed_ft_s": 58.9356, "vel_north_m_s": 3.8036, "vel_east_m_s": 2.4433, "vel_down_m_s": -0.3161, "battery_remain_pct": 54.1728}
{"t_rx_ms": 1774580923137, "run_id": "SIM_TEST", "seq": 135, "pitch_deg": 8.008, "yaw_deg": 130.4099, "roll_deg": -9.2658, "lat_deg": 33.99204567820652, "lon_deg": -118.0027736572046, "altitude_rel_ft": 45.7048, "ground_speed_ft_s": 44.9642, "vel_north_m_s": -3.5896, "vel_east_m_s": -6.6656, "vel_down_m_s": 0.1782, "battery_remain_pct": 78.1475}
{"t_rx_ms": 1774580923238, "run_id": "SIM_TEST", "seq": 136, "pitch_deg": 9.6052, "yaw_deg": 36.343, "roll_deg": 12.725, "lat_deg": 34.00910994116818, "lon_deg": -117.997608039192, "altitude_rel_ft": 46.3418, "ground_speed_ft_s": 56.5519, "vel_north_m_s": 0.0503, "vel_east_m_s": 5.0673, "vel_down_m_s": 0.7116, "battery_remain_pct": 67.5713}
{"t_rx_ms": 1774580923339, "run_id": "SIM_TEST", "seq": 137, "pitch_deg": -2.1881, "yaw_deg": 293.3472, "roll_deg": 4.4445, "lat_deg": 34.002641719789, "lon_deg": -118.00275296872118, "altitude_rel_ft": 56.2277, "ground_speed_ft_s": 57.9772, "vel_north_m_s": 0.5591, "vel_east_m_s": 7.4811, "vel_down_m_s": -0.1868, "battery_remain_pct": 94.8055}
{"t_rx_ms": 1774580923440, "run_id": "SIM_TEST", "seq": 138, "pitch_deg": 1.9184, "yaw_deg": 94.4844, "roll_deg": 13.8376, "lat_deg": 34.00232566161789, "lon_deg": -118.00140574315094, "altitude_rel_ft": 33.94, "ground_speed_ft_s": 37.9885, "vel_north_m_s": 5.3385, "vel_east_m_s": -3.3053, "vel_down_m_s": -0.39, "battery_remain_pct": 61.0131}
{"t_rx_ms": 1774580923540, "run_id": "SIM_TEST", "seq": 139, "pitch_deg": -7.462, "yaw_deg": 48.6637, "roll_deg": 13.1803, "lat_deg": 33.99828564678427, "lon_deg": -117.99490353145941, "altitude_rel_ft": 26.302, "ground_speed_ft_s": 44.8677, "vel_north_m_s": -0.4267, "vel_east_m_s": 2.6878, "vel_down_m_s": 0.9534, "battery_remain_pct": 99.781}
{"t_rx_ms": 1774580923641, "run_id": "SIM_TEST", "seq": 140, "pitch_deg": -3.1958, "yaw_deg": 164.2573, "roll_deg": 7.3192, "lat_deg": 33.998893908235324, "lon_deg": -118.00819726114369, "altitude_rel_ft": 43.4857, "ground_speed_ft_s": 8.0765, "vel_north_m_s": 1.2723, "vel_east_m_s": -4.4793, "vel_down_m_s": -0.0089, "battery_remain_pct": 76.0795}
{"t_rx_ms": 1774580923742, "run_id": "SIM_TEST", "seq": 141, "pitch_deg": -4.9956, "yaw_deg": 62.1695, "roll_deg": 12.6734, "lat_deg": 34.006142677064645, "lon_deg": -118.00539064725281, "altitude_rel_ft": 57.908, "ground_speed_ft_s": 24.3453, "vel_north_m_s": -2.495, "vel_east_m_s": -8.7497, "vel_down_m_s": -0.5579, "battery_remain_pct": 97.5401}
{"t_rx_ms": 1774580923842, "run_id": "SIM_TEST", "seq": 142, "pitch_deg": 4.8987, "yaw_deg": 17.0641, "roll_deg": -12.8316, "lat_deg": 33.99155099429115, "lon_deg": -117.99515447470093, "altitude_rel_ft": 30.7898, "ground_speed_ft_s": 8.0416, "vel_north_m_s": 1.7484, "vel_east_m_s": -2.6669, "vel_down_m_s": 0.6093, "battery_remain_pct": 57.8683}
{"t_rx_ms": 1774580923943, "run_id": "SIM_TEST", "seq": 143, "pitch_deg": 0.7129, "yaw_deg": 154.8114, "roll_deg": 2.0811, "lat_deg": 34.004345651084286, "lon_deg": -117.99373950957491, "altitude_rel_ft": 55.5067, "ground_speed_ft_s": 56.2642, "vel_north_m_s": 0.4365, "vel_east_m_s": 4.7783, "vel_down_m_s": -0.5648, "battery_remain_pct": 89.2018}
{"t_rx_ms": 1774580924044, "run_id": "SIM_TEST", "seq": 144, "pitch_deg": -9.032, "yaw_deg": 245.7793, "roll_deg": -3.6078, "lat_deg": 33.999998380437795, "lon_deg": -118.00539294607086, "altitude_rel_ft": 37.7855, "ground_speed_ft_s": 11.9011, "vel_north_m_s": -5.1349, "vel_east_m_s": 2.2693, "vel_down_m_s": -0.3525, "battery_remain_pct": 71.1815}
{"t_rx_ms": 1774580924145, "run_id": "SIM_TEST", "seq": 145, "pitch_deg": -3.4205, "yaw_deg": 90.4245, "roll_deg": 8.8165, "lat_deg": 34.00255696953143, "lon_deg": -117.99326150273463, "altitude_rel_ft": 64.3869, "ground_speed_ft_s": 11.2705, "vel_north_m_s": -7.3892, "vel_east_m_s": -5.0555, "vel_down_m_s": 0.9352, "battery_remain_pct": 94.2634}
{"t_rx_ms": 1774580924246, "run_id": "SIM_TEST", "seq": 146, "pitch_deg": 0.083, "yaw_deg": 120.1407, "roll_deg": 11.2467, "lat_deg": 33.99147010811233, "lon_deg": -117.99672185677468, "altitude_rel_ft": 86.2059, "ground_speed_ft_s": 5.2502, "vel_north_m_s": -8.4009, "vel_east_m_s": -7.4776, "vel_down_m_s": 0.6377, "battery_remain_pct": 75.366}
{"t_rx_ms": 1774580924347, "run_id": "SIM_TEST", "seq": 147, "pitch_deg": -5.9753, "yaw_deg": 124.547, "roll_deg": 8.127, "lat_deg": 34.00625314455005, "lon_deg": -117.99951092963472, "altitude_rel_ft": 38.005, "ground_speed_ft_s": 53.3179, "vel_north_m_s": -1.8192, "vel_east_m_s": -0.5728, "vel_down_m_s": 0.443, "battery_remain_pct": 84.346}
{"t_rx_ms": 1774580924448, "run_id": "SIM_TEST", "seq": 148, "pitch_deg": -4.4187, "yaw_deg": 139.5875, "roll_deg": -6.0866, "lat_deg": 33.99776028333872, "lon_deg": -117.99591031379389, "altitude_rel_ft": 88.867, "ground_speed_ft_s": 56.3918, "vel_north_m_s": 3.7243, "vel_east_m_s": 5.3606, "vel_down_m_s": 0.089, "battery_remain_pct": 96.6121}
{"t_rx_ms": 1774580924549, "run_id": "SIM_TEST", "seq": 149, "pitch_deg": 8.1234, "yaw_deg": 10.2648, "roll_deg": 3.2226, "lat_deg": 34.00246202906071, "lon_deg": -118.00600198612273, "altitude_rel_ft": 25.6161, "ground_speed_ft_s": 19.9126, "vel_north_m_s": 6.7197, "vel_east_m_s": -6.5995, "vel_down_m_s": 0.3136, "battery_remain_pct": 99.3895}
{"t_rx_ms": 1774580924650, "run_id": "SIM_TEST", "seq": 150, "pitch_deg": 9.5385, "yaw_deg": 137.9467, "roll_deg": 14.0779, "lat_deg": 34.00231142495013, "lon_deg": -118.00387449017704, "altitude_rel_ft": 72.1162, "ground_speed_ft_s": 8.265, "vel_north_m_s": 7.5438, "vel_east_m_s": 3.014, "vel_down_m_s": 0.0122, "battery_remain_pct": 53.6018}
{"t_rx_ms": 1774580924751, "run_id": "SIM_TEST", "seq": 151, "pitch_deg": 2.9268, "yaw_deg": 149.1487, "roll_deg": 4.1112, "lat_deg": 33.99552732743995, "lon_deg": -118.00284848772846, "altitude_rel_ft": 59.7777, "ground_speed_ft_s": 29.0668, "vel_north_m_s": -2.0602, "vel_east_m_s": 8.9732, "vel_down_m_s": 0.9747, "battery_remain_pct": 74.8921}
{"t_rx_ms": 1774580924851, "run_id": "SIM_TEST", "seq": 152, "pitch_deg": -0.5523, "yaw_deg": 156.2792, "roll_deg": 6.2235, "lat_deg": 34.00705191768026, "lon_deg": -118.00577245278043, "altitude_rel_ft": 56.9889, "ground_speed_ft_s": 42.1567, "vel_north_m_s": -5.0445, "vel_east_m_s": -9.6452, "vel_down_m_s": 0.5841, "battery_remain_pct": 82.706}
{"t_rx_ms": 1774580924952, "run_id": "SIM_TEST", "seq": 153, "pitch_deg": 5.3826, "yaw_deg": 325.9528, "roll_deg": 5.2324, "lat_deg": 33.99575092981884, "lon_deg": -118.00275964684104, "altitude_rel_ft": 61.9348, "ground_speed_ft_s": 11.3072, "vel_north_m_s": 5.177, "vel_east_m_s": -1.9934, "vel_down_m_s": -0.4143, "battery_remain_pct": 85.6595}
{"t_rx_ms": 1774580925053, "run_id": "SIM_TEST", "seq": 154, "pitch_deg": 2.9882, "yaw_deg": 179.4821, "roll_deg": 4.7826, "lat_deg": 34.00933793114097, "lon_deg": -117.99409691246039, "altitude_rel_ft": 70.3074, "ground_speed_ft_s": 32.1137, "vel_north_m_s": -5.3169, "vel_east_m_s": -2.3219, "vel_down_m_s": -0.9396, "battery_remain_pct": 63.4991}
{"t_rx_ms": 1774580925154, "run_id": "SIM_TEST", "seq": 155, "pitch_deg": -6.3725, "yaw_deg": 238.3824, "roll_deg": -6.7523, "lat_deg": 34.00127777871331, "lon_deg": -118.0083518155272, "altitude_rel_ft": 34.7483, "ground_speed_ft_s": 59.5242, "vel_north_m_s": 6.0127, "vel_east_m_s": 6.6044, "vel_down_m_s": -0.7045, "battery_remain_pct": 98.1129}
{"t_rx_ms": 1774580925255, "run_id": "SIM_TEST", "seq": 156, "pitch_deg": -4.2835, "yaw_deg": 50.8431, "roll_deg": -6.8317, "lat_deg": 34.008118849945355, "lon_deg": -117.99891931263214, "altitude_rel_ft": 58.5272, "ground_speed_ft_s": 26.1724, "vel_north_m_s": 9.8563, "vel_east_m_s": -8.7082, "vel_down_m_s": -0.5117, "battery_remain_pct": 54.2049}
{"t_rx_ms": 1774580925355, "run_id": "SIM_TEST", "seq": 157, "pitch_deg": -5.7703, "yaw_deg": 40.014, "roll_deg": -0.9087, "lat_deg": 34.005905615790624, "lon_deg": -117.99126613712512, "altitude_rel_ft": 95.918, "ground_speed_ft_s": 12.2659, "vel_north_m_s": 9.7144, "vel_east_m_s": -7.7659, "vel_down_m_s": 0.9458, "battery_remain_pct": 95.523}
{"t_rx_ms": 1774580925456, "run_id": "SIM_TEST", "seq": 158, "pitch_deg": 3.5923, "yaw_deg": 120.4423, "roll_deg": 10.1435, "lat_deg": 33.99814819636509, "lon_deg": -118.00443935490594, "altitude_rel_ft": 54.1435, "ground_speed_ft_s": 33.2046, "vel_north_m_s": -5.4211, "vel_east_m_s": -4.4435, "vel_down_m_s": 0.4864, "battery_remain_pct": 76.8246}
{"t_rx_ms": 1774580925557, "run_id": "SIM_TEST", "seq": 159, "pitch_deg": 4.5054, "yaw_deg": 317.7512, "roll_deg": -7.6273, "lat_deg": 33.999764397022645, "lon_deg": -117.99527049684488, "altitude_rel_ft": 42.2421, "ground_speed_ft_s": 32.8608, "vel_north_m_s": -2.0455, "vel_east_m_s": -6.3602, "vel_down_m_s": 0.1746, "battery_remain_pct": 84.2108}
{"t_rx_ms": 1774580925657, "run_id": "SIM_TEST", "seq": 160, "pitch_deg": 9.921, "yaw_deg": 188.2157, "roll_deg": 1.3871, "lat_deg": 34.00952658242104, "lon_deg": -118.008781536776, "altitude_rel_ft": 61.209, "ground_speed_ft_s": 52.2373, "vel_north_m_s": 2.9455, "vel_east_m_s": 8.9812, "vel_down_m_s": -0.2352, "battery_remain_pct": 76.3124}
{"t_rx_ms": 1774580925758, "run_id": "SIM_TEST", "seq": 161, "pitch_deg": -4.4106, "yaw_deg": 227.9569, "roll_deg": 7.6504, "lat_deg": 33.99868006899185, "lon_deg": -118.00957216759967, "altitude_rel_ft": 43.3554, "ground_speed_ft_s": 47.1722, "vel_north_m_s": 4.9966, "vel_east_m_s": -4.1939, "vel_down_m_s": 0.4427, "battery_remain_pct": 80.6931}
{"t_rx_ms": 1774580925858, "run_id": "SIM_TEST", "seq": 162, "pitch_deg": 5.0323, "yaw_deg": 207.5888, "roll_deg": 4.2987, "lat_deg": 34.00587448497121, "lon_deg": -118.00897399650128, "altitude_rel_ft": 27.2827, "ground_speed_ft_s": 54.0083, "vel_north_m_s": 2.2099, "vel_east_m_s": 9.1193, "vel_down_m_s": -0.0265, "battery_remain_pct": 58.9969}
{"t_rx_ms": 1774580925959, "run_id": "SIM_TEST", "seq": 163, "pitch_deg": -7.7929, "yaw_deg": 241.0169, "roll_deg": -4.9915, "lat_deg": 34.00075953311283, "lon_deg": -118.00381809094793, "altitude_rel_ft": 94.0478, "ground_speed_ft_s": 5.0886, "vel_north_m_s": 5.7004, "vel_east_m_s": 5.4814, "vel_down_m_s": -0.46, "battery_remain_pct": 66.0548}
{"t_rx_ms": 1774580926060, "run_id": "SIM_TEST", "seq": 164, "pitch_deg": 0.6366, "yaw_deg": 331.0337, "roll_deg": -10.2367, "lat_deg": 34.00889924904485, "lon_deg": -117.99180093953034, "altitude_rel_ft": 43.2926, "ground_speed_ft_s": 23.7046, "vel_north_m_s": -7.1947, "vel_east_m_s": -5.2614, "vel_down_m_s": -0.2354, "battery_remain_pct": 60.6184}
{"t_rx_ms": 1774580926160, "run_id": "SIM_TEST", "seq": 165, "pitch_deg": -3.41, "yaw_deg": 301.0719, "roll_deg": 12.9416, "lat_deg": 34.002027986584885, "lon_deg": -117.99941435309975, "altitude_rel_ft": 87.6846, "ground_speed_ft_s": 23.8748, "vel_north_m_s": 2.3248, "vel_east_m_s": 6.0066, "vel_down_m_s": 0.257, "battery_remain_pct": 86.5107}
{"t_rx_ms": 1774580926261, "run_id": "SIM_TEST", "seq": 166, "pitch_deg": -5.0178, "yaw_deg": 87.107, "roll_deg": -6.8466, "lat_deg": 33.998209274032554, "lon_deg": -118.0005264787098, "altitude_rel_ft": 51.5105, "ground_speed_ft_s": 52.6766, "vel_north_m_s": -1.2546, "vel_east_m_s": -1.2442, "vel_down_m_s": 0.8155, "battery_remain_pct": 51.4929}
{"t_rx_ms": 1774580926361, "run_id": "SIM_TEST", "seq": 167, "pitch_deg": 7.0199, "yaw_deg": 288.6118, "roll_deg": 6.8765, "lat_deg": 33.99698324994447, "lon_deg": -117.9970158708382, "altitude_rel_ft": 59.5793, "ground_speed_ft_s": 33.435, "vel_north_m_s": 4.0574, "vel_east_m_s": -9.734, "vel_down_m_s": -0.5036, "battery_remain_pct": 54.5552}
{"t_rx_ms": 1774580926462, "run_id": "SIM_TEST", "seq": 168, "pitch_deg": -4.4902, "yaw_deg": 166.315, "roll_deg": 8.7276, "lat_deg": 33.991667922871656, "lon_deg": -117.99012907134023, "altitude_rel_ft": 65.508, "ground_speed_ft_s": 53.647, "vel_north_m_s": 3.0338, "vel_east_m_s": 1.3396, "vel_down_m_s": -0.6407, "battery_remain_pct": 53.0283}
{"t_rx_ms": 1774580926562, "run_id": "SIM_TEST", "seq": 169, "pitch_deg": 7.0241, "yaw_deg": 230.3142, "roll_deg": -2.3363, "lat_deg": 33.99682381257965, "lon_deg": -117.99195265982499, "altitude_rel_ft": 69.42, "ground_speed_ft_s": 38.3628, "vel_north_m_s": 2.2454, "vel_east_m_s": -2.9971, "vel_down_m_s": 0.3186, "battery_remain_pct": 96.9583}
{"t_rx_ms": 1774580926663, "run_id": "SIM_TEST", "seq": 170, "pitch_deg": 4.4446, "yaw_deg": 282.6209, "roll_deg": -6.6733, "lat_deg": 34.00697801716323, "lon_deg": -117.99806269102044, "altitude_rel_ft": 39.1821, "ground_speed_ft_s": 22.4335, "vel_north_m_s": 1.1917, "vel_east_m_s": -0.1741, "vel_down_m_s": -0.6855, "battery_remain_pct": 68.6798}
{"t_rx_ms": 1774580926764, "run_id": "SIM_TEST", "seq": 171, "pitch_deg": 5.5178, "yaw_deg": 265.7134, "roll_deg": -4.8438, "lat_deg": 33.998416225467885, "lon_deg": -118.00591822940062, "altitude_rel_ft": 81.6711, "ground_speed_ft_s": 6.9843, "vel_north_m_s": 9.4372, "vel_east_m_s": -1.6558, "vel_down_m_s": -0.7835, "battery_remain_pct": 52.8187}
