{"t_rx_ms": 1776414822467, "run_id": "SIM_TEST", "seq": 0, "pitch_deg": 0.4951, "yaw_deg": 275.8482, "roll_deg": 9.6219, "lat_deg": 33.99963590457034, "lon_deg": -118.00890837201855, "altitude_rel_ft": 49.4778, "ground_speed_ft_s": 30.5974, "vel_north_m_s": -4.4856, "vel_east_m_s": -1.7165, "vel_down_m_s": -0.5033, "battery_remain_pct": 93.5475}
{"t_rx_ms": 1776414822568, "run_id": "SIM_TEST", "seq": 1, "pitch_deg": 5.2555, "yaw_deg": 337.0945, "roll_deg": -11.0242, "lat_deg": 34.00094780472757, "lon_deg": -118.00899890942912, "altitude_rel_ft": 42.6122, "ground_speed_ft_s": 51.0834, "vel_north_m_s": 9.9986, "vel_east_m_s": -4.3235, "vel_down_m_s": 0.465, "battery_remain_pct": 79.0332}
{"t_rx_ms": 1776414822672, "run_id": "SIM_TEST", "seq": 2, "pitch_deg": -1.0559, "yaw_deg": 176.152, "roll_deg": 6.891, "lat_deg": 33.9956906391542, "lon_deg": -118.00481317572824, "altitude_rel_ft": 66.4017, "ground_speed_ft_s": 47.809, "vel_north_m_s": -0.9069, "vel_east_m_s": 7.9572, "vel_down_m_s": 0.1876, "battery_remain_pct": 99.5377}
{"t_rx_ms": 1776414822772, "run_id": "SIM_TEST", "seq": 3, "pitch_deg": 6.7165, "yaw_deg": 338.2917, "roll_deg": -6.174, "lat_deg": 34.00552610549251, "lon_deg": -118.00701429453981, "altitude_rel_ft": 31.0116, "ground_speed_ft_s": 25.3264, "vel_north_m_s": -0.3093, "vel_east_m_s": -7.9262, "vel_down_m_s": 0.783, "battery_remain_pct": 83.649}
{"t_rx_ms": 1776414822872, "run_id": "SIM_TEST", "seq": 4, "pitch_deg": 8.9777, "yaw_deg": 254.5382, "roll_deg": -1.8177, "lat_deg": 33.99740479514357, "lon_deg": -118.00504942560917, "altitude_rel_ft": 71.9191, "ground_speed_ft_s": 12.6308, "vel_north_m_s": -4.7267, "vel_east_m_s": -6.0708, "vel_down_m_s": 0.8185, "battery_remain_pct": 63.3266}
{"t_rx_ms": 1776414822973, "run_id": "SIM_TEST", "seq": 5, "pitch_deg": 3.2146, "yaw_deg": 95.5553, "roll_deg": 11.3895, "lat_deg": 34.004733967721535, "lon_deg": -118.00197294156519, "altitude_rel_ft": 80.4317, "ground_speed_ft_s": 46.5955, "vel_north_m_s": -2.3706, "vel_east_m_s": -9.0872, "vel_down_m_s": -0.3645, "battery_remain_pct": 99.8041}
{"t_rx_ms": 1776414823073, "run_id": "SIM_TEST", "seq": 6, "pitch_deg": -1.6786, "yaw_deg": 10.9374, "roll_deg": 5.6561, "lat_deg": 33.997972184155486, "lon_deg": -117.99749733488417, "altitude_rel_ft": 67.1576, "ground_speed_ft_s": 37.1773, "vel_north_m_s": 9.4619, "vel_east_m_s": -8.3817, "vel_down_m_s": -0.1192, "battery_remain_pct": 77.717}
{"t_rx_ms": 1776414823174, "run_id": "SIM_TEST", "seq": 7, "pitch_deg": 0.2718, "yaw_deg": 0.8682, "roll_deg": 14.3991, "lat_deg": 34.00182239419668, "lon_deg": -117.99806844028205, "altitude_rel_ft": 33.0772, "ground_speed_ft_s": 39.5044, "vel_north_m_s": -6.4911, "vel_east_m_s": -0.3466, "vel_down_m_s": -0.7147, "battery_remain_pct": 51.8547}
{"t_rx_ms": 1776414823275, "run_id": "SIM_TEST", "seq": 8, "pitch_deg": 9.1054, "yaw_deg": 129.2134, "roll_deg": 10.8475, "lat_deg": 34.00358085395098, "lon_deg": -118.005704276307, "altitude_rel_ft": 25.12, "ground_speed_ft_s": 29.0477, "vel_north_m_s": 7.5894, "vel_east_m_s": 4.3683, "vel_down_m_s": -0.0935, "battery_remain_pct": 86.5362}
{"t_rx_ms": 1776414823375, "run_id": "SIM_TEST", "seq": 9, "pitch_deg": 0.3399, "yaw_deg": 42.9141, "roll_deg": 10.1942, "lat_deg": 34.00501378586197, "lon_deg": -117.99898542393652, "altitude_rel_ft": 63.8973, "ground_speed_ft_s": 22.3645, "vel_north_m_s": 5.9508, "vel_east_m_s": -0.1141, "vel_down_m_s": 0.4147, "battery_remain_pct": 52.542}
{"t_rx_ms": 1776414823476, "run_id": "SIM_TEST", "seq": 10, "pitch_deg": 2.4969, "yaw_deg": 76.9582, "roll_deg": 4.5562, "lat_deg": 34.00983413913907, "lon_deg": -117.99288050067692, "altitude_rel_ft": 40.8176, "ground_speed_ft_s": 27.3815, "vel_north_m_s": -0.0325, "vel_east_m_s": -5.4044, "vel_down_m_s": 0.0164, "battery_remain_pct": 76.9352}
{"t_rx_ms": 1776414823576, "run_id": "SIM_TEST", "seq": 11, "pitch_deg": 1.2656, "yaw_deg": 236.7902, "roll_deg": -9.0401, "lat_deg": 33.99236708428875, "lon_deg": -117.99702708285015, "altitude_rel_ft": 57.834, "ground_speed_ft_s": 50.6592, "vel_north_m_s": 0.3621, "vel_east_m_s": -2.5761, "vel_down_m_s": -0.2814, "battery_remain_pct": 93.474}
{"t_rx_ms": 1776414823677, "run_id": "SIM_TEST", "seq": 12, "pitch_deg": 7.0387, "yaw_deg": 117.5986, "roll_deg": -12.8377, "lat_deg": 34.00034866682774, "lon_deg": -117.99837494676945, "altitude_rel_ft": 49.9098, "ground_speed_ft_s": 23.3254, "vel_north_m_s": 4.5538, "vel_east_m_s": -3.4233, "vel_down_m_s": -0.8007, "battery_remain_pct": 74.2655}
{"t_rx_ms": 1776414823777, "run_id": "SIM_TEST", "seq": 13, "pitch_deg": -3.4818, "yaw_deg": 55.3067, "roll_deg": -0.2333, "lat_deg": 33.998394396885594, "lon_deg": -117.99358231615334, "altitude_rel_ft": 43.4166, "ground_speed_ft_s": 26.6265, "vel_north_m_s": 7.2142, "vel_east_m_s": -8.2313, "vel_down_m_s": -0.7237, "battery_remain_pct": 57.4766}
{"t_rx_ms": 1776414823878, "run_id": "SIM_TEST", "seq": 14, "pitch_deg": -7.2652, "yaw_deg": 147.9573, "roll_deg": 2.6607, "lat_deg": 34.00391039662139, "lon_deg": -118.0018666420235, "altitude_rel_ft": 71.8695, "ground_speed_ft_s": 10.8875, "vel_north_m_s": 0.9552, "vel_east_m_s": -5.4317, "vel_down_m_s": -0.3072, "battery_remain_pct": 79.5588}
{"t_rx_ms": 1776414823979, "run_id": "SIM_TEST", "seq": 15, "pitch_deg": 9.2445, "yaw_deg": 315.3431, "roll_deg": -8.4455, "lat_deg": 34.005470911398305, "lon_deg": -118.00442629459971, "altitude_rel_ft": 34.5578, "ground_speed_ft_s": 24.901, "vel_north_m_s": -4.1351, "vel_east_m_s": -8.0965, "vel_down_m_s": -0.7219, "battery_remain_pct": 98.0802}
{"t_rx_ms": 1776414824079, "run_id": "SIM_TEST", "seq": 16, "pitch_deg": 3.9105, "yaw_deg": 162.4345, "roll_deg": 11.853, "lat_deg": 33.99738523067321, "lon_deg": -118.0045572695249, "altitude_rel_ft": 31.5823, "ground_speed_ft_s": 54.9191, "vel_north_m_s": 3.1201, "vel_east_m_s": 9.6378, "vel_down_m_s": 0.272, "battery_remain_pct": 80.8037}
{"t_rx_ms": 1776414824180, "run_id": "SIM_TEST", "seq": 17, "pitch_deg": -2.0331, "yaw_deg": 0.0074, "roll_deg": 3.3276, "lat_deg": 33.99786638381146, "lon_deg": -118.00255123780131, "altitude_rel_ft": 89.0565, "ground_speed_ft_s": 12.5058, "vel_north_m_s": -4.5117, "vel_east_m_s": 5.9921, "vel_down_m_s": 0.5842, "battery_remain_pct": 98.5406}
{"t_rx_ms": 1776414824280, "run_id": "SIM_TEST", "seq": 18, "pitch_deg": 1.4304, "yaw_deg": 88.0423, "roll_deg": 14.6447, "lat_deg": 33.99283970746444, "lon_deg": -117.9962247546398, "altitude_rel_ft": 73.1551, "ground_speed_ft_s": 37.355, "vel_north_m_s": 9.8355, "vel_east_m_s": 2.6615, "vel_down_m_s": -0.7945, "battery_remain_pct": 55.723}
{"t_rx_ms": 1776414824381, "run_id": "SIM_TEST", "seq": 19, "pitch_deg": -2.4138, "yaw_deg": 64.0259, "roll_deg": 11.0216, "lat_deg": 34.00355155852292, "lon_deg": -117.99424029402303, "altitude_rel_ft": 23.7839, "ground_speed_ft_s": 52.0879, "vel_north_m_s": 4.662, "vel_east_m_s": -5.1593, "vel_down_m_s": 0.5651, "battery_remain_pct": 64.2572}
{"t_rx_ms": 1776414824481, "run_id": "SIM_TEST", "seq": 20, "pitch_deg": 9.1873, "yaw_deg": 322.2021, "roll_deg": 9.3965, "lat_deg": 33.99498386133478, "lon_deg": -117.99913658095205, "altitude_rel_ft": 65.0961, "ground_speed_ft_s": 31.5066, "vel_north_m_s": -7.6296, "vel_east_m_s": 5.7765, "vel_down_m_s": 0.0125, "battery_remain_pct": 77.3559}
{"t_rx_ms": 1776414824582, "run_id": "SIM_TEST", "seq": 21, "pitch_deg": 0.5901, "yaw_deg": 341.046, "roll_deg": -2.8535, "lat_deg": 33.9981403334384, "lon_deg": -118.00626269310146, "altitude_rel_ft": 60.8841, "ground_speed_ft_s": 41.1681, "vel_north_m_s": -2.3345, "vel_east_m_s": 3.5628, "vel_down_m_s": -0.5901, "battery_remain_pct": 56.1006}
{"t_rx_ms": 1776414824683, "run_id": "SIM_TEST", "seq": 22, "pitch_deg": 0.2486, "yaw_deg": 45.7515, "roll_deg": -9.5936, "lat_deg": 34.008365877264744, "lon_deg": -117.99779080385112, "altitude_rel_ft": 23.7583, "ground_speed_ft_s": 41.6076, "vel_north_m_s": 2.9776, "vel_east_m_s": -1.0121, "vel_down_m_s": -0.4834, "battery_remain_pct": 55.7774}
{"t_rx_ms": 1776414824783, "run_id": "SIM_TEST", "seq": 23, "pitch_deg": -9.8096, "yaw_deg": 108.0687, "roll_deg": 4.229, "lat_deg": 34.00124506173004, "lon_deg": -118.0058560623517, "altitude_rel_ft": 25.2298, "ground_speed_ft_s": 58.1289, "vel_north_m_s": -0.6965, "vel_east_m_s": 6.4147, "vel_down_m_s": 0.8705, "battery_remain_pct": 83.694}
{"t_rx_ms": 1776414824884, "run_id": "SIM_TEST", "seq": 24, "pitch_deg": 3.4851, "yaw_deg": 234.2852, "roll_deg": 3.3922, "lat_deg": 33.996327578258374, "lon_deg": -118.0047438680873, "altitude_rel_ft": 44.3984, "ground_speed_ft_s": 48.6668, "vel_north_m_s": -6.6236, "vel_east_m_s": -9.3463, "vel_down_m_s": -0.2343, "battery_remain_pct": 94.1962}
{"t_rx_ms": 1776414824984, "run_id": "SIM_TEST", "seq": 25, "pitch_deg": 3.6949, "yaw_deg": 6.7073, "roll_deg": 10.4882, "lat_deg": 34.00210357492948, "lon_deg": -118.0071662952918, "altitude_rel_ft": 73.9859, "ground_speed_ft_s": 40.7343, "vel_north_m_s": 8.2107, "vel_east_m_s": -1.7416, "vel_down_m_s": -0.9211, "battery_remain_pct": 99.0083}
{"t_rx_ms": 1776414825085, "run_id": "SIM_TEST", "seq": 26, "pitch_deg": -0.9945, "yaw_deg": 161.0125, "roll_deg": 7.4717, "lat_deg": 33.99621549136426, "lon_deg": -118.00544923418947, "altitude_rel_ft": 83.6302, "ground_speed_ft_s": 9.0075, "vel_north_m_s": 4.9711, "vel_east_m_s": 0.3569, "vel_down_m_s": 0.6845, "battery_remain_pct": 87.0732}
{"t_rx_ms": 1776414825185, "run_id": "SIM_TEST", "seq": 27, "pitch_deg": 2.9161, "yaw_deg": 107.4157, "roll_deg": 6.7675, "lat_deg": 33.99451813612574, "lon_deg": -118.00562371002114, "altitude_rel_ft": 64.2417, "ground_speed_ft_s": 23.512, "vel_north_m_s": 5.6485, "vel_east_m_s": -1.024, "vel_down_m_s": 0.142, "battery_remain_pct": 96.9778}
{"t_rx_ms": 1776414825286, "run_id": "SIM_TEST", "seq": 28, "pitch_deg": -9.8388, "yaw_deg": 81.7066, "roll_deg": 9.2719, "lat_deg": 33.99618623962921, "lon_deg": -118.00536329271988, "altitude_rel_ft": 87.1151, "ground_speed_ft_s": 40.7179, "vel_north_m_s": -6.1008, "vel_east_m_s": 5.4778, "vel_down_m_s": 0.31, "battery_remain_pct": 86.1013}
{"t_rx_ms": 1776414825387, "run_id": "SIM_TEST", "seq": 29, "pitch_deg": -1.8109, "yaw_deg": 113.0251, "roll_deg": 14.3532, "lat_deg": 34.0011701316892, "lon_deg": -118.00816678474443, "altitude_rel_ft": 50.4677, "ground_speed_ft_s": 7.0359, "vel_north_m_s": -3.977, "vel_east_m_s": 7.4055, "vel_down_m_s": -0.7837, "battery_remain_pct": 66.6896}
{"t_rx_ms": 1776414825487, "run_id": "SIM_TEST", "seq": 30, "pitch_deg": -7.6487, "yaw_deg": 277.7983, "roll_deg": 1.5959, "lat_deg": 34.00501652254283, "lon_deg": -118.00357673299513, "altitude_rel_ft": 85.5733, "ground_speed_ft_s": 7.1989, "vel_north_m_s": -9.542, "vel_east_m_s": 2.8507, "vel_down_m_s": 0.2584, "battery_remain_pct": 75.2439}
{"t_rx_ms": 1776414825588, "run_id": "SIM_TEST", "seq": 31, "pitch_deg": 7.9628, "yaw_deg": 97.2817, "roll_deg": 9.1534, "lat_deg": 34.00242544321165, "lon_deg": -118.00160811262239, "altitude_rel_ft": 91.1381, "ground_speed_ft_s": 17.6221, "vel_north_m_s": -8.7266, "vel_east_m_s": 2.8411, "vel_down_m_s": 0.1171, "battery_remain_pct": 86.3653}
{"t_rx_ms": 1776414825688, "run_id": "SIM_TEST", "seq": 32, "pitch_deg": -8.7026, "yaw_deg": 27.6206, "roll_deg": -7.6111, "lat_deg": 33.99782151948915, "lon_deg": -117.99080879211236, "altitude_rel_ft": 29.3007, "ground_speed_ft_s": 22.4546, "vel_north_m_s": -0.1546, "vel_east_m_s": 7.1736, "vel_down_m_s": 0.2256, "battery_remain_pct": 83.7165}
{"t_rx_ms": 1776414825789, "run_id": "SIM_TEST", "seq": 33, "pitch_deg": 0.354, "yaw_deg": 214.726, "roll_deg": -7.1117, "lat_deg": 34.002829976933114, "lon_deg": -117.99058193791906, "altitude_rel_ft": 89.3197, "ground_speed_ft_s": 51.9387, "vel_north_m_s": -4.7875, "vel_east_m_s": -2.272, "vel_down_m_s": 0.0398, "battery_remain_pct": 89.6267}
{"t_rx_ms": 1776414825890, "run_id": "SIM_TEST", "seq": 34, "pitch_deg": 1.4328, "yaw_deg": 326.0907, "roll_deg": 9.9455, "lat_deg": 34.00040388738222, "lon_deg": -118.00322205540346, "altitude_rel_ft": 27.2902, "ground_speed_ft_s": 30.5611, "vel_north_m_s": 4.3154, "vel_east_m_s": -0.0767, "vel_down_m_s": -0.8425, "battery_remain_pct": 95.0176}
{"t_rx_ms": 1776414825991, "run_id": "SIM_TEST", "seq": 35, "pitch_deg": -0.7377, "yaw_deg": 252.5087, "roll_deg": -4.6382, "lat_deg": 34.00952119359848, "lon_deg": -117.99099232325182, "altitude_rel_ft": 46.5183, "ground_speed_ft_s": 24.0971, "vel_north_m_s": 4.9152, "vel_east_m_s": 4.9769, "vel_down_m_s": 0.2541, "battery_remain_pct": 52.8275}
{"t_rx_ms": 1776414826091, "run_id": "SIM_TEST", "seq": 36, "pitch_deg": 0.8461, "yaw_deg": 110.9552, "roll_deg": 2.5727, "lat_deg": 34.005975372504956, "lon_deg": -118.00751762264396, "altitude_rel_ft": 63.7905, "ground_speed_ft_s": 56.7706, "vel_north_m_s": 5.6714, "vel_east_m_s": -8.7709, "vel_down_m_s": 0.0613, "battery_remain_pct": 89.7481}
{"t_rx_ms": 1776414826192, "run_id": "SIM_TEST", "seq": 37, "pitch_deg": 2.5498, "yaw_deg": 2.6826, "roll_deg": -5.3258, "lat_deg": 33.993092228417666, "lon_deg": -117.9917170511449, "altitude_rel_ft": 46.921, "ground_speed_ft_s": 25.4774, "vel_north_m_s": 0.7039, "vel_east_m_s": 9.6451, "vel_down_m_s": 0.4136, "battery_remain_pct": 65.4548}
{"t_rx_ms": 1776414826292, "run_id": "SIM_TEST", "seq": 38, "pitch_deg": -2.7726, "yaw_deg": 206.9778, "roll_deg": -3.4148, "lat_deg": 33.99697945079174, "lon_deg": -118.00797199061424, "altitude_rel_ft": 42.8981, "ground_speed_ft_s": 42.7123, "vel_north_m_s": -6.0143, "vel_east_m_s": -5.1115, "vel_down_m_s": 0.1699, "battery_remain_pct": 82.2494}
{"t_rx_ms": 1776414826393, "run_id": "SIM_TEST", "seq": 39, "pitch_deg": -0.5393, "yaw_deg": 269.4994, "roll_deg": -4.6956, "lat_deg": 34.006301485752495, "lon_deg": -117.99015800278907, "altitude_rel_ft": 58.0401, "ground_speed_ft_s": 52.6942, "vel_north_m_s": -4.5871, "vel_east_m_s": 7.8881, "vel_down_m_s": 0.5662, "battery_remain_pct": 80.1134}
{"t_rx_ms": 1776414826494, "run_id": "SIM_TEST", "seq": 40, "pitch_deg": 7.5733, "yaw_deg": 111.9594, "roll_deg": 5.76, "lat_deg": 34.00866715038956, "lon_deg": -117.99976152503106, "altitude_rel_ft": 94.6321, "ground_speed_ft_s": 10.0224, "vel_north_m_s": 0.0282, "vel_east_m_s": 0.8596, "vel_down_m_s": -0.2155, "battery_remain_pct": 68.6833}
{"t_rx_ms": 1776414826594, "run_id": "SIM_TEST", "seq": 41, "pitch_deg": -7.6879, "yaw_deg": 22.4093, "roll_deg": -9.9607, "lat_deg": 33.992584991701705, "lon_deg": -118.00519864626499, "altitude_rel_ft": 22.6665, "ground_speed_ft_s": 18.0827, "vel_north_m_s": -9.3692, "vel_east_m_s": 9.2358, "vel_down_m_s": -0.0111, "battery_remain_pct": 70.6037}
{"t_rx_ms": 1776414826694, "run_id": "SIM_TEST", "seq": 42, "pitch_deg": 2.7533, "yaw_deg": 29.3498, "roll_deg": -5.67, "lat_deg": 34.00663278652316, "lon_deg": -118.00924856285785, "altitude_rel_ft": 34.1605, "ground_speed_ft_s": 10.5213, "vel_north_m_s": 8.8165, "vel_east_m_s": -7.0711, "vel_down_m_s": 0.7827, "battery_remain_pct": 59.3296}
{"t_rx_ms": 1776414826795, "run_id": "SIM_TEST", "seq": 43, "pitch_deg": 2.8596, "yaw_deg": 245.3058, "roll_deg": 6.2304, "lat_deg": 33.997994659380495, "lon_deg": -118.00490721048614, "altitude_rel_ft": 98.8492, "ground_speed_ft_s": 49.5514, "vel_north_m_s": 1.3519, "vel_east_m_s": 1.4066, "vel_down_m_s": 0.0517, "battery_remain_pct": 54.5864}
{"t_rx_ms": 1776414826896, "run_id": "SIM_TEST", "seq": 44, "pitch_deg": 4.1802, "yaw_deg": 182.3309, "roll_deg": -6.4398, "lat_deg": 33.999624851063324, "lon_deg": -118.00854778075337, "altitude_rel_ft": 37.1122, "ground_speed_ft_s": 31.1398, "vel_north_m_s": -8.5435, "vel_east_m_s": -1.8224, "vel_down_m_s": 0.3746, "battery_remain_pct": 68.6963}
{"t_rx_ms": 1776414826996, "run_id": "SIM_TEST", "seq": 45, "pitch_deg": -4.2273, "yaw_deg": 258.1946, "roll_deg": -6.0371, "lat_deg": 33.99922136707634, "lon_deg": -118.00013780597074, "altitude_rel_ft": 32.6507, "ground_speed_ft_s": 27.4085, "vel_north_m_s": -6.8488, "vel_east_m_s": 0.1611, "vel_down_m_s": -0.6955, "battery_remain_pct": 59.9271}
{"t_rx_ms": 1776414827097, "run_id": "SIM_TEST", "seq": 46, "pitch_deg": 4.3365, "yaw_deg": 0.3105, "roll_deg": 5.064, "lat_deg": 33.991741176634974, "lon_deg": -118.00796814916806, "altitude_rel_ft": 22.6612, "ground_speed_ft_s": 12.8686, "vel_north_m_s": 4.1163, "vel_east_m_s": 7.9621, "vel_down_m_s": 0.4825, "battery_remain_pct": 50.3534}
{"t_rx_ms": 1776414827197, "run_id": "SIM_TEST", "seq": 47, "pitch_deg": 6.0478, "yaw_deg": 281.0939, "roll_deg": -7.1768, "lat_deg": 33.99395041957404, "lon_deg": -118.00587306862077, "altitude_rel_ft": 35.1626, "ground_speed_ft_s": 16.6725, "vel_north_m_s": -1.6409, "vel_east_m_s": -7.0998, "vel_down_m_s": 0.6778, "battery_remain_pct": 84.5429}
{"t_rx_ms": 1776414827298, "run_id": "SIM_TEST", "seq": 48, "pitch_deg": -1.1917, "yaw_deg": 305.6716, "roll_deg": 13.9107, "lat_deg": 34.00808537525792, "lon_deg": -118.00471084032684, "altitude_rel_ft": 88.897, "ground_speed_ft_s": 18.7755, "vel_north_m_s": -8.6723, "vel_east_m_s": 7.3866, "vel_down_m_s": 0.8418, "battery_remain_pct": 74.0672}
{"t_rx_ms": 1776414827398, "run_id": "SIM_TEST", "seq": 49, "pitch_deg": -4.5784, "yaw_deg": 313.5759, "roll_deg": -9.5575, "lat_deg": 33.999166940708704, "lon_deg": -118.00878122202246, "altitude_rel_ft": 52.7668, "ground_speed_ft_s": 16.1292, "vel_north_m_s": 1.0501, "vel_east_m_s": -6.7107, "vel_down_m_s": -0.3067, "battery_remain_pct": 66.7133}
{"t_rx_ms": 1776414827499, "run_id": "SIM_TEST", "seq": 50, "pitch_deg": 3.3304, "yaw_deg": 340.0942, "roll_deg": -13.5608, "lat_deg": 34.000413998882784, "lon_deg": -118.008508838624, "altitude_rel_ft": 55.2053, "ground_speed_ft_s": 25.7435, "vel_north_m_s": 6.577, "vel_east_m_s": 0.7575, "vel_down_m_s": 0.8414, "battery_remain_pct": 91.1229}
{"t_rx_ms": 1776414827600, "run_id": "SIM_TEST", "seq": 51, "pitch_deg": -5.8837, "yaw_deg": 149.116, "roll_deg": -8.2933, "lat_deg": 34.00907351938699, "lon_deg": -118.00729200039473, "altitude_rel_ft": 44.9089, "ground_speed_ft_s": 6.014, "vel_north_m_s": -2.3175, "vel_east_m_s": 6.2772, "vel_down_m_s": 0.4209, "battery_remain_pct": 57.2277}
{"t_rx_ms": 1776414827700, "run_id": "SIM_TEST", "seq": 52, "pitch_deg": -7.0204, "yaw_deg": 158.8585, "roll_deg": -4.7106, "lat_deg": 33.99812694632123, "lon_deg": -117.99314548646404, "altitude_rel_ft": 72.7891, "ground_speed_ft_s": 37.1713, "vel_north_m_s": -3.0958, "vel_east_m_s": 5.2581, "vel_down_m_s": -0.0275, "battery_remain_pct": 77.4174}
{"t_rx_ms": 1776414827800, "run_id": "SIM_TEST", "seq": 53, "pitch_deg": -3.1225, "yaw_deg": 244.5804, "roll_deg": -3.0473, "lat_deg": 34.001531504465554, "lon_deg": -118.00554573979556, "altitude_rel_ft": 91.329, "ground_speed_ft_s": 59.1549, "vel_north_m_s": 8.7757, "vel_east_m_s": 3.151, "vel_down_m_s": -0.5605, "battery_remain_pct": 95.1772}
{"t_rx_ms": 1776414827901, "run_id": "SIM_TEST", "seq": 54, "pitch_deg": -8.6382, "yaw_deg": 42.0127, "roll_deg": 3.6169, "lat_deg": 33.99402297257399, "lon_deg": -117.99193622998187, "altitude_rel_ft": 49.1605, "ground_speed_ft_s": 7.286, "vel_north_m_s": -6.0663, "vel_east_m_s": 4.0809, "vel_down_m_s": -0.1391, "battery_remain_pct": 55.8322}
{"t_rx_ms": 1776414828001, "run_id": "SIM_TEST", "seq": 55, "pitch_deg": 1.4699, "yaw_deg": 222.534, "roll_deg": 7.6161, "lat_deg": 34.00871728081491, "lon_deg": -117.99113387301686, "altitude_rel_ft": 92.4502, "ground_speed_ft_s": 12.919, "vel_north_m_s": 8.0766, "vel_east_m_s": -6.5943, "vel_down_m_s": -0.6958, "battery_remain_pct": 69.3326}
{"t_rx_ms": 1776414828102, "run_id": "SIM_TEST", "seq": 56, "pitch_deg": -8.1791, "yaw_deg": 291.5999, "roll_deg": 6.1918, "lat_deg": 33.992728728070986, "lon_deg": -118.00569463853716, "altitude_rel_ft": 72.7155, "ground_speed_ft_s": 21.9073, "vel_north_m_s": 8.9594, "vel_east_m_s": 7.2244, "vel_down_m_s": 0.4118, "battery_remain_pct": 95.68}
{"t_rx_ms": 1776414828203, "run_id": "SIM_TEST", "seq": 57, "pitch_deg": 0.8023, "yaw_deg": 177.4106, "roll_deg": -7.6052, "lat_deg": 33.995897278850705, "lon_deg": -117.99877732789535, "altitude_rel_ft": 84.9989, "ground_speed_ft_s": 17.765, "vel_north_m_s": -3.3979, "vel_east_m_s": -8.0653, "vel_down_m_s": 0.2006, "battery_remain_pct": 87.5969}
{"t_rx_ms": 1776414828304, "run_id": "SIM_TEST", "seq": 58, "pitch_deg": 0.3291, "yaw_deg": 23.5358, "roll_deg": 13.0448, "lat_deg": 33.99713791347917, "lon_deg": -118.00639076510095, "altitude_rel_ft": 27.6652, "ground_speed_ft_s": 54.4873, "vel_north_m_s": -1.3099, "vel_east_m_s": -9.5077, "vel_down_m_s": 0.4537, "battery_remain_pct": 97.9835}
{"t_rx_ms": 1776414828404, "run_id": "SIM_TEST", "seq": 59, "pitch_deg": 5.9352, "yaw_deg": 248.3317, "roll_deg": 14.0183, "lat_deg": 33.99675594909408, "lon_deg": -117.99446670758557, "altitude_rel_ft": 25.8872, "ground_speed_ft_s": 5.1087, "vel_north_m_s": 3.7536, "vel_east_m_s": 5.1652, "vel_down_m_s": 0.9112, "battery_remain_pct": 53.9064}
{"t_rx_ms": 1776414828505, "run_id": "SIM_TEST", "seq": 60, "pitch_deg": -1.1962, "yaw_deg": 102.5799, "roll_deg": -9.6399, "lat_deg": 34.00637530944201, "lon_deg": -118.0050675965433, "altitude_rel_ft": 53.1816, "ground_speed_ft_s": 23.026, "vel_north_m_s": -0.9738, "vel_east_m_s": -7.3774, "vel_down_m_s": -0.6528, "battery_remain_pct": 67.279}
{"t_rx_ms": 1776414828606, "run_id": "SIM_TEST", "seq": 61, "pitch_deg": -1.8027, "yaw_deg": 187.7349, "roll_deg": -13.358, "lat_deg": 33.99841163996751, "lon_deg": -118.00385842113192, "altitude_rel_ft": 85.3892, "ground_speed_ft_s": 59.0705, "vel_north_m_s": -0.8329, "vel_east_m_s": 4.1629, "vel_down_m_s": -0.8058, "battery_remain_pct": 53.1294}
{"t_rx_ms": 1776414828707, "run_id": "SIM_TEST", "seq": 62, "pitch_deg": -2.2301, "yaw_deg": 148.1437, "roll_deg": 8.6161, "lat_deg": 33.99389524699338, "lon_deg": -117.9991776402773, "altitude_rel_ft": 43.1108, "ground_speed_ft_s": 43.6637, "vel_north_m_s": -2.1958, "vel_east_m_s": -2.0275, "vel_down_m_s": 0.3704, "battery_remain_pct": 81.8045}
{"t_rx_ms": 1776414828808, "run_id": "SIM_TEST", "seq": 63, "pitch_deg": -8.4985, "yaw_deg": 262.7094, "roll_deg": -10.5293, "lat_deg": 34.001322236993886, "lon_deg": -117.99238532832199, "altitude_rel_ft": 32.506, "ground_speed_ft_s": 38.9498, "vel_north_m_s": 9.7484, "vel_east_m_s": -6.8967, "vel_down_m_s": 0.4522, "battery_remain_pct": 72.9644}
{"t_rx_ms": 1776414828909, "run_id": "SIM_TEST", "seq": 64, "pitch_deg": -1.0886, "yaw_deg": 301.8424, "roll_deg": 9.3985, "lat_deg": 34.001372546223315, "lon_deg": -118.00279179208947, "altitude_rel_ft": 78.7735, "ground_speed_ft_s": 30.7225, "vel_north_m_s": -7.5246, "vel_east_m_s": -2.6571, "vel_down_m_s": 0.4814, "battery_remain_pct": 59.3947}
{"t_rx_ms": 1776414829009, "run_id": "SIM_TEST", "seq": 65, "pitch_deg": 9.5295, "yaw_deg": 150.9151, "roll_deg": -6.1236, "lat_deg": 33.999117928533124, "lon_deg": -117.99809717026443, "altitude_rel_ft": 92.4073, "ground_speed_ft_s": 28.4279, "vel_north_m_s": -8.1356, "vel_east_m_s": -7.6764, "vel_down_m_s": -0.4008, "battery_remain_pct": 67.252}
{"t_rx_ms": 1776414829111, "run_id": "SIM_TEST", "seq": 66, "pitch_deg": 0.4813, "yaw_deg": 68.3647, "roll_deg": -1.0438, "lat_deg": 34.000470593901234, "lon_deg": -117.99538075486413, "altitude_rel_ft": 42.3946, "ground_speed_ft_s": 18.9263, "vel_north_m_s": 3.8972, "vel_east_m_s": -2.2152, "vel_down_m_s": 0.5337, "battery_remain_pct": 72.4044}
{"t_rx_ms": 1776414829211, "run_id": "SIM_TEST", "seq": 67, "pitch_deg": -9.2559, "yaw_deg": 341.4188, "roll_deg": 12.6792, "lat_deg": 34.00296119057013, "lon_deg": -118.00556629442241, "altitude_rel_ft": 86.2449, "ground_speed_ft_s": 42.2362, "vel_north_m_s": -2.9847, "vel_east_m_s": -2.1699, "vel_down_m_s": -0.0802, "battery_remain_pct": 86.3612}
{"t_rx_ms": 1776414829312, "run_id": "SIM_TEST", "seq": 68, "pitch_deg": 0.7614, "yaw_deg": 23.577, "roll_deg": 2.735, "lat_deg": 34.00189343175095, "lon_deg": -117.99470733656617, "altitude_rel_ft": 43.7323, "ground_speed_ft_s": 22.0345, "vel_north_m_s": -0.0673, "vel_east_m_s": 4.3925, "vel_down_m_s": -0.4092, "battery_remain_pct": 74.6118}
{"t_rx_ms": 1776414829412, "run_id": "SIM_TEST", "seq": 69, "pitch_deg": 0.8731, "yaw_deg": 24.9128, "roll_deg": -0.6234, "lat_deg": 34.00667259593257, "lon_deg": -118.00731830508266, "altitude_rel_ft": 94.0197, "ground_speed_ft_s": 35.5199, "vel_north_m_s": -2.6871, "vel_east_m_s": -6.3938, "vel_down_m_s": 0.6433, "battery_remain_pct": 50.5218}
{"t_rx_ms": 1776414829513, "run_id": "SIM_TEST", "seq": 70, "pitch_deg": 1.9321, "yaw_deg": 212.6418, "roll_deg": -2.8732, "lat_deg": 33.9911222776002, "lon_deg": -117.99949833291254, "altitude_rel_ft": 90.2963, "ground_speed_ft_s": 9.1744, "vel_north_m_s": 4.7941, "vel_east_m_s": -6.2988, "vel_down_m_s": 0.7799, "battery_remain_pct": 65.2615}
{"t_rx_ms": 1776414829614, "run_id": "SIM_TEST", "seq": 71, "pitch_deg": 2.5297, "yaw_deg": 296.3456, "roll_deg": -2.6851, "lat_deg": 33.99001265324191, "lon_deg": -118.00739694007355, "altitude_rel_ft": 76.0184, "ground_speed_ft_s": 21.4777, "vel_north_m_s": -5.6522, "vel_east_m_s": 6.4604, "vel_down_m_s": 0.8499, "battery_remain_pct": 77.6589}
{"t_rx_ms": 1776414829714, "run_id": "SIM_TEST", "seq": 72, "pitch_deg": 8.0092, "yaw_deg": 29.9323, "roll_deg": 1.232, "lat_deg": 34.00632343003405, "lon_deg": -117.99133552097814, "altitude_rel_ft": 53.6189, "ground_speed_ft_s": 49.6179, "vel_north_m_s": 2.4328, "vel_east_m_s": 6.8634, "vel_down_m_s": 0.0938, "battery_remain_pct": 65.3904}
{"t_rx_ms": 1776414829815, "run_id": "SIM_TEST", "seq": 73, "pitch_deg": 6.9365, "yaw_deg": 157.428, "roll_deg": -6.4618, "lat_deg": 34.00213277817266, "lon_deg": -118.00077342255, "altitude_rel_ft": 63.5184, "ground_speed_ft_s": 24.2588, "vel_north_m_s": -1.9216, "vel_east_m_s": -7.5446, "vel_down_m_s": -0.8095, "battery_remain_pct": 58.8857}
{"t_rx_ms": 1776414829915, "run_id": "SIM_TEST", "seq": 74, "pitch_deg": -6.2036, "yaw_deg": 345.3676, "roll_deg": -5.2631, "lat_deg": 34.002730637499965, "lon_deg": -117.99181055568428, "altitude_rel_ft": 47.1451, "ground_speed_ft_s": 15.9986, "vel_north_m_s": -2.1927, "vel_east_m_s": 6.7064, "vel_down_m_s": -0.0961, "battery_remain_pct": 72.6913}
{"t_rx_ms": 1776414830016, "run_id": "SIM_TEST", "seq": 75, "pitch_deg": 7.6173, "yaw_deg": 29.557, "roll_deg": 10.9615, "lat_deg": 33.99465731642324, "lon_deg": -118.00585886193993, "altitude_rel_ft": 26.6462, "ground_speed_ft_s": 39.1855, "vel_north_m_s": -5.6896, "vel_east_m_s": -0.3173, "vel_down_m_s": -0.0435, "battery_remain_pct": 62.3401}
{"t_rx_ms": 1776414830116, "run_id": "SIM_TEST", "seq": 76, "pitch_deg": 9.3718, "yaw_deg": 147.6718, "roll_deg": -4.9965, "lat_deg": 33.99284968044358, "lon_deg": -117.99903159535097, "altitude_rel_ft": 66.6819, "ground_speed_ft_s": 56.5782, "vel_north_m_s": 0.4958, "vel_east_m_s": 4.4537, "vel_down_m_s": -0.5684, "battery_remain_pct": 77.0333}
{"t_rx_ms": 1776414830217, "run_id": "SIM_TEST", "seq": 77, "pitch_deg": -7.3183, "yaw_deg": 120.2853, "roll_deg": 13.7341, "lat_deg": 33.99184665167107, "lon_deg": -118.00411410593564, "altitude_rel_ft": 53.8003, "ground_speed_ft_s": 40.6283, "vel_north_m_s": 9.0322, "vel_east_m_s": -3.1516, "vel_down_m_s": 0.8053, "battery_remain_pct": 75.3812}
{"t_rx_ms": 1776414830318, "run_id": "SIM_TEST", "seq": 78, "pitch_deg": -4.8335, "yaw_deg": 76.8316, "roll_deg": 8.2808, "lat_deg": 33.99588261580313, "lon_deg": -118.00036328610055, "altitude_rel_ft": 56.6965, "ground_speed_ft_s": 17.7632, "vel_north_m_s": 3.9048, "vel_east_m_s": 8.3731, "vel_down_m_s": 0.3546, "battery_remain_pct": 59.3973}
{"t_rx_ms": 1776414830418, "run_id": "SIM_TEST", "seq": 79, "pitch_deg": -8.6782, "yaw_deg": 92.3368, "roll_deg": -12.2691, "lat_deg": 33.99527924211479, "lon_deg": -118.00635362052553, "altitude_rel_ft": 86.8013, "ground_speed_ft_s": 8.4443, "vel_north_m_s": -8.7304, "vel_east_m_s": 8.6922, "vel_down_m_s": -0.3416, "battery_remain_pct": 65.9307}
{"t_rx_ms": 1776414830519, "run_id": "SIM_TEST", "seq": 80, "pitch_deg": 7.9922, "yaw_deg": 6.9721, "roll_deg": -6.396, "lat_deg": 34.00189486627366, "lon_deg": -118.00936387796214, "altitude_rel_ft": 45.3498, "ground_speed_ft_s": 20.0344, "vel_north_m_s": -4.2109, "vel_east_m_s": -8.425, "vel_down_m_s": -0.4986, "battery_remain_pct": 96.7638}
{"t_rx_ms": 1776414830619, "run_id": "SIM_TEST", "seq": 81, "pitch_deg": -7.3675, "yaw_deg": 56.3564, "roll_deg": -1.1409, "lat_deg": 34.007714174327084, "lon_deg": -118.00609552954026, "altitude_rel_ft": 68.9274, "ground_speed_ft_s": 12.4015, "vel_north_m_s": -3.358, "vel_east_m_s": 6.8358, "vel_down_m_s": -0.405, "battery_remain_pct": 92.9247}
{"t_rx_ms": 1776414830720, "run_id": "SIM_TEST", "seq": 82, "pitch_deg": 2.3173, "yaw_deg": 148.4566, "roll_deg": 4.4106, "lat_deg": 33.994423767440786, "lon_deg": -118.00403117036318, "altitude_rel_ft": 47.7625, "ground_speed_ft_s": 35.8078, "vel_north_m_s": 0.5785, "vel_east_m_s": 7.5609, "vel_down_m_s": 0.6982, "battery_remain_pct": 88.3726}
{"t_rx_ms": 1776414830820, "run_id": "SIM_TEST", "seq": 83, "pitch_deg": -1.3218, "yaw_deg": 296.4382, "roll_deg": -14.5027, "lat_deg": 33.99025249638708, "lon_deg": -117.99195857138302, "altitude_rel_ft": 57.5887, "ground_speed_ft_s": 37.7561, "vel_north_m_s": -0.0309, "vel_east_m_s": 3.8687, "vel_down_m_s": -0.7396, "battery_remain_pct": 59.4415}
{"t_rx_ms": 1776414830921, "run_id": "SIM_TEST", "seq": 84, "pitch_deg": 5.895, "yaw_deg": 163.4991, "roll_deg": -7.5379, "lat_deg": 34.00210982582137, "lon_deg": -117.99056913675396, "altitude_rel_ft": 72.9483, "ground_speed_ft_s": 34.6621, "vel_north_m_s": -7.6243, "vel_east_m_s": -7.5419, "vel_down_m_s": -0.9769, "battery_remain_pct": 99.2755}
{"t_rx_ms": 1776414831022, "run_id": "SIM_TEST", "seq": 85, "pitch_deg": 0.4701, "yaw_deg": 325.8181, "roll_deg": -2.3182, "lat_deg": 34.006380402278104, "lon_deg": -118.00534375837105, "altitude_rel_ft": 33.9051, "ground_speed_ft_s": 52.6922, "vel_north_m_s": 9.4635, "vel_east_m_s": 8.2118, "vel_down_m_s": -0.6522, "battery_remain_pct": 96.3623}
{"t_rx_ms": 1776414831122, "run_id": "SIM_TEST", "seq": 86, "pitch_deg": -8.4242, "yaw_deg": 60.5704, "roll_deg": -12.662, "lat_deg": 34.00790855813248, "lon_deg": -117.99481198569399, "altitude_rel_ft": 77.2022, "ground_speed_ft_s": 28.0114, "vel_north_m_s": -2.3925, "vel_east_m_s": -6.9496, "vel_down_m_s": -0.0624, "battery_remain_pct": 97.1001}
{"t_rx_ms": 1776414831222, "run_id": "SIM_TEST", "seq": 87, "pitch_deg": 2.773, "yaw_deg": 60.1002, "roll_deg": 12.263, "lat_deg": 33.994967708257576, "lon_deg": -118.00525121068894, "altitude_rel_ft": 81.3307, "ground_speed_ft_s": 28.7484, "vel_north_m_s": -2.641, "vel_east_m_s": 7.6063, "vel_down_m_s": 0.8891, "battery_remain_pct": 68.4756}
{"t_rx_ms": 1776414831323, "run_id": "SIM_TEST", "seq": 88, "pitch_deg": 7.7275, "yaw_deg": 186.2463, "roll_deg": -11.6834, "lat_deg": 34.000968893308624, "lon_deg": -118.00702890725914, "altitude_rel_ft": 21.8645, "ground_speed_ft_s": 14.8696, "vel_north_m_s": -1.761, "vel_east_m_s": -2.0621, "vel_down_m_s": 0.7097, "battery_remain_pct": 70.2549}
{"t_rx_ms": 1776414831424, "run_id": "SIM_TEST", "seq": 89, "pitch_deg": -3.8192, "yaw_deg": 331.0809, "roll_deg": 1.7003, "lat_deg": 34.00223515757246, "lon_deg": -118.00351404721476, "altitude_rel_ft": 76.7144, "ground_speed_ft_s": 14.023, "vel_north_m_s": -2.1513, "vel_east_m_s": -0.1397, "vel_down_m_s": 0.9503, "battery_remain_pct": 57.4936}
{"t_rx_ms": 1776414831524, "run_id": "SIM_TEST", "seq": 90, "pitch_deg": -6.9905, "yaw_deg": 293.1603, "roll_deg": -10.062, "lat_deg": 33.9944041877207, "lon_deg": -117.99689054103347, "altitude_rel_ft": 38.4461, "ground_speed_ft_s": 6.9038, "vel_north_m_s": 4.7635, "vel_east_m_s": -2.2667, "vel_down_m_s": -0.5493, "battery_remain_pct": 64.5954}
{"t_rx_ms": 1776414831625, "run_id": "SIM_TEST", "seq": 91, "pitch_deg": 9.5307, "yaw_deg": 110.9857, "roll_deg": 2.7179, "lat_deg": 33.99235488156549, "lon_deg": -118.00644603928544, "altitude_rel_ft": 34.8548, "ground_speed_ft_s": 8.0765, "vel_north_m_s": -2.0945, "vel_east_m_s": 0.7126, "vel_down_m_s": -0.1614, "battery_remain_pct": 82.3653}
{"t_rx_ms": 1776414831725, "run_id": "SIM_TEST", "seq": 92, "pitch_deg": -1.2197, "yaw_deg": 30.0045, "roll_deg": -4.2386, "lat_deg": 33.99618430796848, "lon_deg": -117.99408450650078, "altitude_rel_ft": 74.203, "ground_speed_ft_s": 9.74, "vel_north_m_s": 6.6157, "vel_east_m_s": 3.9027, "vel_down_m_s": -0.0488, "battery_remain_pct": 87.3305}
{"t_rx_ms": 1776414831826, "run_id": "SIM_TEST", "seq": 93, "pitch_deg": -2.3265, "yaw_deg": 154.9307, "roll_deg": -11.0853, "lat_deg": 34.001315472845704, "lon_deg": -117.99016497011661, "altitude_rel_ft": 38.997, "ground_speed_ft_s": 48.751, "vel_north_m_s": 8.793, "vel_east_m_s": -2.7158, "vel_down_m_s": 0.1303, "battery_remain_pct": 88.14}
{"t_rx_ms": 1776414831927, "run_id": "SIM_TEST", "seq": 94, "pitch_deg": 2.8619, "yaw_deg": 53.4128, "roll_deg": 13.605, "lat_deg": 33.994882557782766, "lon_deg": -117.99733376596781, "altitude_rel_ft": 98.9812, "ground_speed_ft_s": 17.5042, "vel_north_m_s": -5.6463, "vel_east_m_s": 0.6437, "vel_down_m_s": 0.5216, "battery_remain_pct": 98.4385}
{"t_rx_ms": 1776414832027, "run_id": "SIM_TEST", "seq": 95, "pitch_deg": -5.986, "yaw_deg": 282.6495, "roll_deg": 1.2146, "lat_deg": 33.99767448904135, "lon_deg": -117.99077920656417, "altitude_rel_ft": 21.118, "ground_speed_ft_s": 10.8585, "vel_north_m_s": -2.6068, "vel_east_m_s": -6.8855, "vel_down_m_s": 0.1414, "battery_remain_pct": 80.2716}
{"t_rx_ms": 1776414832127, "run_id": "SIM_TEST", "seq": 96, "pitch_deg": 7.7625, "yaw_deg": 152.7245, "roll_deg": -10.8663, "lat_deg": 34.00035528776385, "lon_deg": -118.00922655252425, "altitude_rel_ft": 42.5953, "ground_speed_ft_s": 37.8526, "vel_north_m_s": 3.366, "vel_east_m_s": -9.4826, "vel_down_m_s": 0.0549, "battery_remain_pct": 99.6758}
{"t_rx_ms": 1776414832228, "run_id": "SIM_TEST", "seq": 97, "pitch_deg": -3.6534, "yaw_deg": 321.8372, "roll_deg": 7.0085, "lat_deg": 33.9995649328398, "lon_deg": -117.99645104429646, "altitude_rel_ft": 73.9804, "ground_speed_ft_s": 8.9371, "vel_north_m_s": 7.7918, "vel_east_m_s": -3.0103, "vel_down_m_s": -0.6526, "battery_remain_pct": 73.1668}
{"t_rx_ms": 1776414832328, "run_id": "SIM_TEST", "seq": 98, "pitch_deg": -0.9314, "yaw_deg": 268.737, "roll_deg": -3.5992, "lat_deg": 33.99901002074839, "lon_deg": -118.00291704016448, "altitude_rel_ft": 96.8041, "ground_speed_ft_s": 44.6256, "vel_north_m_s": 2.3673, "vel_east_m_s": -8.6873, "vel_down_m_s": -0.8898, "battery_remain_pct": 99.0733}
{"t_rx_ms": 1776414832429, "run_id": "SIM_TEST", "seq": 99, "pitch_deg": -7.4006, "yaw_deg": 237.0323, "roll_deg": -14.0184, "lat_deg": 34.00575848051556, "lon_deg": -118.00538222572338, "altitude_rel_ft": 87.538, "ground_speed_ft_s": 40.7755, "vel_north_m_s": 8.0157, "vel_east_m_s": -5.8771, "vel_down_m_s": -0.0746, "battery_remain_pct": 79.7066}
{"t_rx_ms": 1776414832529, "run_id": "SIM_TEST", "seq": 100, "pitch_deg": -6.7542, "yaw_deg": 168.8102, "roll_deg": -12.3318, "lat_deg": 33.998109566596945, "lon_deg": -118.00546829504479, "altitude_rel_ft": 88.6987, "ground_speed_ft_s": 29.7816, "vel_north_m_s": 8.9418, "vel_east_m_s": 2.4343, "vel_down_m_s": -0.1037, "battery_remain_pct": 69.413}
{"t_rx_ms": 1776414832629, "run_id": "SIM_TEST", "seq": 101, "pitch_deg": -7.9275, "yaw_deg": 212.8489, "roll_deg": 1.1833, "lat_deg": 34.00467511459216, "lon_deg": -117.99516495605774, "altitude_rel_ft": 84.5054, "ground_speed_ft_s": 35.9559, "vel_north_m_s": -1.9969, "vel_east_m_s": 0.0823, "vel_down_m_s": -0.8771, "battery_remain_pct": 51.5467}
{"t_rx_ms": 1776414832729, "run_id": "SIM_TEST", "seq": 102, "pitch_deg": 4.3082, "yaw_deg": 155.73, "roll_deg": -5.0208, "lat_deg": 34.00589086647516, "lon_deg": -118.00812789467025, "altitude_rel_ft": 51.0587, "ground_speed_ft_s": 14.183, "vel_north_m_s": 8.2676, "vel_east_m_s": -3.2864, "vel_down_m_s": -0.6338, "battery_remain_pct": 67.9364}
{"t_rx_ms": 1776414832830, "run_id": "SIM_TEST", "seq": 103, "pitch_deg": 0.6943, "yaw_deg": 283.9153, "roll_deg": 9.0647, "lat_deg": 33.995505688496166, "lon_deg": -117.99202562079981, "altitude_rel_ft": 46.4699, "ground_speed_ft_s": 12.7838, "vel_north_m_s": 6.9812, "vel_east_m_s": 6.3579, "vel_down_m_s": -0.2548, "battery_remain_pct": 62.4705}
{"t_rx_ms": 1776414832931, "run_id": "SIM_TEST", "seq": 104, "pitch_deg": 1.0202, "yaw_deg": 134.256, "roll_deg": -5.9574, "lat_deg": 34.00323509682188, "lon_deg": -117.9999451313591, "altitude_rel_ft": 33.8287, "ground_speed_ft_s": 23.7848, "vel_north_m_s": -8.0831, "vel_east_m_s": 3.3544, "vel_down_m_s": 0.06, "battery_remain_pct": 65.6569}
{"t_rx_ms": 1776414833032, "run_id": "SIM_TEST", "seq": 105, "pitch_deg": 1.6354, "yaw_deg": 349.7644, "roll_deg": 13.4344, "lat_deg": 33.99115672387328, "lon_deg": -117.99865811852119, "altitude_rel_ft": 96.9629, "ground_speed_ft_s": 25.48, "vel_north_m_s": 5.5908, "vel_east_m_s": 0.8978, "vel_down_m_s": 0.1695, "battery_remain_pct": 61.8978}
{"t_rx_ms": 1776414833132, "run_id": "SIM_TEST", "seq": 106, "pitch_deg": -0.9857, "yaw_deg": 185.7684, "roll_deg": 9.9876, "lat_deg": 34.006897837082704, "lon_deg": -117.99530133984227, "altitude_rel_ft": 58.4887, "ground_speed_ft_s": 17.8213, "vel_north_m_s": -9.0685, "vel_east_m_s": 0.3592, "vel_down_m_s": 0.6481, "battery_remain_pct": 55.5462}
{"t_rx_ms": 1776414833232, "run_id": "SIM_TEST", "seq": 107, "pitch_deg": 0.1394, "yaw_deg": 36.8591, "roll_deg": -1.2808, "lat_deg": 34.00600495318252, "lon_deg": -117.99755311441893, "altitude_rel_ft": 53.1162, "ground_speed_ft_s": 16.152, "vel_north_m_s": -6.4001, "vel_east_m_s": 0.3296, "vel_down_m_s": -0.0081, "battery_remain_pct": 77.1038}
{"t_rx_ms": 1776414833333, "run_id": "SIM_TEST", "seq": 108, "pitch_deg": 4.2098, "yaw_deg": 33.9248, "roll_deg": -6.5589, "lat_deg": 34.003807148059536, "lon_deg": -117.99905259456169, "altitude_rel_ft": 32.093, "ground_speed_ft_s": 36.1506, "vel_north_m_s": -9.584, "vel_east_m_s": 3.1383, "vel_down_m_s": 0.8833, "battery_remain_pct": 55.8796}
{"t_rx_ms": 1776414833433, "run_id": "SIM_TEST", "seq": 109, "pitch_deg": -5.4503, "yaw_deg": 209.1805, "roll_deg": 7.089, "lat_deg": 33.99680845851732, "lon_deg": -118.00520328423673, "altitude_rel_ft": 45.2703, "ground_speed_ft_s": 20.0548, "vel_north_m_s": -2.3039, "vel_east_m_s": -9.1862, "vel_down_m_s": 0.0807, "battery_remain_pct": 76.6265}
{"t_rx_ms": 1776414833534, "run_id": "SIM_TEST", "seq": 110, "pitch_deg": 3.9256, "yaw_deg": 83.6114, "roll_deg": 12.4254, "lat_deg": 33.99637786342365, "lon_deg": -117.99576353037342, "altitude_rel_ft": 95.6271, "ground_speed_ft_s": 46.2848, "vel_north_m_s": -8.0284, "vel_east_m_s": 4.3674, "vel_down_m_s": 0.8615, "battery_remain_pct": 65.3418}
{"t_rx_ms": 1776414833635, "run_id": "SIM_TEST", "seq": 111, "pitch_deg": 6.7257, "yaw_deg": 170.0663, "roll_deg": 9.8476, "lat_deg": 33.99407015978481, "lon_deg": -117.99833698861099, "altitude_rel_ft": 48.1487, "ground_speed_ft_s": 23.9309, "vel_north_m_s": 4.9482, "vel_east_m_s": 7.71, "vel_down_m_s": -0.353, "battery_remain_pct": 59.4563}
{"t_rx_ms": 1776414833736, "run_id": "SIM_TEST", "seq": 112, "pitch_deg": -3.7597, "yaw_deg": 351.2703, "roll_deg": -3.7763, "lat_deg": 33.99155581571196, "lon_deg": -118.0044644468016, "altitude_rel_ft": 32.6573, "ground_speed_ft_s": 52.4425, "vel_north_m_s": -0.8274, "vel_east_m_s": -6.4106, "vel_down_m_s": 0.2666, "battery_remain_pct": 74.3833}
{"t_rx_ms": 1776414833836, "run_id": "SIM_TEST", "seq": 113, "pitch_deg": -5.0745, "yaw_deg": 63.1099, "roll_deg": -12.0772, "lat_deg": 34.0048172779452, "lon_deg": -117.99823466553988, "altitude_rel_ft": 27.081, "ground_speed_ft_s": 45.2026, "vel_north_m_s": 2.3476, "vel_east_m_s": -3.8532, "vel_down_m_s": 0.2556, "battery_remain_pct": 93.7908}
{"t_rx_ms": 1776414833937, "run_id": "SIM_TEST", "seq": 114, "pitch_deg": 8.3417, "yaw_deg": 214.7402, "roll_deg": 6.0689, "lat_deg": 34.00360139823898, "lon_deg": -117.9920683946003, "altitude_rel_ft": 45.8224, "ground_speed_ft_s": 12.9586, "vel_north_m_s": -8.4043, "vel_east_m_s": 9.6992, "vel_down_m_s": -0.2187, "battery_remain_pct": 88.965}
{"t_rx_ms": 1776414834037, "run_id": "SIM_TEST", "seq": 115, "pitch_deg": 4.6391, "yaw_deg": 292.4145, "roll_deg": -7.7747, "lat_deg": 33.996397614434315, "lon_deg": -118.00770819487458, "altitude_rel_ft": 53.4889, "ground_speed_ft_s": 24.6023, "vel_north_m_s": -2.7487, "vel_east_m_s": 2.167, "vel_down_m_s": -0.3343, "battery_remain_pct": 54.9364}
{"t_rx_ms": 1776414834138, "run_id": "SIM_TEST", "seq": 116, "pitch_deg": -9.5898, "yaw_deg": 278.358, "roll_deg": 9.9982, "lat_deg": 33.99330743516326, "lon_deg": -117.99678575716537, "altitude_rel_ft": 41.887, "ground_speed_ft_s": 9.7544, "vel_north_m_s": 5.9146, "vel_east_m_s": 0.5817, "vel_down_m_s": 0.5064, "battery_remain_pct": 80.5302}
{"t_rx_ms": 1776414834238, "run_id": "SIM_TEST", "seq": 117, "pitch_deg": 9.4092, "yaw_deg": 17.6734, "roll_deg": 14.2242, "lat_deg": 34.00503642098068, "lon_deg": -118.00236197439145, "altitude_rel_ft": 30.4589, "ground_speed_ft_s": 24.704, "vel_north_m_s": 6.2487, "vel_east_m_s": -8.3813, "vel_down_m_s": -0.1776, "battery_remain_pct": 90.0129}
{"t_rx_ms": 1776414834339, "run_id": "SIM_TEST", "seq": 118, "pitch_deg": -9.8074, "yaw_deg": 207.0891, "roll_deg": 14.0347, "lat_deg": 34.00926117621146, "lon_deg": -118.0019284374329, "altitude_rel_ft": 32.599, "ground_speed_ft_s": 36.9275, "vel_north_m_s": 8.8035, "vel_east_m_s": -5.3325, "vel_down_m_s": -0.873, "battery_remain_pct": 84.6218}
{"t_rx_ms": 1776414834439, "run_id": "SIM_TEST", "seq": 119, "pitch_deg": -7.0547, "yaw_deg": 268.5031, "roll_deg": 7.1229, "lat_deg": 33.99558907030277, "lon_deg": -118.00528013925297, "altitude_rel_ft": 26.6331, "ground_speed_ft_s": 34.4314, "vel_north_m_s": 4.9579, "vel_east_m_s": 1.7912, "vel_down_m_s": -0.9745, "battery_remain_pct": 89.4215}
{"t_rx_ms": 1776414834540, "run_id": "SIM_TEST", "seq": 120, "pitch_deg": 9.6008, "yaw_deg": 161.9079, "roll_deg": -0.2666, "lat_deg": 34.004852033369964, "lon_deg": -118.00989473445895, "altitude_rel_ft": 66.5429, "ground_speed_ft_s": 29.3535, "vel_north_m_s": -0.0503, "vel_east_m_s": -1.8896, "vel_down_m_s": 0.3801, "battery_remain_pct": 84.5989}
{"t_rx_ms": 1776414834640, "run_id": "SIM_TEST", "seq": 121, "pitch_deg": 9.089, "yaw_deg": 182.8137, "roll_deg": 14.4524, "lat_deg": 34.00669681684048, "lon_deg": -118.00147951886929, "altitude_rel_ft": 83.709, "ground_speed_ft_s": 17.8419, "vel_north_m_s": 2.4368, "vel_east_m_s": 9.0029, "vel_down_m_s": -0.1691, "battery_remain_pct": 73.6641}
{"t_rx_ms": 1776414834741, "run_id": "SIM_TEST", "seq": 122, "pitch_deg": -5.1446, "yaw_deg": 107.9489, "roll_deg": -12.071, "lat_deg": 33.995841495148476, "lon_deg": -117.99930057889648, "altitude_rel_ft": 55.286, "ground_speed_ft_s": 9.4382, "vel_north_m_s": -0.346, "vel_east_m_s": 0.0304, "vel_down_m_s": -0.8965, "battery_remain_pct": 81.4132}
{"t_rx_ms": 1776414834841, "run_id": "SIM_TEST", "seq": 123, "pitch_deg": -4.2798, "yaw_deg": 288.8737, "roll_deg": -2.5253, "lat_deg": 33.99258522259143, "lon_deg": -117.99641579102263, "altitude_rel_ft": 43.5626, "ground_speed_ft_s": 5.8553, "vel_north_m_s": 7.3365, "vel_east_m_s": -3.5377, "vel_down_m_s": -0.3254, "battery_remain_pct": 83.2218}
{"t_rx_ms": 1776414834942, "run_id": "SIM_TEST", "seq": 124, "pitch_deg": -8.9376, "yaw_deg": 143.5212, "roll_deg": -11.7407, "lat_deg": 34.00145627754171, "lon_deg": -118.00888622439344, "altitude_rel_ft": 42.0355, "ground_speed_ft_s": 38.0137, "vel_north_m_s": -4.8088, "vel_east_m_s": 6.4066, "vel_down_m_s": -0.9673, "battery_remain_pct": 97.989}
{"t_rx_ms": 1776414835042, "run_id": "SIM_TEST", "seq": 125, "pitch_deg": -7.9785, "yaw_deg": 41.2176, "roll_deg": 6.7789, "lat_deg": 33.99980121349577, "lon_deg": -117.99936933163077, "altitude_rel_ft": 56.8941, "ground_speed_ft_s": 12.0788, "vel_north_m_s": 4.9217, "vel_east_m_s": -9.0013, "vel_down_m_s": 0.2002, "battery_remain_pct": 99.4713}
{"t_rx_ms": 1776414835143, "run_id": "SIM_TEST", "seq": 126, "pitch_deg": 0.6491, "yaw_deg": 230.8085, "roll_deg": 9.3158, "lat_deg": 34.00633266053845, "lon_deg": -117.99899326750845, "altitude_rel_ft": 99.0415, "ground_speed_ft_s": 19.7336, "vel_north_m_s": -0.9238, "vel_east_m_s": 7.2093, "vel_down_m_s": -0.5049, "battery_remain_pct": 80.1371}
{"t_rx_ms": 1776414835244, "run_id": "SIM_TEST", "seq": 127, "pitch_deg": 1.337, "yaw_deg": 80.571, "roll_deg": 11.0911, "lat_deg": 34.009870790116764, "lon_deg": -117.9950603706926, "altitude_rel_ft": 51.2584, "ground_speed_ft_s": 12.5375, "vel_north_m_s": 7.9867, "vel_east_m_s": 0.9968, "vel_down_m_s": -0.9033, "battery_remain_pct": 98.1743}
{"t_rx_ms": 1776414835344, "run_id": "SIM_TEST", "seq": 128, "pitch_deg": -0.3272, "yaw_deg": 11.6522, "roll_deg": 6.7475, "lat_deg": 34.001434068697435, "lon_deg": -117.99121327638979, "altitude_rel_ft": 37.9447, "ground_speed_ft_s": 40.2321, "vel_north_m_s": -1.7477, "vel_east_m_s": -5.327, "vel_down_m_s": 0.3294, "battery_remain_pct": 70.685}
{"t_rx_ms": 1776414835445, "run_id": "SIM_TEST", "seq": 129, "pitch_deg": -0.1393, "yaw_deg": 162.9332, "roll_deg": -9.7209, "lat_deg": 34.00008439077917, "lon_deg": -117.99464868416422, "altitude_rel_ft": 34.4539, "ground_speed_ft_s": 59.4627, "vel_north_m_s": 8.6196, "vel_east_m_s": -3.6171, "vel_down_m_s": -0.7895, "battery_remain_pct": 75.127}
{"t_rx_ms": 1776414835545, "run_id": "SIM_TEST", "seq": 130, "pitch_deg": 8.6772, "yaw_deg": 108.1817, "roll_deg": -10.3278, "lat_deg": 34.004276145852295, "lon_deg": -118.00990570100076, "altitude_rel_ft": 43.6594, "ground_speed_ft_s": 56.5145, "vel_north_m_s": 0.0419, "vel_east_m_s": 7.0819, "vel_down_m_s": 0.3725, "battery_remain_pct": 84.8053}
{"t_rx_ms": 1776414835646, "run_id": "SIM_TEST", "seq": 131, "pitch_deg": 1.6524, "yaw_deg": 278.902, "roll_deg": -8.6046, "lat_deg": 34.00954414112111, "lon_deg": -118.00390875837562, "altitude_rel_ft": 96.4179, "ground_speed_ft_s": 7.0605, "vel_north_m_s": 1.3194, "vel_east_m_s": -6.6488, "vel_down_m_s": -0.2618, "battery_remain_pct": 82.1296}
{"t_rx_ms": 1776414835747, "run_id": "SIM_TEST", "seq": 132, "pitch_deg": 0.1847, "yaw_deg": 160.6496, "roll_deg": 12.2541, "lat_deg": 34.00094804779276, "lon_deg": -117.99984997840879, "altitude_rel_ft": 44.877, "ground_speed_ft_s": 6.8, "vel_north_m_s": 4.5894, "vel_east_m_s": -2.6829, "vel_down_m_s": -0.7783, "battery_remain_pct": 74.7864}
{"t_rx_ms": 1776414835847, "run_id": "SIM_TEST", "seq": 133, "pitch_deg": 6.223, "yaw_deg": 284.8758, "roll_deg": 8.6638, "lat_deg": 34.000740360937, "lon_deg": -118.00245562970532, "altitude_rel_ft": 54.1289, "ground_speed_ft_s": 24.2958, "vel_north_m_s": -6.7312, "vel_east_m_s": -9.67, "vel_down_m_s": 0.1106, "battery_remain_pct": 96.3442}
{"t_rx_ms": 1776414835948, "run_id": "SIM_TEST", "seq": 134, "pitch_deg": -8.3811, "yaw_deg": 138.6493, "roll_deg": -7.6877, "lat_deg": 33.99746754476413, "lon_deg": -118.00712279226501, "altitude_rel_ft": 64.4107, "ground_speed_ft_s": 38.0718, "vel_north_m_s": 4.7587, "vel_east_m_s": 6.4676, "vel_down_m_s": -0.8119, "battery_remain_pct": 56.4271}
{"t_rx_ms": 1776414836048, "run_id": "SIM_TEST", "seq": 135, "pitch_deg": 0.9113, "yaw_deg": 335.1668, "roll_deg": 1.3091, "lat_deg": 34.001156456729376, "lon_deg": -118.00815044795884, "altitude_rel_ft": 66.8319, "ground_speed_ft_s": 10.6516, "vel_north_m_s": 1.6099, "vel_east_m_s": -0.4201, "vel_down_m_s": -0.4895, "battery_remain_pct": 52.7786}
{"t_rx_ms": 1776414836149, "run_id": "SIM_TEST", "seq": 136, "pitch_deg": -0.9985, "yaw_deg": 104.6932, "roll_deg": -12.4613, "lat_deg": 33.9992588489155, "lon_deg": -117.99533754410906, "altitude_rel_ft": 83.7591, "ground_speed_ft_s": 36.9546, "vel_north_m_s": 5.6362, "vel_east_m_s": -1.4917, "vel_down_m_s": 0.8313, "battery_remain_pct": 85.167}
{"t_rx_ms": 1776414836249, "run_id": "SIM_TEST", "seq": 137, "pitch_deg": 8.9115, "yaw_deg": 169.6433, "roll_deg": -3.3837, "lat_deg": 34.00683812645688, "lon_deg": -117.99976625479414, "altitude_rel_ft": 64.026, "ground_speed_ft_s": 48.242, "vel_north_m_s": -1.1044, "vel_east_m_s": -0.8151, "vel_down_m_s": 0.9959, "battery_remain_pct": 76.828}
{"t_rx_ms": 1776414836349, "run_id": "SIM_TEST", "seq": 138, "pitch_deg": -0.2108, "yaw_deg": 112.4787, "roll_deg": 11.5064, "lat_deg": 33.99082573572488, "lon_deg": -118.00986780450071, "altitude_rel_ft": 31.3671, "ground_speed_ft_s": 49.6026, "vel_north_m_s": -5.2038, "vel_east_m_s": -5.6646, "vel_down_m_s": -0.9815, "battery_remain_pct": 97.0886}
{"t_rx_ms": 1776414836450, "run_id": "SIM_TEST", "seq": 139, "pitch_deg": -1.8419, "yaw_deg": 26.8586, "roll_deg": 3.8753, "lat_deg": 34.00701825545005, "lon_deg": -118.00512668307702, "altitude_rel_ft": 25.4082, "ground_speed_ft_s": 6.2174, "vel_north_m_s": 2.6477, "vel_east_m_s": -9.4788, "vel_down_m_s": 0.9457, "battery_remain_pct": 76.4426}
{"t_rx_ms": 1776414836550, "run_id": "SIM_TEST", "seq": 140, "pitch_deg": -3.8482, "yaw_deg": 243.4072, "roll_deg": 3.8885, "lat_deg": 33.991474462560895, "lon_deg": -117.99457479585519, "altitude_rel_ft": 20.9235, "ground_speed_ft_s": 22.7729, "vel_north_m_s": 5.3277, "vel_east_m_s": 4.9312, "vel_down_m_s": -0.0655, "battery_remain_pct": 58.2686}
{"t_rx_ms": 1776414836651, "run_id": "SIM_TEST", "seq": 141, "pitch_deg": 3.0874, "yaw_deg": 335.9213, "roll_deg": 6.5125, "lat_deg": 33.99593649028671, "lon_deg": -118.00856541378234, "altitude_rel_ft": 38.0346, "ground_speed_ft_s": 17.3626, "vel_north_m_s": -2.9445, "vel_east_m_s": -5.8676, "vel_down_m_s": 0.1639, "battery_remain_pct": 75.0949}
{"t_rx_ms": 1776414836752, "run_id": "SIM_TEST", "seq": 142, "pitch_deg": 9.9691, "yaw_deg": 22.5762, "roll_deg": -6.8856, "lat_deg": 33.99372434383541, "lon_deg": -118.00254012058356, "altitude_rel_ft": 38.0863, "ground_speed_ft_s": 31.1444, "vel_north_m_s": 5.989, "vel_east_m_s": -9.6984, "vel_down_m_s": -0.3319, "battery_remain_pct": 74.2127}
{"t_rx_ms": 1776414836853, "run_id": "SIM_TEST", "seq": 143, "pitch_deg": -9.5765, "yaw_deg": 305.0874, "roll_deg": 8.4016, "lat_deg": 34.00538744096037, "lon_deg": -118.00962026924566, "altitude_rel_ft": 70.2522, "ground_speed_ft_s": 58.8897, "vel_north_m_s": -0.9278, "vel_east_m_s": -7.3746, "vel_down_m_s": -0.8691, "battery_remain_pct": 74.5821}
{"t_rx_ms": 1776414836953, "run_id": "SIM_TEST", "seq": 144, "pitch_deg": 3.7726, "yaw_deg": 28.6967, "roll_deg": 8.4751, "lat_deg": 33.997268927176165, "lon_deg": -117.99869931211992, "altitude_rel_ft": 59.7227, "ground_speed_ft_s": 10.7457, "vel_north_m_s": -5.2009, "vel_east_m_s": -4.6001, "vel_down_m_s": 0.6943, "battery_remain_pct": 91.6597}
{"t_rx_ms": 1776414837054, "run_id": "SIM_TEST", "seq": 145, "pitch_deg": 9.9099, "yaw_deg": 113.2864, "roll_deg": 14.3668, "lat_deg": 34.00139774794919, "lon_deg": -117.99443834329809, "altitude_rel_ft": 83.9933, "ground_speed_ft_s": 56.9709, "vel_north_m_s": 5.1715, "vel_east_m_s": 6.8172, "vel_down_m_s": -0.4439, "battery_remain_pct": 56.8669}
{"t_rx_ms": 1776414837154, "run_id": "SIM_TEST", "seq": 146, "pitch_deg": 6.0922, "yaw_deg": 146.2049, "roll_deg": -2.5788, "lat_deg": 34.00891361383028, "lon_deg": -117.99468623195884, "altitude_rel_ft": 28.307, "ground_speed_ft_s": 59.2954, "vel_north_m_s": -5.9732, "vel_east_m_s": -8.3733, "vel_down_m_s": -0.916, "battery_remain_pct": 80.2306}
{"t_rx_ms": 1776414837255, "run_id": "SIM_TEST", "seq": 147, "pitch_deg": -3.611, "yaw_deg": 159.9533, "roll_deg": -4.8678, "lat_deg": 33.997808817950904, "lon_deg": -118.00578667463871, "altitude_rel_ft": 99.4705, "ground_speed_ft_s": 42.7608, "vel_north_m_s": -0.7386, "vel_east_m_s": -2.3632, "vel_down_m_s": -0.5146, "battery_remain_pct": 73.7781}
{"t_rx_ms": 1776414837356, "run_id": "SIM_TEST", "seq": 148, "pitch_deg": -4.8466, "yaw_deg": 240.2035, "roll_deg": -13.8671, "lat_deg": 34.00011160203947, "lon_deg": -117.99312031334551, "altitude_rel_ft": 89.0375, "ground_speed_ft_s": 24.3951, "vel_north_m_s": 0.7601, "vel_east_m_s": 8.3617, "vel_down_m_s": -0.075, "battery_remain_pct": 52.2241}
{"t_rx_ms": 1776414837456, "run_id": "SIM_TEST", "seq": 149, "pitch_deg": 1.0946, "yaw_deg": 50.3365, "roll_deg": -11.5392, "lat_deg": 34.00849691591143, "lon_deg": -117.99398336671476, "altitude_rel_ft": 83.1907, "ground_speed_ft_s": 35.3372, "vel_north_m_s": 5.4552, "vel_east_m_s": 1.6654, "vel_down_m_s": 0.6467, "battery_remain_pct": 98.4977}
{"t_rx_ms": 1776414837557, "run_id": "SIM_TEST", "seq": 150, "pitch_deg": 5.1966, "yaw_deg": 165.3705, "roll_deg": 4.6347, "lat_deg": 34.00922708120817, "lon_deg": -117.99906830507953, "altitude_rel_ft": 93.7764, "ground_speed_ft_s": 26.4589, "vel_north_m_s": -1.4025, "vel_east_m_s": 1.4498, "vel_down_m_s": 0.9424, "battery_remain_pct": 84.3156}
{"t_rx_ms": 1776414837658, "run_id": "SIM_TEST", "seq": 151, "pitch_deg": -4.8592, "yaw_deg": 73.566, "roll_deg": -1.9234, "lat_deg": 34.0094054203712, "lon_deg": -117.99819701862452, "altitude_rel_ft": 29.5844, "ground_speed_ft_s": 58.0951, "vel_north_m_s": -2.5161, "vel_east_m_s": -4.5112, "vel_down_m_s": -0.5703, "battery_remain_pct": 76.4951}
{"t_rx_ms": 1776414837758, "run_id": "SIM_TEST", "seq": 152, "pitch_deg": -0.5552, "yaw_deg": 74.0286, "roll_deg": -7.3499, "lat_deg": 34.00693064649461, "lon_deg": -118.00449138655961, "altitude_rel_ft": 72.3491, "ground_speed_ft_s": 10.3334, "vel_north_m_s": 5.127, "vel_east_m_s": 9.8648, "vel_down_m_s": -0.6353, "battery_remain_pct": 67.8743}
{"t_rx_ms": 1776414837859, "run_id": "SIM_TEST", "seq": 153, "pitch_deg": 8.9501, "yaw_deg": 231.7914, "roll_deg": 14.9478, "lat_deg": 34.00718834229933, "lon_deg": -118.00149140987314, "altitude_rel_ft": 42.8315, "ground_speed_ft_s": 47.4957, "vel_north_m_s": 0.7335, "vel_east_m_s": -7.6196, "vel_down_m_s": 0.5867, "battery_remain_pct": 80.5256}
{"t_rx_ms": 1776414837960, "run_id": "SIM_TEST", "seq": 154, "pitch_deg": -8.6305, "yaw_deg": 168.3582, "roll_deg": 4.2239, "lat_deg": 34.003411892084735, "lon_deg": -117.99252468173788, "altitude_rel_ft": 70.4345, "ground_speed_ft_s": 17.6415, "vel_north_m_s": -8.5641, "vel_east_m_s": -6.6516, "vel_down_m_s": -0.3909, "battery_remain_pct": 95.9826}
{"t_rx_ms": 1776414838060, "run_id": "SIM_TEST", "seq": 155, "pitch_deg": -7.4132, "yaw_deg": 143.4779, "roll_deg": 2.9429, "lat_deg": 34.00592866729421, "lon_deg": -118.00594629775786, "altitude_rel_ft": 47.9508, "ground_speed_ft_s": 35.1428, "vel_north_m_s": -9.9012, "vel_east_m_s": -6.524, "vel_down_m_s": -0.249, "battery_remain_pct": 51.9318}
{"t_rx_ms": 1776414838161, "run_id": "SIM_TEST", "seq": 156, "pitch_deg": -2.3666, "yaw_deg": 238.6504, "roll_deg": -10.3802, "lat_deg": 33.99985995166323, "lon_deg": -117.99987461103635, "altitude_rel_ft": 89.3323, "ground_speed_ft_s": 35.3358, "vel_north_m_s": -9.7328, "vel_east_m_s": -3.4428, "vel_down_m_s": 0.2488, "battery_remain_pct": 59.8815}
{"t_rx_ms": 1776414838262, "run_id": "SIM_TEST", "seq": 157, "pitch_deg": -7.8363, "yaw_deg": 287.7043, "roll_deg": -13.9672, "lat_deg": 34.003212001339485, "lon_deg": -118.00273342718434, "altitude_rel_ft": 58.0364, "ground_speed_ft_s": 33.1876, "vel_north_m_s": -3.3148, "vel_east_m_s": -4.8115, "vel_down_m_s": 0.4094, "battery_remain_pct": 58.5005}
{"t_rx_ms": 1776414838362, "run_id": "SIM_TEST", "seq": 158, "pitch_deg": 3.1526, "yaw_deg": 338.2685, "roll_deg": -11.5385, "lat_deg": 33.99777832007769, "lon_deg": -117.99768417530021, "altitude_rel_ft": 43.8879, "ground_speed_ft_s": 30.1458, "vel_north_m_s": 7.1351, "vel_east_m_s": 3.6107, "vel_down_m_s": -0.1887, "battery_remain_pct": 98.0025}
{"t_rx_ms": 1776414838463, "run_id": "SIM_TEST", "seq": 159, "pitch_deg": 9.0785, "yaw_deg": 161.9883, "roll_deg": -13.3815, "lat_deg": 34.00617073100887, "lon_deg": -118.00758363530636, "altitude_rel_ft": 41.2176, "ground_speed_ft_s": 20.7207, "vel_north_m_s": -1.8509, "vel_east_m_s": -2.7547, "vel_down_m_s": 0.0426, "battery_remain_pct": 86.6699}
{"t_rx_ms": 1776414838563, "run_id": "SIM_TEST", "seq": 160, "pitch_deg": 7.2324, "yaw_deg": 136.1065, "roll_deg": 13.9975, "lat_deg": 34.00461690140875, "lon_deg": -118.00943278492826, "altitude_rel_ft": 28.873, "ground_speed_ft_s": 35.5969, "vel_north_m_s": -1.5926, "vel_east_m_s": 4.87, "vel_down_m_s": 0.7273, "battery_remain_pct": 94.1414}
{"t_rx_ms": 1776414838664, "run_id": "SIM_TEST", "seq": 161, "pitch_deg": 5.7333, "yaw_deg": 107.7707, "roll_deg": 13.708, "lat_deg": 34.002614974526935, "lon_deg": -117.99467961516922, "altitude_rel_ft": 98.6519, "ground_speed_ft_s": 29.5769, "vel_north_m_s": 7.8162, "vel_east_m_s": 0.7809, "vel_down_m_s": 0.1903, "battery_remain_pct": 67.1264}
{"t_rx_ms": 1776414838765, "run_id": "SIM_TEST", "seq": 162, "pitch_deg": -1.2749, "yaw_deg": 230.4899, "roll_deg": -5.5969, "lat_deg": 33.99247260594457, "lon_deg": -117.9947135210684, "altitude_rel_ft": 76.8239, "ground_speed_ft_s": 22.3077, "vel_north_m_s": 9.1297, "vel_east_m_s": 6.5993, "vel_down_m_s": 0.8081, "battery_remain_pct": 91.6734}
{"t_rx_ms": 1776414838865, "run_id": "SIM_TEST", "seq": 163, "pitch_deg": -8.2233, "yaw_deg": 289.7119, "roll_deg": 11.148, "lat_deg": 33.997567485877454, "lon_deg": -118.00901135337612, "altitude_rel_ft": 50.0062, "ground_speed_ft_s": 18.1465, "vel_north_m_s": -7.5803, "vel_east_m_s": -3.7973, "vel_down_m_s": 0.7971, "battery_remain_pct": 93.8369}
{"t_rx_ms": 1776414838966, "run_id": "SIM_TEST", "seq": 164, "pitch_deg": -7.4429, "yaw_deg": 329.9495, "roll_deg": 8.8213, "lat_deg": 33.9997065851519, "lon_deg": -117.99794676519544, "altitude_rel_ft": 81.9648, "ground_speed_ft_s": 57.4322, "vel_north_m_s": -6.587, "vel_east_m_s": 6.2049, "vel_down_m_s": 0.8505, "battery_remain_pct": 89.4445}
{"t_rx_ms": 1776414839067, "run_id": "SIM_TEST", "seq": 165, "pitch_deg": -4.3404, "yaw_deg": 315.3155, "roll_deg": 14.8815, "lat_deg": 34.00813821688595, "lon_deg": -117.99282258954874, "altitude_rel_ft": 96.0788, "ground_speed_ft_s": 26.0617, "vel_north_m_s": -6.6385, "vel_east_m_s": -5.9073, "vel_down_m_s": 0.4711, "battery_remain_pct": 82.3767}
{"t_rx_ms": 1776414839167, "run_id": "SIM_TEST", "seq": 166, "pitch_deg": 8.1411, "yaw_deg": 5.594, "roll_deg": -4.8333, "lat_deg": 33.99706913524199, "lon_deg": -117.99053182279923, "altitude_rel_ft": 72.6418, "ground_speed_ft_s": 40.1646, "vel_north_m_s": 3.3597, "vel_east_m_s": -1.4458, "vel_down_m_s": -0.4767, "battery_remain_pct": 86.6459}
{"t_rx_ms": 1776414839268, "run_id": "SIM_TEST", "seq": 167, "pitch_deg": 8.147, "yaw_deg": 221.7789, "roll_deg": -13.1996, "lat_deg": 34.00180079434169, "lon_deg": -117.99900472823607, "altitude_rel_ft": 83.5123, "ground_speed_ft_s": 33.5363, "vel_north_m_s": -3.6091, "vel_east_m_s": 9.14, "vel_down_m_s": -0.5635, "battery_remain_pct": 91.0452}
{"t_rx_ms": 1776414839369, "run_id": "SIM_TEST", "seq": 168, "pitch_deg": 5.6076, "yaw_deg": 336.4553, "roll_deg": -5.5881, "lat_deg": 33.99902863565704, "lon_deg": -117.99963225328477, "altitude_rel_ft": 78.8391, "ground_speed_ft_s": 15.9997, "vel_north_m_s": -3.0909, "vel_east_m_s": -3.8614, "vel_down_m_s": -0.3497, "battery_remain_pct": 93.2522}
{"t_rx_ms": 1776414839470, "run_id": "SIM_TEST", "seq": 169, "pitch_deg": 5.9881, "yaw_deg": 157.2898, "roll_deg": -0.8757, "lat_deg": 34.000900235831715, "lon_deg": -118.00459480730918, "altitude_rel_ft": 79.7732, "ground_speed_ft_s": 5.8082, "vel_north_m_s": -8.8393, "vel_east_m_s": -4.3144, "vel_down_m_s": -0.229, "battery_remain_pct": 87.4737}
{"t_rx_ms": 1776414839570, "run_id": "SIM_TEST", "seq": 170, "pitch_deg": 4.1961, "yaw_deg": 322.4125, "roll_deg": 0.2771, "lat_deg": 33.99186334545264, "lon_deg": -118.00872438912602, "altitude_rel_ft": 69.7795, "ground_speed_ft_s": 47.1751, "vel_north_m_s": 2.0548, "vel_east_m_s": 7.2631, "vel_down_m_s": -0.6877, "battery_remain_pct": 74.0452}
{"t_rx_ms": 1776414839671, "run_id": "SIM_TEST", "seq": 171, "pitch_deg": -2.6195, "yaw_deg": 135.8647, "roll_deg": 9.8712, "lat_deg": 33.999717123158014, "lon_deg": -117.99480532102679, "altitude_rel_ft": 33.8416, "ground_speed_ft_s": 46.0271, "vel_north_m_s": -5.7632, "vel_east_m_s": 0.9797, "vel_down_m_s": 0.3735, "battery_remain_pct": 67.4873}
