{"t_rx_ms": 1778118645519, "run_id": "20260506_185044", "seq": 0, "pitch_deg": null, "yaw_deg": null, "roll_deg": null, "lat_deg": null, "lon_deg": null, "altitude_rel_ft": null, "ground_speed_ft_s": null, "vel_north_m_s": null, "vel_east_m_s": null, "vel_down_m_s": null, "battery_remain_pct": null}
{"t_rx_ms": 1778118645692, "run_id": "20260506_185044", "seq": 1, "pitch_deg": null, "yaw_deg": null, "roll_deg": null, "lat_deg": null, "lon_deg": null, "altitude_rel_ft": null, "ground_speed_ft_s": null, "vel_north_m_s": null, "vel_east_m_s": null, "vel_down_m_s": null, "battery_remain_pct": null}
{"t_rx_ms": 1778118645892, "run_id": "20260506_185044", "seq": 2, "pitch_deg": null, "yaw_deg": null, "roll_deg": null, "lat_deg": null, "lon_deg": null, "altitude_rel_ft": null, "ground_speed_ft_s": null, "vel_north_m_s": null, "vel_east_m_s": null, "vel_down_m_s": null, "battery_remain_pct": null}
{"t_rx_ms": 1778118646093, "run_id": "20260506_185044", "seq": 3, "pitch_deg": null, "yaw_deg": null, "roll_deg": null, "lat_deg": null, "lon_deg": null, "altitude_rel_ft": null, "ground_speed_ft_s": null, "vel_north_m_s": null, "vel_east_m_s": null, "vel_down_m_s": null, "battery_remain_pct": null}
{"t_rx_ms": 1778118646293, "run_id": "20260506_185044", "seq": 4, "pitch_deg": null, "yaw_deg": null, "roll_deg": null, "lat_deg": null, "lon_deg": null, "altitude_rel_ft": null, "ground_speed_ft_s": null, "vel_north_m_s": null, "vel_east_m_s": null, "vel_down_m_s": null, "battery_remain_pct": null}
{"t_rx_ms": 1778118646497, "run_id": "20260506_185044", "seq": 5, "pitch_deg": null, "yaw_deg": null, "roll_deg": null, "lat_deg": null, "lon_deg": null, "altitude_rel_ft": null, "ground_speed_ft_s": null, "vel_north_m_s": null, "vel_east_m_s": null, "vel_down_m_s": null, "battery_remain_pct": null}
{"t_rx_ms": 1778118646698, "run_id": "20260506_185044", "seq": 6, "pitch_deg": null, "yaw_deg": null, "roll_deg": null, "lat_deg": null, "lon_deg": null, "altitude_rel_ft": null, "ground_speed_ft_s": null, "vel_north_m_s": null, "vel_east_m_s": null, "vel_down_m_s": null, "battery_remain_pct": null}
{"t_rx_ms": 1778118646899, "run_id": "20260506_185044", "seq": 7, "pitch_deg": null, "yaw_deg": null, "roll_deg": null, "lat_deg": null, "lon_deg": null, "altitude_rel_ft": null, "ground_speed_ft_s": null, "vel_north_m_s": null, "vel_east_m_s": null, "vel_down_m_s": null, "battery_remain_pct": null}
{"t_rx_ms": 1778118647099, "run_id": "20260506_185044", "seq": 8, "pitch_deg": null, "yaw_deg": null, "roll_deg": null, "lat_deg": null, "lon_deg": null, "altitude_rel_ft": null, "ground_speed_ft_s": null, "vel_north_m_s": null, "vel_east_m_s": null, "vel_down_m_s": null, "battery_remain_pct": null}
{"t_rx_ms": 1778118647300, "run_id": "20260506_185044", "seq": 9, "pitch_deg": null, "yaw_deg": null, "roll_deg": null, "lat_deg": null, "lon_deg": null, "altitude_rel_ft": null, "ground_speed_ft_s": null, "vel_north_m_s": null, "vel_east_m_s": null, "vel_down_m_s": null, "battery_remain_pct": null}
{"t_rx_ms": 1778118647500, "run_id": "20260506_185044", "seq": 10, "pitch_deg": null, "yaw_deg": null, "roll_deg": null, "lat_deg": null, "lon_deg": null, "altitude_rel_ft": null, "ground_speed_ft_s": null, "vel_north_m_s": null, "vel_east_m_s": null, "vel_down_m_s": null, "battery_remain_pct": null}
{"t_rx_ms": 1778118647701, "run_id": "20260506_185044", "seq": 11, "pitch_deg": 2.4878, "yaw_deg": -17.4011, "roll_deg": 0.5261, "lat_deg": 0.0, "lon_deg": 0.0, "altitude_rel_ft": 27.3589, "ground_speed_ft_s": 0.0, "vel_north_m_s": 0.0, "vel_east_m_s": 0.0, "vel_down_m_s": 0.0, "battery_remain_pct": 9900.0}
{"t_rx_ms": 1778118647903, "run_id": "20260506_185044", "seq": 12, "pitch_deg": 2.4878, "yaw_deg": -17.4011, "roll_deg": 0.5261, "lat_deg": 0.0, "lon_deg": 0.0, "altitude_rel_ft": 27.3589, "ground_speed_ft_s": 0.0, "vel_north_m_s": 0.0, "vel_east_m_s": 0.0, "vel_down_m_s": 0.0, "battery_remain_pct": 9900.0}
{"t_rx_ms": 1778118648103, "run_id": "20260506_185044", "seq": 13, "pitch_deg": 2.4878, "yaw_deg": -17.4011, "roll_deg": 0.5261, "lat_deg": 0.0, "lon_deg": 0.0, "altitude_rel_ft": 27.3589, "ground_speed_ft_s": 0.0, "vel_north_m_s": 0.0, "vel_east_m_s": 0.0, "vel_down_m_s": 0.0, "battery_remain_pct": 9900.0}
{"t_rx_ms": 1778118648304, "run_id": "20260506_185044", "seq": 14, "pitch_deg": 2.4878, "yaw_deg": -17.4011, "roll_deg": 0.5261, "lat_deg": 0.0, "lon_deg": 0.0, "altitude_rel_ft": 27.3589, "ground_speed_ft_s": 0.0, "vel_north_m_s": 0.0, "vel_east_m_s": 0.0, "vel_down_m_s": 0.0, "battery_remain_pct": 9900.0}
{"t_rx_ms": 1778118648504, "run_id": "20260506_185044", "seq": 15, "pitch_deg": 2.4878, "yaw_deg": -17.4011, "roll_deg": 0.5261, "lat_deg": 0.0, "lon_deg": 0.0, "altitude_rel_ft": 27.3589, "ground_speed_ft_s": 0.0, "vel_north_m_s": 0.0, "vel_east_m_s": 0.0, "vel_down_m_s": 0.0, "battery_remain_pct": 9900.0}
{"t_rx_ms": 1778118648705, "run_id": "20260506_185044", "seq": 16, "pitch_deg": 2.4878, "yaw_deg": -17.4011, "roll_deg": 0.5261, "lat_deg": 0.0, "lon_deg": 0.0, "altitude_rel_ft": 27.3589, "ground_speed_ft_s": 0.0, "vel_north_m_s": 0.0, "vel_east_m_s": 0.0, "vel_down_m_s": 0.0, "battery_remain_pct": 9900.0}
{"t_rx_ms": 1778118648906, "run_id": "20260506_185044", "seq": 17, "pitch_deg": 2.4878, "yaw_deg": -17.4011, "roll_deg": 0.5261, "lat_deg": 0.0, "lon_deg": 0.0, "altitude_rel_ft": 27.3589, "ground_speed_ft_s": 0.0, "vel_north_m_s": 0.0, "vel_east_m_s": 0.0, "vel_down_m_s": 0.0, "battery_remain_pct": 9900.0}
{"t_rx_ms": 1778118649108, "run_id": "20260506_185044", "seq": 18, "pitch_deg": 2.4878, "yaw_deg": -17.4011, "roll_deg": 0.5261, "lat_deg": 0.0, "lon_deg": 0.0, "altitude_rel_ft": 27.3589, "ground_speed_ft_s": 0.0, "vel_north_m_s": 0.0, "vel_east_m_s": 0.0, "vel_down_m_s": 0.0, "battery_remain_pct": 9900.0}
{"t_rx_ms": 1778118649309, "run_id": "20260506_185044", "seq": 19, "pitch_deg": 2.4878, "yaw_deg": -17.4011, "roll_deg": 0.5261, "lat_deg": 0.0, "lon_deg": 0.0, "altitude_rel_ft": 27.3589, "ground_speed_ft_s": 0.0, "vel_north_m_s": 0.0, "vel_east_m_s": 0.0, "vel_down_m_s": 0.0, "battery_remain_pct": 9900.0}
{"t_rx_ms": 1778118649509, "run_id": "20260506_185044", "seq": 20, "pitch_deg": 2.4878, "yaw_deg": -17.4011, "roll_deg": 0.5261, "lat_deg": 0.0, "lon_deg": 0.0, "altitude_rel_ft": 27.3589, "ground_speed_ft_s": 0.0, "vel_north_m_s": 0.0, "vel_east_m_s": 0.0, "vel_down_m_s": 0.0, "battery_remain_pct": 9900.0}
{"t_rx_ms": 1778118649711, "run_id": "20260506_185044", "seq": 21, "pitch_deg": 2.4878, "yaw_deg": -17.4011, "roll_deg": 0.5261, "lat_deg": 0.0, "lon_deg": 0.0, "altitude_rel_ft": 27.3589, "ground_speed_ft_s": 0.0, "vel_north_m_s": 0.0, "vel_east_m_s": 0.0, "vel_down_m_s": 0.0, "battery_remain_pct": 9900.0}
{"t_rx_ms": 1778118649911, "run_id": "20260506_185044", "seq": 22, "pitch_deg": 2.4878, "yaw_deg": -17.4011, "roll_deg": 0.5261, "lat_deg": 0.0, "lon_deg": 0.0, "altitude_rel_ft": 27.3589, "ground_speed_ft_s": 0.0, "vel_north_m_s": 0.0, "vel_east_m_s": 0.0, "vel_down_m_s": 0.0, "battery_remain_pct": 9900.0}
{"t_rx_ms": 1778118650111, "run_id": "20260506_185044", "seq": 23, "pitch_deg": 2.4878, "yaw_deg": -17.4011, "roll_deg": 0.5261, "lat_deg": 0.0, "lon_deg": 0.0, "altitude_rel_ft": 27.3589, "ground_speed_ft_s": 0.0, "vel_north_m_s": 0.0, "vel_east_m_s": 0.0, "vel_down_m_s": 0.0, "battery_remain_pct": 9900.0}
{"t_rx_ms": 1778118650313, "run_id": "20260506_185044", "seq": 24, "pitch_deg": 2.4878, "yaw_deg": -17.4011, "roll_deg": 0.5261, "lat_deg": 0.0, "lon_deg": 0.0, "altitude_rel_ft": 27.3589, "ground_speed_ft_s": 0.0, "vel_north_m_s": 0.0, "vel_east_m_s": 0.0, "vel_down_m_s": 0.0, "battery_remain_pct": 9900.0}
{"t_rx_ms": 1778118650516, "run_id": "20260506_185044", "seq": 25, "pitch_deg": 2.4878, "yaw_deg": -17.4011, "roll_deg": 0.5261, "lat_deg": 0.0, "lon_deg": 0.0, "altitude_rel_ft": 27.3589, "ground_speed_ft_s": 0.0, "vel_north_m_s": 0.0, "vel_east_m_s": 0.0, "vel_down_m_s": 0.0, "battery_remain_pct": 9900.0}
{"t_rx_ms": 1778118650717, "run_id": "20260506_185044", "seq": 26, "pitch_deg": 2.4878, "yaw_deg": -17.4011, "roll_deg": 0.5261, "lat_deg": 0.0, "lon_deg": 0.0, "altitude_rel_ft": 27.3589, "ground_speed_ft_s": 0.0, "vel_north_m_s": 0.0, "vel_east_m_s": 0.0, "vel_down_m_s": 0.0, "battery_remain_pct": 9900.0}
{"t_rx_ms": 1778118650919, "run_id": "20260506_185044", "seq": 27, "pitch_deg": 2.4878, "yaw_deg": -17.4011, "roll_deg": 0.5261, "lat_deg": 0.0, "lon_deg": 0.0, "altitude_rel_ft": 27.3589, "ground_speed_ft_s": 0.0, "vel_north_m_s": 0.0, "vel_east_m_s": 0.0, "vel_down_m_s": 0.0, "battery_remain_pct": 9900.0}
{"t_rx_ms": 1778118651119, "run_id": "20260506_185044", "seq": 28, "pitch_deg": 2.4878, "yaw_deg": -17.4011, "roll_deg": 0.5261, "lat_deg": 0.0, "lon_deg": 0.0, "altitude_rel_ft": 27.3589, "ground_speed_ft_s": 0.0, "vel_north_m_s": 0.0, "vel_east_m_s": 0.0, "vel_down_m_s": 0.0, "battery_remain_pct": 9900.0}
{"t_rx_ms": 1778118651320, "run_id": "20260506_185044", "seq": 29, "pitch_deg": 2.4878, "yaw_deg": -17.4011, "roll_deg": 0.5261, "lat_deg": 0.0, "lon_deg": 0.0, "altitude_rel_ft": 27.3589, "ground_speed_ft_s": 0.0, "vel_north_m_s": 0.0, "vel_east_m_s": 0.0, "vel_down_m_s": 0.0, "battery_remain_pct": 9900.0}
{"t_rx_ms": 1778118651521, "run_id": "20260506_185044", "seq": 30, "pitch_deg": 2.4878, "yaw_deg": -17.4011, "roll_deg": 0.5261, "lat_deg": 0.0, "lon_deg": 0.0, "altitude_rel_ft": 27.3589, "ground_speed_ft_s": 0.0, "vel_north_m_s": 0.0, "vel_east_m_s": 0.0, "vel_down_m_s": 0.0, "battery_remain_pct": 9900.0}
{"t_rx_ms": 1778118651722, "run_id": "20260506_185044", "seq": 31, "pitch_deg": 2.4416, "yaw_deg": -12.667, "roll_deg": 0.5192, "lat_deg": 0.0, "lon_deg": 0.0, "altitude_rel_ft": 27.4344, "ground_speed_ft_s": 0.0, "vel_north_m_s": 0.0, "vel_east_m_s": 0.0, "vel_down_m_s": 0.0, "battery_remain_pct": 9900.0}
{"t_rx_ms": 1778118651922, "run_id": "20260506_185044", "seq": 32, "pitch_deg": 2.4416, "yaw_deg": -12.667, "roll_deg": 0.5192, "lat_deg": 0.0, "lon_deg": 0.0, "altitude_rel_ft": 27.4344, "ground_speed_ft_s": 0.0, "vel_north_m_s": 0.0, "vel_east_m_s": 0.0, "vel_down_m_s": 0.0, "battery_remain_pct": 9900.0}
{"t_rx_ms": 1778118652123, "run_id": "20260506_185044", "seq": 33, "pitch_deg": 2.4416, "yaw_deg": -12.667, "roll_deg": 0.5192, "lat_deg": 0.0, "lon_deg": 0.0, "altitude_rel_ft": 27.4344, "ground_speed_ft_s": 0.0, "vel_north_m_s": 0.0, "vel_east_m_s": 0.0, "vel_down_m_s": 0.0, "battery_remain_pct": 9900.0}
{"t_rx_ms": 1778118652323, "run_id": "20260506_185044", "seq": 34, "pitch_deg": 2.4416, "yaw_deg": -12.667, "roll_deg": 0.5192, "lat_deg": 0.0, "lon_deg": 0.0, "altitude_rel_ft": 27.4344, "ground_speed_ft_s": 0.0, "vel_north_m_s": 0.0, "vel_east_m_s": 0.0, "vel_down_m_s": 0.0, "battery_remain_pct": 9900.0}
{"t_rx_ms": 1778118652524, "run_id": "20260506_185044", "seq": 35, "pitch_deg": 2.4416, "yaw_deg": -12.667, "roll_deg": 0.5192, "lat_deg": 0.0, "lon_deg": 0.0, "altitude_rel_ft": 27.4344, "ground_speed_ft_s": 0.0, "vel_north_m_s": 0.0, "vel_east_m_s": 0.0, "vel_down_m_s": 0.0, "battery_remain_pct": 9900.0}
{"t_rx_ms": 1778118652726, "run_id": "20260506_185044", "seq": 36, "pitch_deg": 2.4416, "yaw_deg": -12.667, "roll_deg": 0.5192, "lat_deg": 0.0, "lon_deg": 0.0, "altitude_rel_ft": 27.4344, "ground_speed_ft_s": 0.0, "vel_north_m_s": 0.0, "vel_east_m_s": 0.0, "vel_down_m_s": 0.0, "battery_remain_pct": 9900.0}
{"t_rx_ms": 1778118652925, "run_id": "20260506_185044", "seq": 37, "pitch_deg": 2.4416, "yaw_deg": -12.667, "roll_deg": 0.5192, "lat_deg": 0.0, "lon_deg": 0.0, "altitude_rel_ft": 27.4344, "ground_speed_ft_s": 0.0, "vel_north_m_s": 0.0, "vel_east_m_s": 0.0, "vel_down_m_s": 0.0, "battery_remain_pct": 9900.0}
{"t_rx_ms": 1778118653127, "run_id": "20260506_185044", "seq": 38, "pitch_deg": 2.4416, "yaw_deg": -12.667, "roll_deg": 0.5192, "lat_deg": 0.0, "lon_deg": 0.0, "altitude_rel_ft": 27.4344, "ground_speed_ft_s": 0.0, "vel_north_m_s": 0.0, "vel_east_m_s": 0.0, "vel_down_m_s": 0.0, "battery_remain_pct": 9900.0}
{"t_rx_ms": 1778118653327, "run_id": "20260506_185044", "seq": 39, "pitch_deg": 2.4416, "yaw_deg": -12.667, "roll_deg": 0.5192, "lat_deg": 0.0, "lon_deg": 0.0, "altitude_rel_ft": 27.4344, "ground_speed_ft_s": 0.0, "vel_north_m_s": 0.0, "vel_east_m_s": 0.0, "vel_down_m_s": 0.0, "battery_remain_pct": 9900.0}
{"t_rx_ms": 1778118653528, "run_id": "20260506_185044", "seq": 40, "pitch_deg": 2.4416, "yaw_deg": -12.667, "roll_deg": 0.5192, "lat_deg": 0.0, "lon_deg": 0.0, "altitude_rel_ft": 27.4344, "ground_speed_ft_s": 0.0, "vel_north_m_s": 0.0, "vel_east_m_s": 0.0, "vel_down_m_s": 0.0, "battery_remain_pct": 9900.0}
{"t_rx_ms": 1778118653729, "run_id": "20260506_185044", "seq": 41, "pitch_deg": 2.4416, "yaw_deg": -12.667, "roll_deg": 0.5192, "lat_deg": 0.0, "lon_deg": 0.0, "altitude_rel_ft": 27.4344, "ground_speed_ft_s": 0.0, "vel_north_m_s": 0.0, "vel_east_m_s": 0.0, "vel_down_m_s": 0.0, "battery_remain_pct": 9900.0}
{"t_rx_ms": 1778118653930, "run_id": "20260506_185044", "seq": 42, "pitch_deg": 2.4276, "yaw_deg": -10.9746, "roll_deg": 0.4915, "lat_deg": 0.0, "lon_deg": 0.0, "altitude_rel_ft": 27.9659, "ground_speed_ft_s": 0.0, "vel_north_m_s": 0.0, "vel_east_m_s": 0.0, "vel_down_m_s": 0.0, "battery_remain_pct": 9900.0}
{"t_rx_ms": 1778118654131, "run_id": "20260506_185044", "seq": 43, "pitch_deg": 2.4276, "yaw_deg": -10.9746, "roll_deg": 0.4915, "lat_deg": 0.0, "lon_deg": 0.0, "altitude_rel_ft": 27.9659, "ground_speed_ft_s": 0.0, "vel_north_m_s": 0.0, "vel_east_m_s": 0.0, "vel_down_m_s": 0.0, "battery_remain_pct": 9900.0}
{"t_rx_ms": 1778118654333, "run_id": "20260506_185044", "seq": 44, "pitch_deg": 2.4276, "yaw_deg": -10.9746, "roll_deg": 0.4915, "lat_deg": 0.0, "lon_deg": 0.0, "altitude_rel_ft": 27.9659, "ground_speed_ft_s": 0.0, "vel_north_m_s": 0.0, "vel_east_m_s": 0.0, "vel_down_m_s": 0.0, "battery_remain_pct": 9900.0}
{"t_rx_ms": 1778118654534, "run_id": "20260506_185044", "seq": 45, "pitch_deg": 2.4276, "yaw_deg": -10.9746, "roll_deg": 0.4915, "lat_deg": 0.0, "lon_deg": 0.0, "altitude_rel_ft": 27.9659, "ground_speed_ft_s": 0.0, "vel_north_m_s": 0.0, "vel_east_m_s": 0.0, "vel_down_m_s": 0.0, "battery_remain_pct": 9900.0}
{"t_rx_ms": 1778118654735, "run_id": "20260506_185044", "seq": 46, "pitch_deg": 2.4276, "yaw_deg": -10.9746, "roll_deg": 0.4915, "lat_deg": 0.0, "lon_deg": 0.0, "altitude_rel_ft": 27.9659, "ground_speed_ft_s": 0.0, "vel_north_m_s": 0.0, "vel_east_m_s": 0.0, "vel_down_m_s": 0.0, "battery_remain_pct": 9900.0}
{"t_rx_ms": 1778118654935, "run_id": "20260506_185044", "seq": 47, "pitch_deg": 2.4276, "yaw_deg": -10.9746, "roll_deg": 0.4915, "lat_deg": 0.0, "lon_deg": 0.0, "altitude_rel_ft": 27.9659, "ground_speed_ft_s": 0.0, "vel_north_m_s": 0.0, "vel_east_m_s": 0.0, "vel_down_m_s": 0.0, "battery_remain_pct": 9900.0}
{"t_rx_ms": 1778118655137, "run_id": "20260506_185044", "seq": 48, "pitch_deg": 2.4185, "yaw_deg": -10.4562, "roll_deg": 0.475, "lat_deg": 0.0, "lon_deg": 0.0, "altitude_rel_ft": 28.0151, "ground_speed_ft_s": 0.0, "vel_north_m_s": 0.0, "vel_east_m_s": 0.0, "vel_down_m_s": 0.0, "battery_remain_pct": 9900.0}
{"t_rx_ms": 1778118655338, "run_id": "20260506_185044", "seq": 49, "pitch_deg": 2.4185, "yaw_deg": -10.4562, "roll_deg": 0.475, "lat_deg": 0.0, "lon_deg": 0.0, "altitude_rel_ft": 28.0151, "ground_speed_ft_s": 0.0, "vel_north_m_s": 0.0, "vel_east_m_s": 0.0, "vel_down_m_s": 0.0, "battery_remain_pct": 9900.0}
{"t_rx_ms": 1778118655539, "run_id": "20260506_185044", "seq": 50, "pitch_deg": 2.4185, "yaw_deg": -10.4562, "roll_deg": 0.475, "lat_deg": 0.0, "lon_deg": 0.0, "altitude_rel_ft": 28.0151, "ground_speed_ft_s": 0.0, "vel_north_m_s": 0.0, "vel_east_m_s": 0.0, "vel_down_m_s": 0.0, "battery_remain_pct": 9900.0}
{"t_rx_ms": 1778118655740, "run_id": "20260506_185044", "seq": 51, "pitch_deg": 2.4185, "yaw_deg": -10.4562, "roll_deg": 0.475, "lat_deg": 0.0, "lon_deg": 0.0, "altitude_rel_ft": 28.0151, "ground_speed_ft_s": 0.0, "vel_north_m_s": 0.0, "vel_east_m_s": 0.0, "vel_down_m_s": 0.0, "battery_remain_pct": 9900.0}
{"t_rx_ms": 1778118655940, "run_id": "20260506_185044", "seq": 52, "pitch_deg": 2.4141, "yaw_deg": -9.8583, "roll_deg": 0.4578, "lat_deg": 0.0, "lon_deg": 0.0, "altitude_rel_ft": 27.8609, "ground_speed_ft_s": 0.0, "vel_north_m_s": 0.0, "vel_east_m_s": 0.0, "vel_down_m_s": 0.0, "battery_remain_pct": 9900.0}
{"t_rx_ms": 1778118656141, "run_id": "20260506_185044", "seq": 53, "pitch_deg": 2.4141, "yaw_deg": -9.8583, "roll_deg": 0.4578, "lat_deg": 0.0, "lon_deg": 0.0, "altitude_rel_ft": 27.8609, "ground_speed_ft_s": 0.0, "vel_north_m_s": 0.0, "vel_east_m_s": 0.0, "vel_down_m_s": 0.0, "battery_remain_pct": 9900.0}
{"t_rx_ms": 1778118656344, "run_id": "20260506_185044", "seq": 54, "pitch_deg": 2.4141, "yaw_deg": -9.8583, "roll_deg": 0.4578, "lat_deg": 0.0, "lon_deg": 0.0, "altitude_rel_ft": 27.8609, "ground_speed_ft_s": 0.0, "vel_north_m_s": 0.0, "vel_east_m_s": 0.0, "vel_down_m_s": 0.0, "battery_remain_pct": 9900.0}
{"t_rx_ms": 1778118656544, "run_id": "20260506_185044", "seq": 55, "pitch_deg": 2.4141, "yaw_deg": -9.8583, "roll_deg": 0.4578, "lat_deg": 0.0, "lon_deg": 0.0, "altitude_rel_ft": 27.8609, "ground_speed_ft_s": 0.0, "vel_north_m_s": 0.0, "vel_east_m_s": 0.0, "vel_down_m_s": 0.0, "battery_remain_pct": 9900.0}
{"t_rx_ms": 1778118656745, "run_id": "20260506_185044", "seq": 56, "pitch_deg": 2.4141, "yaw_deg": -9.8583, "roll_deg": 0.4578, "lat_deg": 0.0, "lon_deg": 0.0, "altitude_rel_ft": 27.8609, "ground_speed_ft_s": 0.0, "vel_north_m_s": 0.0, "vel_east_m_s": 0.0, "vel_down_m_s": 0.0, "battery_remain_pct": 9900.0}
{"t_rx_ms": 1778118656948, "run_id": "20260506_185044", "seq": 57, "pitch_deg": 2.4141, "yaw_deg": -9.8583, "roll_deg": 0.4578, "lat_deg": 0.0, "lon_deg": 0.0, "altitude_rel_ft": 27.8609, "ground_speed_ft_s": 0.0, "vel_north_m_s": 0.0, "vel_east_m_s": 0.0, "vel_down_m_s": 0.0, "battery_remain_pct": 9900.0}
{"t_rx_ms": 1778118657149, "run_id": "20260506_185044", "seq": 58, "pitch_deg": 2.4097, "yaw_deg": -9.5049, "roll_deg": 0.4394, "lat_deg": 0.0, "lon_deg": 0.0, "altitude_rel_ft": 27.956, "ground_speed_ft_s": 0.0, "vel_north_m_s": 0.0, "vel_east_m_s": 0.0, "vel_down_m_s": 0.0, "battery_remain_pct": 9900.0}
{"t_rx_ms": 1778118657349, "run_id": "20260506_185044", "seq": 59, "pitch_deg": 2.4097, "yaw_deg": -9.5049, "roll_deg": 0.4394, "lat_deg": 0.0, "lon_deg": 0.0, "altitude_rel_ft": 27.956, "ground_speed_ft_s": 0.0, "vel_north_m_s": 0.0, "vel_east_m_s": 0.0, "vel_down_m_s": 0.0, "battery_remain_pct": 9900.0}
{"t_rx_ms": 1778118657550, "run_id": "20260506_185044", "seq": 60, "pitch_deg": 2.4097, "yaw_deg": -9.5049, "roll_deg": 0.4394, "lat_deg": 0.0, "lon_deg": 0.0, "altitude_rel_ft": 27.956, "ground_speed_ft_s": 0.0, "vel_north_m_s": 0.0, "vel_east_m_s": 0.0, "vel_down_m_s": 0.0, "battery_remain_pct": 9900.0}
{"t_rx_ms": 1778118657751, "run_id": "20260506_185044", "seq": 61, "pitch_deg": 2.4097, "yaw_deg": -9.5049, "roll_deg": 0.4394, "lat_deg": 0.0, "lon_deg": 0.0, "altitude_rel_ft": 27.956, "ground_speed_ft_s": 0.0, "vel_north_m_s": 0.0, "vel_east_m_s": 0.0, "vel_down_m_s": 0.0, "battery_remain_pct": 9900.0}
{"t_rx_ms": 1778118657954, "run_id": "20260506_185044", "seq": 62, "pitch_deg": 2.4066, "yaw_deg": -9.0786, "roll_deg": 0.4269, "lat_deg": 0.0, "lon_deg": 0.0, "altitude_rel_ft": 27.6969, "ground_speed_ft_s": 0.0, "vel_north_m_s": 0.0, "vel_east_m_s": 0.0, "vel_down_m_s": 0.0, "battery_remain_pct": 9900.0}
{"t_rx_ms": 1778118658155, "run_id": "20260506_185044", "seq": 63, "pitch_deg": 2.4066, "yaw_deg": -9.0786, "roll_deg": 0.4269, "lat_deg": 0.0, "lon_deg": 0.0, "altitude_rel_ft": 27.6969, "ground_speed_ft_s": 0.0, "vel_north_m_s": 0.0, "vel_east_m_s": 0.0, "vel_down_m_s": 0.0, "battery_remain_pct": 9900.0}
{"t_rx_ms": 1778118658356, "run_id": "20260506_185044", "seq": 64, "pitch_deg": 2.4066, "yaw_deg": -9.0786, "roll_deg": 0.4269, "lat_deg": 0.0, "lon_deg": 0.0, "altitude_rel_ft": 27.6969, "ground_speed_ft_s": 0.0, "vel_north_m_s": 0.0, "vel_east_m_s": 0.0, "vel_down_m_s": 0.0, "battery_remain_pct": 9900.0}
{"t_rx_ms": 1778118658557, "run_id": "20260506_185044", "seq": 65, "pitch_deg": 2.4066, "yaw_deg": -9.0786, "roll_deg": 0.4269, "lat_deg": 0.0, "lon_deg": 0.0, "altitude_rel_ft": 27.6969, "ground_speed_ft_s": 0.0, "vel_north_m_s": 0.0, "vel_east_m_s": 0.0, "vel_down_m_s": 0.0, "battery_remain_pct": 9900.0}
{"t_rx_ms": 1778118658758, "run_id": "20260506_185044", "seq": 66, "pitch_deg": 2.4066, "yaw_deg": -9.0786, "roll_deg": 0.4269, "lat_deg": 0.0, "lon_deg": 0.0, "altitude_rel_ft": 27.6969, "ground_speed_ft_s": 0.0, "vel_north_m_s": 0.0, "vel_east_m_s": 0.0, "vel_down_m_s": 0.0, "battery_remain_pct": 9900.0}
{"t_rx_ms": 1778118658960, "run_id": "20260506_185044", "seq": 67, "pitch_deg": 2.4026, "yaw_deg": -8.818, "roll_deg": 0.4047, "lat_deg": 0.0, "lon_deg": 0.0, "altitude_rel_ft": 27.9364, "ground_speed_ft_s": 0.0, "vel_north_m_s": 0.0, "vel_east_m_s": 0.0, "vel_down_m_s": 0.0, "battery_remain_pct": 9900.0}
{"t_rx_ms": 1778118659162, "run_id": "20260506_185044", "seq": 68, "pitch_deg": 2.4026, "yaw_deg": -8.818, "roll_deg": 0.4047, "lat_deg": 0.0, "lon_deg": 0.0, "altitude_rel_ft": 27.9364, "ground_speed_ft_s": 0.0, "vel_north_m_s": 0.0, "vel_east_m_s": 0.0, "vel_down_m_s": 0.0, "battery_remain_pct": 9900.0}
{"t_rx_ms": 1778118659362, "run_id": "20260506_185044", "seq": 69, "pitch_deg": 2.4026, "yaw_deg": -8.818, "roll_deg": 0.4047, "lat_deg": 0.0, "lon_deg": 0.0, "altitude_rel_ft": 27.9364, "ground_speed_ft_s": 0.0, "vel_north_m_s": 0.0, "vel_east_m_s": 0.0, "vel_down_m_s": 0.0, "battery_remain_pct": 9900.0}
{"t_rx_ms": 1778118659563, "run_id": "20260506_185044", "seq": 70, "pitch_deg": 2.4026, "yaw_deg": -8.818, "roll_deg": 0.4047, "lat_deg": 0.0, "lon_deg": 0.0, "altitude_rel_ft": 27.9364, "ground_speed_ft_s": 0.0, "vel_north_m_s": 0.0, "vel_east_m_s": 0.0, "vel_down_m_s": 0.0, "battery_remain_pct": 9900.0}
{"t_rx_ms": 1778118659764, "run_id": "20260506_185044", "seq": 71, "pitch_deg": 2.4026, "yaw_deg": -8.818, "roll_deg": 0.4047, "lat_deg": 0.0, "lon_deg": 0.0, "altitude_rel_ft": 27.9364, "ground_speed_ft_s": 0.0, "vel_north_m_s": 0.0, "vel_east_m_s": 0.0, "vel_down_m_s": 0.0, "battery_remain_pct": 9900.0}
{"t_rx_ms": 1778118659966, "run_id": "20260506_185044", "seq": 72, "pitch_deg": 2.4018, "yaw_deg": -8.4307, "roll_deg": 0.3799, "lat_deg": 0.0, "lon_deg": 0.0, "altitude_rel_ft": 28.5269, "ground_speed_ft_s": 0.0, "vel_north_m_s": 0.0, "vel_east_m_s": 0.0, "vel_down_m_s": 0.0, "battery_remain_pct": 9900.0}
{"t_rx_ms": 1778118660167, "run_id": "20260506_185044", "seq": 73, "pitch_deg": 2.4018, "yaw_deg": -8.4307, "roll_deg": 0.3799, "lat_deg": 0.0, "lon_deg": 0.0, "altitude_rel_ft": 28.5269, "ground_speed_ft_s": 0.0, "vel_north_m_s": 0.0, "vel_east_m_s": 0.0, "vel_down_m_s": 0.0, "battery_remain_pct": 9900.0}
{"t_rx_ms": 1778118660369, "run_id": "20260506_185044", "seq": 74, "pitch_deg": 2.4018, "yaw_deg": -8.4307, "roll_deg": 0.3799, "lat_deg": 0.0, "lon_deg": 0.0, "altitude_rel_ft": 28.5269, "ground_speed_ft_s": 0.0, "vel_north_m_s": 0.0, "vel_east_m_s": 0.0, "vel_down_m_s": 0.0, "battery_remain_pct": 9900.0}
{"t_rx_ms": 1778118660570, "run_id": "20260506_185044", "seq": 75, "pitch_deg": 2.4018, "yaw_deg": -8.4307, "roll_deg": 0.3799, "lat_deg": 0.0, "lon_deg": 0.0, "altitude_rel_ft": 28.5269, "ground_speed_ft_s": 0.0, "vel_north_m_s": 0.0, "vel_east_m_s": 0.0, "vel_down_m_s": 0.0, "battery_remain_pct": 9900.0}
{"t_rx_ms": 1778118660770, "run_id": "20260506_185044", "seq": 76, "pitch_deg": 2.4018, "yaw_deg": -8.4307, "roll_deg": 0.3799, "lat_deg": 0.0, "lon_deg": 0.0, "altitude_rel_ft": 28.5269, "ground_speed_ft_s": 0.0, "vel_north_m_s": 0.0, "vel_east_m_s": 0.0, "vel_down_m_s": 0.0, "battery_remain_pct": 9900.0}
{"t_rx_ms": 1778118660973, "run_id": "20260506_185044", "seq": 77, "pitch_deg": 2.3953, "yaw_deg": -8.1731, "roll_deg": 0.3681, "lat_deg": 0.0, "lon_deg": 0.0, "altitude_rel_ft": 28.4777, "ground_speed_ft_s": 0.0, "vel_north_m_s": 0.0, "vel_east_m_s": 0.0, "vel_down_m_s": 0.0, "battery_remain_pct": 9900.0}
{"t_rx_ms": 1778118661175, "run_id": "20260506_185044", "seq": 78, "pitch_deg": 2.3953, "yaw_deg": -8.1731, "roll_deg": 0.3681, "lat_deg": 0.0, "lon_deg": 0.0, "altitude_rel_ft": 28.4777, "ground_speed_ft_s": 0.0, "vel_north_m_s": 0.0, "vel_east_m_s": 0.0, "vel_down_m_s": 0.0, "battery_remain_pct": 9900.0}
{"t_rx_ms": 1778118661375, "run_id": "20260506_185044", "seq": 79, "pitch_deg": 2.3953, "yaw_deg": -8.1731, "roll_deg": 0.3681, "lat_deg": 0.0, "lon_deg": 0.0, "altitude_rel_ft": 28.4777, "ground_speed_ft_s": 0.0, "vel_north_m_s": 0.0, "vel_east_m_s": 0.0, "vel_down_m_s": 0.0, "battery_remain_pct": 9900.0}
{"t_rx_ms": 1778118661576, "run_id": "20260506_185044", "seq": 80, "pitch_deg": 2.3953, "yaw_deg": -8.1731, "roll_deg": 0.3681, "lat_deg": 0.0, "lon_deg": 0.0, "altitude_rel_ft": 28.4777, "ground_speed_ft_s": 0.0, "vel_north_m_s": 0.0, "vel_east_m_s": 0.0, "vel_down_m_s": 0.0, "battery_remain_pct": 9900.0}
{"t_rx_ms": 1778118661777, "run_id": "20260506_185044", "seq": 81, "pitch_deg": 2.3953, "yaw_deg": -8.1731, "roll_deg": 0.3681, "lat_deg": 0.0, "lon_deg": 0.0, "altitude_rel_ft": 28.4777, "ground_speed_ft_s": 0.0, "vel_north_m_s": 0.0, "vel_east_m_s": 0.0, "vel_down_m_s": 0.0, "battery_remain_pct": 9900.0}
{"t_rx_ms": 1778118661977, "run_id": "20260506_185044", "seq": 82, "pitch_deg": 2.393, "yaw_deg": -8.0916, "roll_deg": 0.3514, "lat_deg": 0.0, "lon_deg": 0.0, "altitude_rel_ft": 27.9757, "ground_speed_ft_s": 0.0, "vel_north_m_s": 0.0, "vel_east_m_s": 0.0, "vel_down_m_s": 0.0, "battery_remain_pct": 9900.0}
{"t_rx_ms": 1778118662179, "run_id": "20260506_185044", "seq": 83, "pitch_deg": 2.393, "yaw_deg": -8.0916, "roll_deg": 0.3514, "lat_deg": 0.0, "lon_deg": 0.0, "altitude_rel_ft": 27.9757, "ground_speed_ft_s": 0.0, "vel_north_m_s": 0.0, "vel_east_m_s": 0.0, "vel_down_m_s": 0.0, "battery_remain_pct": 9900.0}
{"t_rx_ms": 1778118662379, "run_id": "20260506_185044", "seq": 84, "pitch_deg": 2.393, "yaw_deg": -8.0916, "roll_deg": 0.3514, "lat_deg": 0.0, "lon_deg": 0.0, "altitude_rel_ft": 27.9757, "ground_speed_ft_s": 0.0, "vel_north_m_s": 0.0, "vel_east_m_s": 0.0, "vel_down_m_s": 0.0, "battery_remain_pct": 9900.0}
{"t_rx_ms": 1778118662580, "run_id": "20260506_185044", "seq": 85, "pitch_deg": 2.393, "yaw_deg": -8.0916, "roll_deg": 0.3514, "lat_deg": 0.0, "lon_deg": 0.0, "altitude_rel_ft": 27.9757, "ground_speed_ft_s": 0.0, "vel_north_m_s": 0.0, "vel_east_m_s": 0.0, "vel_down_m_s": 0.0, "battery_remain_pct": 9900.0}
{"t_rx_ms": 1778118662780, "run_id": "20260506_185044", "seq": 86, "pitch_deg": 2.393, "yaw_deg": -8.0916, "roll_deg": 0.3514, "lat_deg": 0.0, "lon_deg": 0.0, "altitude_rel_ft": 27.9757, "ground_speed_ft_s": 0.0, "vel_north_m_s": 0.0, "vel_east_m_s": 0.0, "vel_down_m_s": 0.0, "battery_remain_pct": 9900.0}
{"t_rx_ms": 1778118662982, "run_id": "20260506_185044", "seq": 87, "pitch_deg": 2.3943, "yaw_deg": -7.946, "roll_deg": 0.3456, "lat_deg": 0.0, "lon_deg": 0.0, "altitude_rel_ft": 28.6024, "ground_speed_ft_s": 0.0, "vel_north_m_s": 0.0, "vel_east_m_s": 0.0, "vel_down_m_s": 0.0, "battery_remain_pct": 9900.0}
{"t_rx_ms": 1778118663183, "run_id": "20260506_185044", "seq": 88, "pitch_deg": 2.3943, "yaw_deg": -7.946, "roll_deg": 0.3456, "lat_deg": 0.0, "lon_deg": 0.0, "altitude_rel_ft": 28.6024, "ground_speed_ft_s": 0.0, "vel_north_m_s": 0.0, "vel_east_m_s": 0.0, "vel_down_m_s": 0.0, "battery_remain_pct": 9900.0}
{"t_rx_ms": 1778118663383, "run_id": "20260506_185044", "seq": 89, "pitch_deg": 2.3943, "yaw_deg": -7.946, "roll_deg": 0.3456, "lat_deg": 0.0, "lon_deg": 0.0, "altitude_rel_ft": 28.6024, "ground_speed_ft_s": 0.0, "vel_north_m_s": 0.0, "vel_east_m_s": 0.0, "vel_down_m_s": 0.0, "battery_remain_pct": 9900.0}
{"t_rx_ms": 1778118663584, "run_id": "20260506_185044", "seq": 90, "pitch_deg": 2.3943, "yaw_deg": -7.946, "roll_deg": 0.3456, "lat_deg": 0.0, "lon_deg": 0.0, "altitude_rel_ft": 28.6024, "ground_speed_ft_s": 0.0, "vel_north_m_s": 0.0, "vel_east_m_s": 0.0, "vel_down_m_s": 0.0, "battery_remain_pct": 9900.0}
{"t_rx_ms": 1778118663784, "run_id": "20260506_185044", "seq": 91, "pitch_deg": 2.3943, "yaw_deg": -7.946, "roll_deg": 0.3456, "lat_deg": 0.0, "lon_deg": 0.0, "altitude_rel_ft": 28.6024, "ground_speed_ft_s": 0.0, "vel_north_m_s": 0.0, "vel_east_m_s": 0.0, "vel_down_m_s": 0.0, "battery_remain_pct": 9900.0}
{"t_rx_ms": 1778118663985, "run_id": "20260506_185044", "seq": 92, "pitch_deg": 2.3888, "yaw_deg": -7.8587, "roll_deg": 0.3366, "lat_deg": 0.0, "lon_deg": 0.0, "altitude_rel_ft": 27.9462, "ground_speed_ft_s": 0.0, "vel_north_m_s": 0.0, "vel_east_m_s": 0.0, "vel_down_m_s": 0.0, "battery_remain_pct": 9900.0}
{"t_rx_ms": 1778118664187, "run_id": "20260506_185044", "seq": 93, "pitch_deg": 2.3888, "yaw_deg": -7.8587, "roll_deg": 0.3366, "lat_deg": 0.0, "lon_deg": 0.0, "altitude_rel_ft": 27.9462, "ground_speed_ft_s": 0.0, "vel_north_m_s": 0.0, "vel_east_m_s": 0.0, "vel_down_m_s": 0.0, "battery_remain_pct": 9900.0}
{"t_rx_ms": 1778118664387, "run_id": "20260506_185044", "seq": 94, "pitch_deg": 2.3888, "yaw_deg": -7.8587, "roll_deg": 0.3366, "lat_deg": 0.0, "lon_deg": 0.0, "altitude_rel_ft": 27.9462, "ground_speed_ft_s": 0.0, "vel_north_m_s": 0.0, "vel_east_m_s": 0.0, "vel_down_m_s": 0.0, "battery_remain_pct": 9900.0}
{"t_rx_ms": 1778118664588, "run_id": "20260506_185044", "seq": 95, "pitch_deg": 2.3888, "yaw_deg": -7.8587, "roll_deg": 0.3366, "lat_deg": 0.0, "lon_deg": 0.0, "altitude_rel_ft": 27.9462, "ground_speed_ft_s": 0.0, "vel_north_m_s": 0.0, "vel_east_m_s": 0.0, "vel_down_m_s": 0.0, "battery_remain_pct": 9900.0}
{"t_rx_ms": 1778118664789, "run_id": "20260506_185044", "seq": 96, "pitch_deg": 2.3888, "yaw_deg": -7.8587, "roll_deg": 0.3366, "lat_deg": 0.0, "lon_deg": 0.0, "altitude_rel_ft": 27.9462, "ground_speed_ft_s": 0.0, "vel_north_m_s": 0.0, "vel_east_m_s": 0.0, "vel_down_m_s": 0.0, "battery_remain_pct": 9900.0}
{"t_rx_ms": 1778118664995, "run_id": "20260506_185044", "seq": 97, "pitch_deg": 2.3843, "yaw_deg": -7.7234, "roll_deg": 0.3299, "lat_deg": 0.0, "lon_deg": 0.0, "altitude_rel_ft": 27.792, "ground_speed_ft_s": 0.0, "vel_north_m_s": 0.0, "vel_east_m_s": 0.0, "vel_down_m_s": 0.0, "battery_remain_pct": 9900.0}
{"t_rx_ms": 1778118665195, "run_id": "20260506_185044", "seq": 98, "pitch_deg": 2.3843, "yaw_deg": -7.7234, "roll_deg": 0.3299, "lat_deg": 0.0, "lon_deg": 0.0, "altitude_rel_ft": 27.792, "ground_speed_ft_s": 0.0, "vel_north_m_s": 0.0, "vel_east_m_s": 0.0, "vel_down_m_s": 0.0, "battery_remain_pct": 9900.0}
{"t_rx_ms": 1778118665396, "run_id": "20260506_185044", "seq": 99, "pitch_deg": 2.3843, "yaw_deg": -7.7234, "roll_deg": 0.3299, "lat_deg": 0.0, "lon_deg": 0.0, "altitude_rel_ft": 27.792, "ground_speed_ft_s": 0.0, "vel_north_m_s": 0.0, "vel_east_m_s": 0.0, "vel_down_m_s": 0.0, "battery_remain_pct": 9900.0}
{"t_rx_ms": 1778118665596, "run_id": "20260506_185044", "seq": 100, "pitch_deg": 2.3843, "yaw_deg": -7.7234, "roll_deg": 0.3299, "lat_deg": 0.0, "lon_deg": 0.0, "altitude_rel_ft": 27.792, "ground_speed_ft_s": 0.0, "vel_north_m_s": 0.0, "vel_east_m_s": 0.0, "vel_down_m_s": 0.0, "battery_remain_pct": 9900.0}
{"t_rx_ms": 1778118665797, "run_id": "20260506_185044", "seq": 101, "pitch_deg": 2.3843, "yaw_deg": -7.7234, "roll_deg": 0.3299, "lat_deg": 0.0, "lon_deg": 0.0, "altitude_rel_ft": 27.792, "ground_speed_ft_s": 0.0, "vel_north_m_s": 0.0, "vel_east_m_s": 0.0, "vel_down_m_s": 0.0, "battery_remain_pct": 9900.0}
{"t_rx_ms": 1778118665997, "run_id": "20260506_185044", "seq": 102, "pitch_deg": 2.3851, "yaw_deg": -7.5858, "roll_deg": 0.3217, "lat_deg": 0.0, "lon_deg": 0.0, "altitude_rel_ft": 28.5531, "ground_speed_ft_s": 0.0, "vel_north_m_s": 0.0, "vel_east_m_s": 0.0, "vel_down_m_s": 0.0, "battery_remain_pct": 9900.0}
{"t_rx_ms": 1778118666198, "run_id": "20260506_185044", "seq": 103, "pitch_deg": 2.3851, "yaw_deg": -7.5858, "roll_deg": 0.3217, "lat_deg": 0.0, "lon_deg": 0.0, "altitude_rel_ft": 28.5531, "ground_speed_ft_s": 0.0, "vel_north_m_s": 0.0, "vel_east_m_s": 0.0, "vel_down_m_s": 0.0, "battery_remain_pct": 9900.0}
{"t_rx_ms": 1778118666398, "run_id": "20260506_185044", "seq": 104, "pitch_deg": 2.3851, "yaw_deg": -7.5858, "roll_deg": 0.3217, "lat_deg": 0.0, "lon_deg": 0.0, "altitude_rel_ft": 28.5531, "ground_speed_ft_s": 0.0, "vel_north_m_s": 0.0, "vel_east_m_s": 0.0, "vel_down_m_s": 0.0, "battery_remain_pct": 9900.0}
{"t_rx_ms": 1778118666599, "run_id": "20260506_185044", "seq": 105, "pitch_deg": 2.3851, "yaw_deg": -7.5858, "roll_deg": 0.3217, "lat_deg": 0.0, "lon_deg": 0.0, "altitude_rel_ft": 28.5531, "ground_speed_ft_s": 0.0, "vel_north_m_s": 0.0, "vel_east_m_s": 0.0, "vel_down_m_s": 0.0, "battery_remain_pct": 9900.0}
{"t_rx_ms": 1778118666800, "run_id": "20260506_185044", "seq": 106, "pitch_deg": 2.3851, "yaw_deg": -7.5858, "roll_deg": 0.3217, "lat_deg": 0.0, "lon_deg": 0.0, "altitude_rel_ft": 28.5531, "ground_speed_ft_s": 0.0, "vel_north_m_s": 0.0, "vel_east_m_s": 0.0, "vel_down_m_s": 0.0, "battery_remain_pct": 9900.0}
{"t_rx_ms": 1778118667002, "run_id": "20260506_185044", "seq": 107, "pitch_deg": 2.3809, "yaw_deg": -7.4963, "roll_deg": 0.3202, "lat_deg": 0.0, "lon_deg": 0.0, "altitude_rel_ft": 28.7861, "ground_speed_ft_s": 0.0, "vel_north_m_s": 0.0, "vel_east_m_s": 0.0, "vel_down_m_s": 0.0, "battery_remain_pct": 9900.0}
{"t_rx_ms": 1778118667202, "run_id": "20260506_185044", "seq": 108, "pitch_deg": 2.3809, "yaw_deg": -7.4963, "roll_deg": 0.3202, "lat_deg": 0.0, "lon_deg": 0.0, "altitude_rel_ft": 28.7861, "ground_speed_ft_s": 0.0, "vel_north_m_s": 0.0, "vel_east_m_s": 0.0, "vel_down_m_s": 0.0, "battery_remain_pct": 9900.0}
{"t_rx_ms": 1778118667403, "run_id": "20260506_185044", "seq": 109, "pitch_deg": 2.3809, "yaw_deg": -7.4963, "roll_deg": 0.3202, "lat_deg": 0.0, "lon_deg": 0.0, "altitude_rel_ft": 28.7861, "ground_speed_ft_s": 0.0, "vel_north_m_s": 0.0, "vel_east_m_s": 0.0, "vel_down_m_s": 0.0, "battery_remain_pct": 9900.0}
{"t_rx_ms": 1778118667604, "run_id": "20260506_185044", "seq": 110, "pitch_deg": 2.3809, "yaw_deg": -7.4963, "roll_deg": 0.3202, "lat_deg": 0.0, "lon_deg": 0.0, "altitude_rel_ft": 28.7861, "ground_speed_ft_s": 0.0, "vel_north_m_s": 0.0, "vel_east_m_s": 0.0, "vel_down_m_s": 0.0, "battery_remain_pct": 9900.0}
{"t_rx_ms": 1778118667804, "run_id": "20260506_185044", "seq": 111, "pitch_deg": 2.3809, "yaw_deg": -7.4963, "roll_deg": 0.3202, "lat_deg": 0.0, "lon_deg": 0.0, "altitude_rel_ft": 28.7861, "ground_speed_ft_s": 0.0, "vel_north_m_s": 0.0, "vel_east_m_s": 0.0, "vel_down_m_s": 0.0, "battery_remain_pct": 9900.0}
{"t_rx_ms": 1778118668005, "run_id": "20260506_185044", "seq": 112, "pitch_deg": 2.3805, "yaw_deg": -7.42, "roll_deg": 0.3117, "lat_deg": 0.0, "lon_deg": 0.0, "altitude_rel_ft": 28.4186, "ground_speed_ft_s": 0.0, "vel_north_m_s": 0.0, "vel_east_m_s": 0.0, "vel_down_m_s": 0.0, "battery_remain_pct": 9900.0}
{"t_rx_ms": 1778118668205, "run_id": "20260506_185044", "seq": 113, "pitch_deg": 2.3805, "yaw_deg": -7.42, "roll_deg": 0.3117, "lat_deg": 0.0, "lon_deg": 0.0, "altitude_rel_ft": 28.4186, "ground_speed_ft_s": 0.0, "vel_north_m_s": 0.0, "vel_east_m_s": 0.0, "vel_down_m_s": 0.0, "battery_remain_pct": 9900.0}
{"t_rx_ms": 1778118668406, "run_id": "20260506_185044", "seq": 114, "pitch_deg": 2.3805, "yaw_deg": -7.42, "roll_deg": 0.3117, "lat_deg": 0.0, "lon_deg": 0.0, "altitude_rel_ft": 28.4186, "ground_speed_ft_s": 0.0, "vel_north_m_s": 0.0, "vel_east_m_s": 0.0, "vel_down_m_s": 0.0, "battery_remain_pct": 9900.0}
{"t_rx_ms": 1778118668607, "run_id": "20260506_185044", "seq": 115, "pitch_deg": 2.3805, "yaw_deg": -7.42, "roll_deg": 0.3117, "lat_deg": 0.0, "lon_deg": 0.0, "altitude_rel_ft": 28.4186, "ground_speed_ft_s": 0.0, "vel_north_m_s": 0.0, "vel_east_m_s": 0.0, "vel_down_m_s": 0.0, "battery_remain_pct": 9900.0}
{"t_rx_ms": 1778118668808, "run_id": "20260506_185044", "seq": 116, "pitch_deg": 2.3805, "yaw_deg": -7.42, "roll_deg": 0.3117, "lat_deg": 0.0, "lon_deg": 0.0, "altitude_rel_ft": 28.4186, "ground_speed_ft_s": 0.0, "vel_north_m_s": 0.0, "vel_east_m_s": 0.0, "vel_down_m_s": 0.0, "battery_remain_pct": 9900.0}
{"t_rx_ms": 1778118669010, "run_id": "20260506_185044", "seq": 117, "pitch_deg": 2.3771, "yaw_deg": -7.5344, "roll_deg": 0.2949, "lat_deg": 0.0, "lon_deg": 0.0, "altitude_rel_ft": 27.4049, "ground_speed_ft_s": 0.0, "vel_north_m_s": 0.0, "vel_east_m_s": 0.0, "vel_down_m_s": 0.0, "battery_remain_pct": 9900.0}
{"t_rx_ms": 1778118669209, "run_id": "20260506_185044", "seq": 118, "pitch_deg": 2.3771, "yaw_deg": -7.5344, "roll_deg": 0.2949, "lat_deg": 0.0, "lon_deg": 0.0, "altitude_rel_ft": 27.4049, "ground_speed_ft_s": 0.0, "vel_north_m_s": 0.0, "vel_east_m_s": 0.0, "vel_down_m_s": 0.0, "battery_remain_pct": 9900.0}
{"t_rx_ms": 1778118669410, "run_id": "20260506_185044", "seq": 119, "pitch_deg": 2.3771, "yaw_deg": -7.5344, "roll_deg": 0.2949, "lat_deg": 0.0, "lon_deg": 0.0, "altitude_rel_ft": 27.4049, "ground_speed_ft_s": 0.0, "vel_north_m_s": 0.0, "vel_east_m_s": 0.0, "vel_down_m_s": 0.0, "battery_remain_pct": 9900.0}
{"t_rx_ms": 1778118669611, "run_id": "20260506_185044", "seq": 120, "pitch_deg": 2.3771, "yaw_deg": -7.5344, "roll_deg": 0.2949, "lat_deg": 0.0, "lon_deg": 0.0, "altitude_rel_ft": 27.4049, "ground_speed_ft_s": 0.0, "vel_north_m_s": 0.0, "vel_east_m_s": 0.0, "vel_down_m_s": 0.0, "battery_remain_pct": 9900.0}
{"t_rx_ms": 1778118669811, "run_id": "20260506_185044", "seq": 121, "pitch_deg": 2.3771, "yaw_deg": -7.5344, "roll_deg": 0.2949, "lat_deg": 0.0, "lon_deg": 0.0, "altitude_rel_ft": 27.4049, "ground_speed_ft_s": 0.0, "vel_north_m_s": 0.0, "vel_east_m_s": 0.0, "vel_down_m_s": 0.0, "battery_remain_pct": 9900.0}
{"t_rx_ms": 1778118670013, "run_id": "20260506_185044", "seq": 122, "pitch_deg": 2.3813, "yaw_deg": -7.4207, "roll_deg": 0.2927, "lat_deg": 0.0, "lon_deg": 0.0, "altitude_rel_ft": 29.065, "ground_speed_ft_s": 0.0, "vel_north_m_s": 0.0, "vel_east_m_s": 0.0, "vel_down_m_s": 0.0, "battery_remain_pct": 9900.0}
{"t_rx_ms": 1778118670214, "run_id": "20260506_185044", "seq": 123, "pitch_deg": 2.3813, "yaw_deg": -7.4207, "roll_deg": 0.2927, "lat_deg": 0.0, "lon_deg": 0.0, "altitude_rel_ft": 29.065, "ground_speed_ft_s": 0.0, "vel_north_m_s": 0.0, "vel_east_m_s": 0.0, "vel_down_m_s": 0.0, "battery_remain_pct": 9900.0}
{"t_rx_ms": 1778118670415, "run_id": "20260506_185044", "seq": 124, "pitch_deg": 2.3813, "yaw_deg": -7.4207, "roll_deg": 0.2927, "lat_deg": 0.0, "lon_deg": 0.0, "altitude_rel_ft": 29.065, "ground_speed_ft_s": 0.0, "vel_north_m_s": 0.0, "vel_east_m_s": 0.0, "vel_down_m_s": 0.0, "battery_remain_pct": 9900.0}
{"t_rx_ms": 1778118670615, "run_id": "20260506_185044", "seq": 125, "pitch_deg": 2.3813, "yaw_deg": -7.4207, "roll_deg": 0.2927, "lat_deg": 0.0, "lon_deg": 0.0, "altitude_rel_ft": 29.065, "ground_speed_ft_s": 0.0, "vel_north_m_s": 0.0, "vel_east_m_s": 0.0, "vel_down_m_s": 0.0, "battery_remain_pct": 9900.0}
{"t_rx_ms": 1778118670816, "run_id": "20260506_185044", "seq": 126, "pitch_deg": 2.3813, "yaw_deg": -7.4207, "roll_deg": 0.2927, "lat_deg": 0.0, "lon_deg": 0.0, "altitude_rel_ft": 29.065, "ground_speed_ft_s": 0.0, "vel_north_m_s": 0.0, "vel_east_m_s": 0.0, "vel_down_m_s": 0.0, "battery_remain_pct": 9900.0}
{"t_rx_ms": 1778118671016, "run_id": "20260506_185044", "seq": 127, "pitch_deg": 2.3773, "yaw_deg": -7.3326, "roll_deg": 0.2856, "lat_deg": 0.0, "lon_deg": 0.0, "altitude_rel_ft": 27.5427, "ground_speed_ft_s": 0.0, "vel_north_m_s": 0.0, "vel_east_m_s": 0.0, "vel_down_m_s": 0.0, "battery_remain_pct": 9900.0}
{"t_rx_ms": 1778118671217, "run_id": "20260506_185044", "seq": 128, "pitch_deg": 2.3773, "yaw_deg": -7.3326, "roll_deg": 0.2856, "lat_deg": 0.0, "lon_deg": 0.0, "altitude_rel_ft": 27.5427, "ground_speed_ft_s": 0.0, "vel_north_m_s": 0.0, "vel_east_m_s": 0.0, "vel_down_m_s": 0.0, "battery_remain_pct": 9900.0}
{"t_rx_ms": 1778118671418, "run_id": "20260506_185044", "seq": 129, "pitch_deg": 2.3773, "yaw_deg": -7.3326, "roll_deg": 0.2856, "lat_deg": 0.0, "lon_deg": 0.0, "altitude_rel_ft": 27.5427, "ground_speed_ft_s": 0.0, "vel_north_m_s": 0.0, "vel_east_m_s": 0.0, "vel_down_m_s": 0.0, "battery_remain_pct": 9900.0}
{"t_rx_ms": 1778118671618, "run_id": "20260506_185044", "seq": 130, "pitch_deg": 2.3773, "yaw_deg": -7.3326, "roll_deg": 0.2856, "lat_deg": 0.0, "lon_deg": 0.0, "altitude_rel_ft": 27.5427, "ground_speed_ft_s": 0.0, "vel_north_m_s": 0.0, "vel_east_m_s": 0.0, "vel_down_m_s": 0.0, "battery_remain_pct": 9900.0}
{"t_rx_ms": 1778118671818, "run_id": "20260506_185044", "seq": 131, "pitch_deg": 2.3773, "yaw_deg": -7.3326, "roll_deg": 0.2856, "lat_deg": 0.0, "lon_deg": 0.0, "altitude_rel_ft": 27.5427, "ground_speed_ft_s": 0.0, "vel_north_m_s": 0.0, "vel_east_m_s": 0.0, "vel_down_m_s": 0.0, "battery_remain_pct": 9900.0}
{"t_rx_ms": 1778118672020, "run_id": "20260506_185044", "seq": 132, "pitch_deg": 2.3805, "yaw_deg": -7.3065, "roll_deg": 0.2767, "lat_deg": 0.0, "lon_deg": 0.0, "altitude_rel_ft": 27.3392, "ground_speed_ft_s": 0.0, "vel_north_m_s": 0.0, "vel_east_m_s": 0.0, "vel_down_m_s": 0.0, "battery_remain_pct": 9900.0}
{"t_rx_ms": 1778118672220, "run_id": "20260506_185044", "seq": 133, "pitch_deg": 2.3805, "yaw_deg": -7.3065, "roll_deg": 0.2767, "lat_deg": 0.0, "lon_deg": 0.0, "altitude_rel_ft": 27.3392, "ground_speed_ft_s": 0.0, "vel_north_m_s": 0.0, "vel_east_m_s": 0.0, "vel_down_m_s": 0.0, "battery_remain_pct": 9900.0}
{"t_rx_ms": 1778118672421, "run_id": "20260506_185044", "seq": 134, "pitch_deg": 2.3805, "yaw_deg": -7.3065, "roll_deg": 0.2767, "lat_deg": 0.0, "lon_deg": 0.0, "altitude_rel_ft": 27.3392, "ground_speed_ft_s": 0.0, "vel_north_m_s": 0.0, "vel_east_m_s": 0.0, "vel_down_m_s": 0.0, "battery_remain_pct": 9900.0}
{"t_rx_ms": 1778118672622, "run_id": "20260506_185044", "seq": 135, "pitch_deg": 2.3805, "yaw_deg": -7.3065, "roll_deg": 0.2767, "lat_deg": 0.0, "lon_deg": 0.0, "altitude_rel_ft": 27.3392, "ground_speed_ft_s": 0.0, "vel_north_m_s": 0.0, "vel_east_m_s": 0.0, "vel_down_m_s": 0.0, "battery_remain_pct": 9900.0}
{"t_rx_ms": 1778118672823, "run_id": "20260506_185044", "seq": 136, "pitch_deg": 2.3805, "yaw_deg": -7.3065, "roll_deg": 0.2767, "lat_deg": 0.0, "lon_deg": 0.0, "altitude_rel_ft": 27.3392, "ground_speed_ft_s": 0.0, "vel_north_m_s": 0.0, "vel_east_m_s": 0.0, "vel_down_m_s": 0.0, "battery_remain_pct": 9900.0}
{"t_rx_ms": 1778118673027, "run_id": "20260506_185044", "seq": 137, "pitch_deg": 2.381, "yaw_deg": -7.2228, "roll_deg": 0.28, "lat_deg": 0.0, "lon_deg": 0.0, "altitude_rel_ft": 28.1496, "ground_speed_ft_s": 0.0, "vel_north_m_s": 0.0, "vel_east_m_s": 0.0, "vel_down_m_s": 0.0, "battery_remain_pct": 9900.0}
{"t_rx_ms": 1778118673228, "run_id": "20260506_185044", "seq": 138, "pitch_deg": 2.381, "yaw_deg": -7.2228, "roll_deg": 0.28, "lat_deg": 0.0, "lon_deg": 0.0, "altitude_rel_ft": 28.1496, "ground_speed_ft_s": 0.0, "vel_north_m_s": 0.0, "vel_east_m_s": 0.0, "vel_down_m_s": 0.0, "battery_remain_pct": 9900.0}
{"t_rx_ms": 1778118673429, "run_id": "20260506_185044", "seq": 139, "pitch_deg": 2.381, "yaw_deg": -7.2228, "roll_deg": 0.28, "lat_deg": 0.0, "lon_deg": 0.0, "altitude_rel_ft": 28.1496, "ground_speed_ft_s": 0.0, "vel_north_m_s": 0.0, "vel_east_m_s": 0.0, "vel_down_m_s": 0.0, "battery_remain_pct": 9900.0}
{"t_rx_ms": 1778118673630, "run_id": "20260506_185044", "seq": 140, "pitch_deg": 2.381, "yaw_deg": -7.2228, "roll_deg": 0.28, "lat_deg": 0.0, "lon_deg": 0.0, "altitude_rel_ft": 28.1496, "ground_speed_ft_s": 0.0, "vel_north_m_s": 0.0, "vel_east_m_s": 0.0, "vel_down_m_s": 0.0, "battery_remain_pct": 9900.0}
{"t_rx_ms": 1778118673831, "run_id": "20260506_185044", "seq": 141, "pitch_deg": 2.381, "yaw_deg": -7.2228, "roll_deg": 0.28, "lat_deg": 0.0, "lon_deg": 0.0, "altitude_rel_ft": 28.1496, "ground_speed_ft_s": 0.0, "vel_north_m_s": 0.0, "vel_east_m_s": 0.0, "vel_down_m_s": 0.0, "battery_remain_pct": 9900.0}
{"t_rx_ms": 1778118674032, "run_id": "20260506_185044", "seq": 142, "pitch_deg": 2.3821, "yaw_deg": -7.2388, "roll_deg": 0.2776, "lat_deg": 0.0, "lon_deg": 0.0, "altitude_rel_ft": 28.399, "ground_speed_ft_s": 0.0, "vel_north_m_s": 0.0, "vel_east_m_s": 0.0, "vel_down_m_s": 0.0, "battery_remain_pct": 9900.0}
{"t_rx_ms": 1778118674232, "run_id": "20260506_185044", "seq": 143, "pitch_deg": 2.3821, "yaw_deg": -7.2388, "roll_deg": 0.2776, "lat_deg": 0.0, "lon_deg": 0.0, "altitude_rel_ft": 28.399, "ground_speed_ft_s": 0.0, "vel_north_m_s": 0.0, "vel_east_m_s": 0.0, "vel_down_m_s": 0.0, "battery_remain_pct": 9900.0}
{"t_rx_ms": 1778118674435, "run_id": "20260506_185044", "seq": 144, "pitch_deg": 2.3821, "yaw_deg": -7.2388, "roll_deg": 0.2776, "lat_deg": 0.0, "lon_deg": 0.0, "altitude_rel_ft": 28.399, "ground_speed_ft_s": 0.0, "vel_north_m_s": 0.0, "vel_east_m_s": 0.0, "vel_down_m_s": 0.0, "battery_remain_pct": 9900.0}
{"t_rx_ms": 1778118674635, "run_id": "20260506_185044", "seq": 145, "pitch_deg": 2.3821, "yaw_deg": -7.2388, "roll_deg": 0.2776, "lat_deg": 0.0, "lon_deg": 0.0, "altitude_rel_ft": 28.399, "ground_speed_ft_s": 0.0, "vel_north_m_s": 0.0, "vel_east_m_s": 0.0, "vel_down_m_s": 0.0, "battery_remain_pct": 9900.0}
{"t_rx_ms": 1778118674837, "run_id": "20260506_185044", "seq": 146, "pitch_deg": 2.3821, "yaw_deg": -7.2388, "roll_deg": 0.2776, "lat_deg": 0.0, "lon_deg": 0.0, "altitude_rel_ft": 28.399, "ground_speed_ft_s": 0.0, "vel_north_m_s": 0.0, "vel_east_m_s": 0.0, "vel_down_m_s": 0.0, "battery_remain_pct": 9900.0}
{"t_rx_ms": 1778118675038, "run_id": "20260506_185044", "seq": 147, "pitch_deg": 2.3872, "yaw_deg": -7.3715, "roll_deg": 0.277, "lat_deg": 0.0, "lon_deg": 0.0, "altitude_rel_ft": 27.8707, "ground_speed_ft_s": 0.0, "vel_north_m_s": 0.0, "vel_east_m_s": 0.0, "vel_down_m_s": 0.0, "battery_remain_pct": 9900.0}
{"t_rx_ms": 1778118675240, "run_id": "20260506_185044", "seq": 148, "pitch_deg": 2.3872, "yaw_deg": -7.3715, "roll_deg": 0.277, "lat_deg": 0.0, "lon_deg": 0.0, "altitude_rel_ft": 27.8707, "ground_speed_ft_s": 0.0, "vel_north_m_s": 0.0, "vel_east_m_s": 0.0, "vel_down_m_s": 0.0, "battery_remain_pct": 9900.0}
{"t_rx_ms": 1778118675441, "run_id": "20260506_185044", "seq": 149, "pitch_deg": 2.3872, "yaw_deg": -7.3715, "roll_deg": 0.277, "lat_deg": 0.0, "lon_deg": 0.0, "altitude_rel_ft": 27.8707, "ground_speed_ft_s": 0.0, "vel_north_m_s": 0.0, "vel_east_m_s": 0.0, "vel_down_m_s": 0.0, "battery_remain_pct": 9900.0}
{"t_rx_ms": 1778118675642, "run_id": "20260506_185044", "seq": 150, "pitch_deg": 2.3872, "yaw_deg": -7.3715, "roll_deg": 0.277, "lat_deg": 0.0, "lon_deg": 0.0, "altitude_rel_ft": 27.8707, "ground_speed_ft_s": 0.0, "vel_north_m_s": 0.0, "vel_east_m_s": 0.0, "vel_down_m_s": 0.0, "battery_remain_pct": 9900.0}
{"t_rx_ms": 1778118675842, "run_id": "20260506_185044", "seq": 151, "pitch_deg": 2.3872, "yaw_deg": -7.3715, "roll_deg": 0.277, "lat_deg": 0.0, "lon_deg": 0.0, "altitude_rel_ft": 27.8707, "ground_speed_ft_s": 0.0, "vel_north_m_s": 0.0, "vel_east_m_s": 0.0, "vel_down_m_s": 0.0, "battery_remain_pct": 9900.0}
{"t_rx_ms": 1778118676044, "run_id": "20260506_185044", "seq": 152, "pitch_deg": 2.3872, "yaw_deg": -7.263, "roll_deg": 0.2773, "lat_deg": 0.0, "lon_deg": 0.0, "altitude_rel_ft": 28.0545, "ground_speed_ft_s": 0.0, "vel_north_m_s": 0.0, "vel_east_m_s": 0.0, "vel_down_m_s": 0.0, "battery_remain_pct": 9900.0}
{"t_rx_ms": 1778118676245, "run_id": "20260506_185044", "seq": 153, "pitch_deg": 2.3872, "yaw_deg": -7.263, "roll_deg": 0.2773, "lat_deg": 0.0, "lon_deg": 0.0, "altitude_rel_ft": 28.0545, "ground_speed_ft_s": 0.0, "vel_north_m_s": 0.0, "vel_east_m_s": 0.0, "vel_down_m_s": 0.0, "battery_remain_pct": 9900.0}
{"t_rx_ms": 1778118676447, "run_id": "20260506_185044", "seq": 154, "pitch_deg": 2.3872, "yaw_deg": -7.263, "roll_deg": 0.2773, "lat_deg": 0.0, "lon_deg": 0.0, "altitude_rel_ft": 28.0545, "ground_speed_ft_s": 0.0, "vel_north_m_s": 0.0, "vel_east_m_s": 0.0, "vel_down_m_s": 0.0, "battery_remain_pct": 9900.0}
{"t_rx_ms": 1778118676648, "run_id": "20260506_185044", "seq": 155, "pitch_deg": 2.3872, "yaw_deg": -7.263, "roll_deg": 0.2773, "lat_deg": 0.0, "lon_deg": 0.0, "altitude_rel_ft": 28.0545, "ground_speed_ft_s": 0.0, "vel_north_m_s": 0.0, "vel_east_m_s": 0.0, "vel_down_m_s": 0.0, "battery_remain_pct": 9900.0}
{"t_rx_ms": 1778118676851, "run_id": "20260506_185044", "seq": 156, "pitch_deg": 2.3872, "yaw_deg": -7.263, "roll_deg": 0.2773, "lat_deg": 0.0, "lon_deg": 0.0, "altitude_rel_ft": 28.0545, "ground_speed_ft_s": 0.0, "vel_north_m_s": 0.0, "vel_east_m_s": 0.0, "vel_down_m_s": 0.0, "battery_remain_pct": 9900.0}
{"t_rx_ms": 1778118677051, "run_id": "20260506_185044", "seq": 157, "pitch_deg": 2.387, "yaw_deg": -7.2357, "roll_deg": 0.2781, "lat_deg": 0.0, "lon_deg": 0.0, "altitude_rel_ft": 28.1693, "ground_speed_ft_s": 0.0, "vel_north_m_s": 0.0, "vel_east_m_s": 0.0, "vel_down_m_s": 0.0, "battery_remain_pct": 9900.0}
{"t_rx_ms": 1778118677252, "run_id": "20260506_185044", "seq": 158, "pitch_deg": 2.387, "yaw_deg": -7.2357, "roll_deg": 0.2781, "lat_deg": 0.0, "lon_deg": 0.0, "altitude_rel_ft": 28.1693, "ground_speed_ft_s": 0.0, "vel_north_m_s": 0.0, "vel_east_m_s": 0.0, "vel_down_m_s": 0.0, "battery_remain_pct": 9900.0}
{"t_rx_ms": 1778118677453, "run_id": "20260506_185044", "seq": 159, "pitch_deg": 2.387, "yaw_deg": -7.2357, "roll_deg": 0.2781, "lat_deg": 0.0, "lon_deg": 0.0, "altitude_rel_ft": 28.1693, "ground_speed_ft_s": 0.0, "vel_north_m_s": 0.0, "vel_east_m_s": 0.0, "vel_down_m_s": 0.0, "battery_remain_pct": 9900.0}
{"t_rx_ms": 1778118677655, "run_id": "20260506_185044", "seq": 160, "pitch_deg": 2.387, "yaw_deg": -7.2357, "roll_deg": 0.2781, "lat_deg": 0.0, "lon_deg": 0.0, "altitude_rel_ft": 28.1693, "ground_speed_ft_s": 0.0, "vel_north_m_s": 0.0, "vel_east_m_s": 0.0, "vel_down_m_s": 0.0, "battery_remain_pct": 9900.0}
{"t_rx_ms": 1778118677856, "run_id": "20260506_185044", "seq": 161, "pitch_deg": 2.387, "yaw_deg": -7.2357, "roll_deg": 0.2781, "lat_deg": 0.0, "lon_deg": 0.0, "altitude_rel_ft": 28.1693, "ground_speed_ft_s": 0.0, "vel_north_m_s": 0.0, "vel_east_m_s": 0.0, "vel_down_m_s": 0.0, "battery_remain_pct": 9900.0}
{"t_rx_ms": 1778118678057, "run_id": "20260506_185044", "seq": 162, "pitch_deg": 2.3913, "yaw_deg": -7.2674, "roll_deg": 0.2776, "lat_deg": 0.0, "lon_deg": 0.0, "altitude_rel_ft": 28.1102, "ground_speed_ft_s": 0.0, "vel_north_m_s": 0.0, "vel_east_m_s": 0.0, "vel_down_m_s": 0.0, "battery_remain_pct": 9900.0}
{"t_rx_ms": 1778118678257, "run_id": "20260506_185044", "seq": 163, "pitch_deg": 2.3913, "yaw_deg": -7.2674, "roll_deg": 0.2776, "lat_deg": 0.0, "lon_deg": 0.0, "altitude_rel_ft": 28.1102, "ground_speed_ft_s": 0.0, "vel_north_m_s": 0.0, "vel_east_m_s": 0.0, "vel_down_m_s": 0.0, "battery_remain_pct": 9900.0}
{"t_rx_ms": 1778118678463, "run_id": "20260506_185044", "seq": 164, "pitch_deg": 2.3913, "yaw_deg": -7.2674, "roll_deg": 0.2776, "lat_deg": 0.0, "lon_deg": 0.0, "altitude_rel_ft": 28.1102, "ground_speed_ft_s": 0.0, "vel_north_m_s": 0.0, "vel_east_m_s": 0.0, "vel_down_m_s": 0.0, "battery_remain_pct": 9900.0}
{"t_rx_ms": 1778118678664, "run_id": "20260506_185044", "seq": 165, "pitch_deg": 2.3913, "yaw_deg": -7.2674, "roll_deg": 0.2776, "lat_deg": 0.0, "lon_deg": 0.0, "altitude_rel_ft": 28.1102, "ground_speed_ft_s": 0.0, "vel_north_m_s": 0.0, "vel_east_m_s": 0.0, "vel_down_m_s": 0.0, "battery_remain_pct": 9900.0}
{"t_rx_ms": 1778118678865, "run_id": "20260506_185044", "seq": 166, "pitch_deg": 2.3913, "yaw_deg": -7.2674, "roll_deg": 0.2776, "lat_deg": 0.0, "lon_deg": 0.0, "altitude_rel_ft": 28.1102, "ground_speed_ft_s": 0.0, "vel_north_m_s": 0.0, "vel_east_m_s": 0.0, "vel_down_m_s": 0.0, "battery_remain_pct": 9900.0}
{"t_rx_ms": 1778118679066, "run_id": "20260506_185044", "seq": 167, "pitch_deg": 2.3792, "yaw_deg": -7.3204, "roll_deg": 0.2737, "lat_deg": 0.0, "lon_deg": 0.0, "altitude_rel_ft": 28.189, "ground_speed_ft_s": 0.0, "vel_north_m_s": 0.0, "vel_east_m_s": 0.0, "vel_down_m_s": 0.0, "battery_remain_pct": 9900.0}
{"t_rx_ms": 1778118679267, "run_id": "20260506_185044", "seq": 168, "pitch_deg": 2.3792, "yaw_deg": -7.3204, "roll_deg": 0.2737, "lat_deg": 0.0, "lon_deg": 0.0, "altitude_rel_ft": 28.189, "ground_speed_ft_s": 0.0, "vel_north_m_s": 0.0, "vel_east_m_s": 0.0, "vel_down_m_s": 0.0, "battery_remain_pct": 9900.0}
{"t_rx_ms": 1778118679468, "run_id": "20260506_185044", "seq": 169, "pitch_deg": 2.3792, "yaw_deg": -7.3204, "roll_deg": 0.2737, "lat_deg": 0.0, "lon_deg": 0.0, "altitude_rel_ft": 28.189, "ground_speed_ft_s": 0.0, "vel_north_m_s": 0.0, "vel_east_m_s": 0.0, "vel_down_m_s": 0.0, "battery_remain_pct": 9900.0}
{"t_rx_ms": 1778118679669, "run_id": "20260506_185044", "seq": 170, "pitch_deg": 2.3792, "yaw_deg": -7.3204, "roll_deg": 0.2737, "lat_deg": 0.0, "lon_deg": 0.0, "altitude_rel_ft": 28.189, "ground_speed_ft_s": 0.0, "vel_north_m_s": 0.0, "vel_east_m_s": 0.0, "vel_down_m_s": 0.0, "battery_remain_pct": 9900.0}
{"t_rx_ms": 1778118679869, "run_id": "20260506_185044", "seq": 171, "pitch_deg": 2.3792, "yaw_deg": -7.3204, "roll_deg": 0.2737, "lat_deg": 0.0, "lon_deg": 0.0, "altitude_rel_ft": 28.189, "ground_speed_ft_s": 0.0, "vel_north_m_s": 0.0, "vel_east_m_s": 0.0, "vel_down_m_s": 0.0, "battery_remain_pct": 9900.0}
{"t_rx_ms": 1778118680070, "run_id": "20260506_185044", "seq": 172, "pitch_deg": 2.3876, "yaw_deg": -7.2983, "roll_deg": 0.2827, "lat_deg": 0.0, "lon_deg": 0.0, "altitude_rel_ft": 28.4285, "ground_speed_ft_s": 0.0, "vel_north_m_s": 0.0, "vel_east_m_s": 0.0, "vel_down_m_s": 0.0, "battery_remain_pct": 9900.0}
{"t_rx_ms": 1778118680271, "run_id": "20260506_185044", "seq": 173, "pitch_deg": 2.3876, "yaw_deg": -7.2983, "roll_deg": 0.2827, "lat_deg": 0.0, "lon_deg": 0.0, "altitude_rel_ft": 28.4285, "ground_speed_ft_s": 0.0, "vel_north_m_s": 0.0, "vel_east_m_s": 0.0, "vel_down_m_s": 0.0, "battery_remain_pct": 9900.0}
{"t_rx_ms": 1778118680472, "run_id": "20260506_185044", "seq": 174, "pitch_deg": 2.3876, "yaw_deg": -7.2983, "roll_deg": 0.2827, "lat_deg": 0.0, "lon_deg": 0.0, "altitude_rel_ft": 28.4285, "ground_speed_ft_s": 0.0, "vel_north_m_s": 0.0, "vel_east_m_s": 0.0, "vel_down_m_s": 0.0, "battery_remain_pct": 9900.0}
{"t_rx_ms": 1778118680672, "run_id": "20260506_185044", "seq": 175, "pitch_deg": 2.3876, "yaw_deg": -7.2983, "roll_deg": 0.2827, "lat_deg": 0.0, "lon_deg": 0.0, "altitude_rel_ft": 28.4285, "ground_speed_ft_s": 0.0, "vel_north_m_s": 0.0, "vel_east_m_s": 0.0, "vel_down_m_s": 0.0, "battery_remain_pct": 9900.0}
{"t_rx_ms": 1778118680873, "run_id": "20260506_185044", "seq": 176, "pitch_deg": 2.3876, "yaw_deg": -7.2983, "roll_deg": 0.2827, "lat_deg": 0.0, "lon_deg": 0.0, "altitude_rel_ft": 28.4285, "ground_speed_ft_s": 0.0, "vel_north_m_s": 0.0, "vel_east_m_s": 0.0, "vel_down_m_s": 0.0, "battery_remain_pct": 9900.0}
{"t_rx_ms": 1778118681074, "run_id": "20260506_185044", "seq": 177, "pitch_deg": 2.3895, "yaw_deg": -7.3244, "roll_deg": 0.2833, "lat_deg": 0.0, "lon_deg": 0.0, "altitude_rel_ft": 27.3097, "ground_speed_ft_s": 0.0, "vel_north_m_s": 0.0, "vel_east_m_s": 0.0, "vel_down_m_s": 0.0, "battery_remain_pct": 9900.0}
{"t_rx_ms": 1778118681275, "run_id": "20260506_185044", "seq": 178, "pitch_deg": 2.3895, "yaw_deg": -7.3244, "roll_deg": 0.2833, "lat_deg": 0.0, "lon_deg": 0.0, "altitude_rel_ft": 27.3097, "ground_speed_ft_s": 0.0, "vel_north_m_s": 0.0, "vel_east_m_s": 0.0, "vel_down_m_s": 0.0, "battery_remain_pct": 9900.0}
{"t_rx_ms": 1778118681475, "run_id": "20260506_185044", "seq": 179, "pitch_deg": 2.3895, "yaw_deg": -7.3244, "roll_deg": 0.2833, "lat_deg": 0.0, "lon_deg": 0.0, "altitude_rel_ft": 27.3097, "ground_speed_ft_s": 0.0, "vel_north_m_s": 0.0, "vel_east_m_s": 0.0, "vel_down_m_s": 0.0, "battery_remain_pct": 9900.0}
{"t_rx_ms": 1778118681679, "run_id": "20260506_185044", "seq": 180, "pitch_deg": 2.3895, "yaw_deg": -7.3244, "roll_deg": 0.2833, "lat_deg": 0.0, "lon_deg": 0.0, "altitude_rel_ft": 27.3097, "ground_speed_ft_s": 0.0, "vel_north_m_s": 0.0, "vel_east_m_s": 0.0, "vel_down_m_s": 0.0, "battery_remain_pct": 9900.0}
{"t_rx_ms": 1778118681879, "run_id": "20260506_185044", "seq": 181, "pitch_deg": 2.3895, "yaw_deg": -7.3244, "roll_deg": 0.2833, "lat_deg": 0.0, "lon_deg": 0.0, "altitude_rel_ft": 27.3097, "ground_speed_ft_s": 0.0, "vel_north_m_s": 0.0, "vel_east_m_s": 0.0, "vel_down_m_s": 0.0, "battery_remain_pct": 9900.0}
{"t_rx_ms": 1778118682079, "run_id": "20260506_185044", "seq": 182, "pitch_deg": 2.3868, "yaw_deg": -7.303, "roll_deg": 0.2798, "lat_deg": 0.0, "lon_deg": 0.0, "altitude_rel_ft": 27.628, "ground_speed_ft_s": 0.0, "vel_north_m_s": 0.0, "vel_east_m_s": 0.0, "vel_down_m_s": 0.0, "battery_remain_pct": 9900.0}
{"t_rx_ms": 1778118682279, "run_id": "20260506_185044", "seq": 183, "pitch_deg": 2.3868, "yaw_deg": -7.303, "roll_deg": 0.2798, "lat_deg": 0.0, "lon_deg": 0.0, "altitude_rel_ft": 27.628, "ground_speed_ft_s": 0.0, "vel_north_m_s": 0.0, "vel_east_m_s": 0.0, "vel_down_m_s": 0.0, "battery_remain_pct": 9900.0}
{"t_rx_ms": 1778118682480, "run_id": "20260506_185044", "seq": 184, "pitch_deg": 2.3868, "yaw_deg": -7.303, "roll_deg": 0.2798, "lat_deg": 0.0, "lon_deg": 0.0, "altitude_rel_ft": 27.628, "ground_speed_ft_s": 0.0, "vel_north_m_s": 0.0, "vel_east_m_s": 0.0, "vel_down_m_s": 0.0, "battery_remain_pct": 9900.0}
{"t_rx_ms": 1778118682680, "run_id": "20260506_185044", "seq": 185, "pitch_deg": 2.3868, "yaw_deg": -7.303, "roll_deg": 0.2798, "lat_deg": 0.0, "lon_deg": 0.0, "altitude_rel_ft": 27.628, "ground_speed_ft_s": 0.0, "vel_north_m_s": 0.0, "vel_east_m_s": 0.0, "vel_down_m_s": 0.0, "battery_remain_pct": 9900.0}
{"t_rx_ms": 1778118682881, "run_id": "20260506_185044", "seq": 186, "pitch_deg": 2.3868, "yaw_deg": -7.303, "roll_deg": 0.2798, "lat_deg": 0.0, "lon_deg": 0.0, "altitude_rel_ft": 27.628, "ground_speed_ft_s": 0.0, "vel_north_m_s": 0.0, "vel_east_m_s": 0.0, "vel_down_m_s": 0.0, "battery_remain_pct": 9900.0}
{"t_rx_ms": 1778118683082, "run_id": "20260506_185044", "seq": 187, "pitch_deg": 2.3954, "yaw_deg": -7.3717, "roll_deg": 0.2743, "lat_deg": 0.0, "lon_deg": 0.0, "altitude_rel_ft": 27.6083, "ground_speed_ft_s": 0.0, "vel_north_m_s": 0.0, "vel_east_m_s": 0.0, "vel_down_m_s": 0.0, "battery_remain_pct": 9900.0}
{"t_rx_ms": 1778118683282, "run_id": "20260506_185044", "seq": 188, "pitch_deg": 2.3954, "yaw_deg": -7.3717, "roll_deg": 0.2743, "lat_deg": 0.0, "lon_deg": 0.0, "altitude_rel_ft": 27.6083, "ground_speed_ft_s": 0.0, "vel_north_m_s": 0.0, "vel_east_m_s": 0.0, "vel_down_m_s": 0.0, "battery_remain_pct": 9900.0}
{"t_rx_ms": 1778118683485, "run_id": "20260506_185044", "seq": 189, "pitch_deg": 2.3954, "yaw_deg": -7.3717, "roll_deg": 0.2743, "lat_deg": 0.0, "lon_deg": 0.0, "altitude_rel_ft": 27.6083, "ground_speed_ft_s": 0.0, "vel_north_m_s": 0.0, "vel_east_m_s": 0.0, "vel_down_m_s": 0.0, "battery_remain_pct": 9900.0}
{"t_rx_ms": 1778118683686, "run_id": "20260506_185044", "seq": 190, "pitch_deg": 2.3954, "yaw_deg": -7.3717, "roll_deg": 0.2743, "lat_deg": 0.0, "lon_deg": 0.0, "altitude_rel_ft": 27.6083, "ground_speed_ft_s": 0.0, "vel_north_m_s": 0.0, "vel_east_m_s": 0.0, "vel_down_m_s": 0.0, "battery_remain_pct": 9900.0}
{"t_rx_ms": 1778118683887, "run_id": "20260506_185044", "seq": 191, "pitch_deg": 2.3954, "yaw_deg": -7.3717, "roll_deg": 0.2743, "lat_deg": 0.0, "lon_deg": 0.0, "altitude_rel_ft": 27.6083, "ground_speed_ft_s": 0.0, "vel_north_m_s": 0.0, "vel_east_m_s": 0.0, "vel_down_m_s": 0.0, "battery_remain_pct": 9900.0}
{"t_rx_ms": 1778118684088, "run_id": "20260506_185044", "seq": 192, "pitch_deg": 2.3963, "yaw_deg": -7.3626, "roll_deg": 0.2679, "lat_deg": 0.0, "lon_deg": 0.0, "altitude_rel_ft": 27.4639, "ground_speed_ft_s": 0.0, "vel_north_m_s": 0.0, "vel_east_m_s": 0.0, "vel_down_m_s": 0.0, "battery_remain_pct": 9900.0}
{"t_rx_ms": 1778118684288, "run_id": "20260506_185044", "seq": 193, "pitch_deg": 2.3963, "yaw_deg": -7.3626, "roll_deg": 0.2679, "lat_deg": 0.0, "lon_deg": 0.0, "altitude_rel_ft": 27.4639, "ground_speed_ft_s": 0.0, "vel_north_m_s": 0.0, "vel_east_m_s": 0.0, "vel_down_m_s": 0.0, "battery_remain_pct": 9900.0}
