{"t_rx_ms": 1774641666138, "run_id": "SIM_TEST", "seq": 0, "pitch_deg": 7.1448, "yaw_deg": 263.9713, "roll_deg": -8.002, "lat_deg": 33.99427133067997, "lon_deg": -118.00476056882046, "altitude_rel_ft": 56.771, "ground_speed_ft_s": 15.0047, "vel_north_m_s": 7.451, "vel_east_m_s": 7.853, "vel_down_m_s": -0.7575, "battery_remain_pct": 56.553}
{"t_rx_ms": 1774641666239, "run_id": "SIM_TEST", "seq": 1, "pitch_deg": -5.6199, "yaw_deg": 154.7821, "roll_deg": 11.397, "lat_deg": 33.99672994061427, "lon_deg": -117.99167505929371, "altitude_rel_ft": 49.9746, "ground_speed_ft_s": 17.0097, "vel_north_m_s": 6.9565, "vel_east_m_s": -2.7984, "vel_down_m_s": 0.4976, "battery_remain_pct": 57.8556}
{"t_rx_ms": 1774641666343, "run_id": "SIM_TEST", "seq": 2, "pitch_deg": 0.6778, "yaw_deg": 256.1486, "roll_deg": -0.5094, "lat_deg": 33.99662364291946, "lon_deg": -118.0048964697181, "altitude_rel_ft": 55.4258, "ground_speed_ft_s": 23.6055, "vel_north_m_s": -6.1746, "vel_east_m_s": 4.1847, "vel_down_m_s": 0.9583, "battery_remain_pct": 75.3116}
{"t_rx_ms": 1774641666444, "run_id": "SIM_TEST", "seq": 3, "pitch_deg": 4.292, "yaw_deg": 338.5342, "roll_deg": -4.3877, "lat_deg": 33.996821392809835, "lon_deg": -117.99648298333659, "altitude_rel_ft": 30.1219, "ground_speed_ft_s": 22.5117, "vel_north_m_s": 5.3457, "vel_east_m_s": -1.6139, "vel_down_m_s": -0.5539, "battery_remain_pct": 68.0533}
{"t_rx_ms": 1774641666544, "run_id": "SIM_TEST", "seq": 4, "pitch_deg": -8.1906, "yaw_deg": 341.9396, "roll_deg": 9.7847, "lat_deg": 33.99262169107988, "lon_deg": -117.99464862115678, "altitude_rel_ft": 31.9204, "ground_speed_ft_s": 21.8063, "vel_north_m_s": -9.8657, "vel_east_m_s": 7.9341, "vel_down_m_s": 0.3316, "battery_remain_pct": 50.8192}
{"t_rx_ms": 1774641666645, "run_id": "SIM_TEST", "seq": 5, "pitch_deg": -4.6027, "yaw_deg": 88.9472, "roll_deg": 8.64, "lat_deg": 34.00965491084531, "lon_deg": -117.99612700797667, "altitude_rel_ft": 50.443, "ground_speed_ft_s": 56.4244, "vel_north_m_s": -4.0898, "vel_east_m_s": -4.7418, "vel_down_m_s": 0.5586, "battery_remain_pct": 92.4904}
{"t_rx_ms": 1774641666745, "run_id": "SIM_TEST", "seq": 6, "pitch_deg": 3.1041, "yaw_deg": 183.411, "roll_deg": -3.0686, "lat_deg": 34.0045027137082, "lon_deg": -117.99224540241663, "altitude_rel_ft": 68.2028, "ground_speed_ft_s": 31.9128, "vel_north_m_s": 2.7061, "vel_east_m_s": 7.4242, "vel_down_m_s": -0.3182, "battery_remain_pct": 80.8081}
{"t_rx_ms": 1774641666846, "run_id": "SIM_TEST", "seq": 7, "pitch_deg": -8.9672, "yaw_deg": 164.0774, "roll_deg": -10.7795, "lat_deg": 33.992676930509724, "lon_deg": -117.99038995386611, "altitude_rel_ft": 53.1808, "ground_speed_ft_s": 22.7482, "vel_north_m_s": 6.5764, "vel_east_m_s": 0.7369, "vel_down_m_s": 0.2262, "battery_remain_pct": 64.0386}
{"t_rx_ms": 1774641666947, "run_id": "SIM_TEST", "seq": 8, "pitch_deg": 5.8526, "yaw_deg": 214.9927, "roll_deg": -7.3556, "lat_deg": 34.006659131952915, "lon_deg": -118.00305569020726, "altitude_rel_ft": 66.5133, "ground_speed_ft_s": 56.5273, "vel_north_m_s": -4.5631, "vel_east_m_s": 9.4465, "vel_down_m_s": -0.3022, "battery_remain_pct": 87.4869}
{"t_rx_ms": 1774641667047, "run_id": "SIM_TEST", "seq": 9, "pitch_deg": -9.515, "yaw_deg": 212.299, "roll_deg": -2.8229, "lat_deg": 33.99175194762876, "lon_deg": -117.99401981402238, "altitude_rel_ft": 85.1016, "ground_speed_ft_s": 8.9492, "vel_north_m_s": -2.7298, "vel_east_m_s": 0.1895, "vel_down_m_s": -0.622, "battery_remain_pct": 75.3168}
{"t_rx_ms": 1774641667148, "run_id": "SIM_TEST", "seq": 10, "pitch_deg": 4.2382, "yaw_deg": 305.2895, "roll_deg": -9.6177, "lat_deg": 33.999186861101556, "lon_deg": -117.99984938448533, "altitude_rel_ft": 88.8026, "ground_speed_ft_s": 35.5912, "vel_north_m_s": 5.5279, "vel_east_m_s": -4.6675, "vel_down_m_s": -0.2269, "battery_remain_pct": 73.0067}
{"t_rx_ms": 1774641667248, "run_id": "SIM_TEST", "seq": 11, "pitch_deg": 1.0032, "yaw_deg": 124.2477, "roll_deg": -5.061, "lat_deg": 33.9924310402719, "lon_deg": -117.99719937389067, "altitude_rel_ft": 87.0378, "ground_speed_ft_s": 46.2822, "vel_north_m_s": -1.0471, "vel_east_m_s": 3.469, "vel_down_m_s": 0.781, "battery_remain_pct": 57.9881}
{"t_rx_ms": 1774641667349, "run_id": "SIM_TEST", "seq": 12, "pitch_deg": -1.421, "yaw_deg": 201.368, "roll_deg": 14.6041, "lat_deg": 33.9998381801421, "lon_deg": -117.99009545536902, "altitude_rel_ft": 51.7193, "ground_speed_ft_s": 51.6399, "vel_north_m_s": 0.8338, "vel_east_m_s": -6.9233, "vel_down_m_s": 0.5372, "battery_remain_pct": 96.9975}
{"t_rx_ms": 1774641667449, "run_id": "SIM_TEST", "seq": 13, "pitch_deg": -6.5412, "yaw_deg": 322.8174, "roll_deg": 8.7914, "lat_deg": 34.00789502074705, "lon_deg": -117.9905217676991, "altitude_rel_ft": 35.8338, "ground_speed_ft_s": 27.0813, "vel_north_m_s": -8.9319, "vel_east_m_s": 3.6718, "vel_down_m_s": 0.8805, "battery_remain_pct": 95.1334}
{"t_rx_ms": 1774641667549, "run_id": "SIM_TEST", "seq": 14, "pitch_deg": 8.5327, "yaw_deg": 149.0415, "roll_deg": -0.314, "lat_deg": 33.9921918891503, "lon_deg": -118.00153465335447, "altitude_rel_ft": 21.2414, "ground_speed_ft_s": 40.7116, "vel_north_m_s": 9.5245, "vel_east_m_s": -1.4403, "vel_down_m_s": -0.3603, "battery_remain_pct": 53.7458}
{"t_rx_ms": 1774641667650, "run_id": "SIM_TEST", "seq": 15, "pitch_deg": 2.6936, "yaw_deg": 154.8196, "roll_deg": 8.7744, "lat_deg": 33.99737018342219, "lon_deg": -118.00365235338786, "altitude_rel_ft": 51.8152, "ground_speed_ft_s": 8.3206, "vel_north_m_s": 2.6445, "vel_east_m_s": 0.0505, "vel_down_m_s": 0.0367, "battery_remain_pct": 81.5082}
{"t_rx_ms": 1774641667750, "run_id": "SIM_TEST", "seq": 16, "pitch_deg": -3.9405, "yaw_deg": 132.5854, "roll_deg": 2.6039, "lat_deg": 33.99897030276897, "lon_deg": -118.00156089649482, "altitude_rel_ft": 28.6836, "ground_speed_ft_s": 46.5018, "vel_north_m_s": -0.3557, "vel_east_m_s": 7.7487, "vel_down_m_s": 0.3246, "battery_remain_pct": 52.6944}
{"t_rx_ms": 1774641667851, "run_id": "SIM_TEST", "seq": 17, "pitch_deg": 4.9908, "yaw_deg": 208.6186, "roll_deg": -4.1852, "lat_deg": 33.99816936018765, "lon_deg": -117.99532010624459, "altitude_rel_ft": 72.3677, "ground_speed_ft_s": 35.3999, "vel_north_m_s": 0.0629, "vel_east_m_s": -9.284, "vel_down_m_s": -0.581, "battery_remain_pct": 78.298}
{"t_rx_ms": 1774641667952, "run_id": "SIM_TEST", "seq": 18, "pitch_deg": 6.3222, "yaw_deg": 269.2812, "roll_deg": -0.7209, "lat_deg": 34.0032939679345, "lon_deg": -117.99778665480216, "altitude_rel_ft": 89.6009, "ground_speed_ft_s": 48.6251, "vel_north_m_s": 5.756, "vel_east_m_s": 8.8263, "vel_down_m_s": 0.3067, "battery_remain_pct": 70.9758}
{"t_rx_ms": 1774641668052, "run_id": "SIM_TEST", "seq": 19, "pitch_deg": -1.6116, "yaw_deg": 206.9428, "roll_deg": 10.2769, "lat_deg": 33.99929364503739, "lon_deg": -118.0099732766702, "altitude_rel_ft": 94.9023, "ground_speed_ft_s": 46.9179, "vel_north_m_s": -5.5174, "vel_east_m_s": 7.2688, "vel_down_m_s": 0.0884, "battery_remain_pct": 84.751}
{"t_rx_ms": 1774641668153, "run_id": "SIM_TEST", "seq": 20, "pitch_deg": -1.9423, "yaw_deg": 343.0249, "roll_deg": 1.9513, "lat_deg": 33.99542641971191, "lon_deg": -118.00827482572191, "altitude_rel_ft": 34.2635, "ground_speed_ft_s": 16.113, "vel_north_m_s": 9.8036, "vel_east_m_s": 9.8743, "vel_down_m_s": -0.8898, "battery_remain_pct": 55.7424}
{"t_rx_ms": 1774641668253, "run_id": "SIM_TEST", "seq": 21, "pitch_deg": -6.2794, "yaw_deg": 242.3423, "roll_deg": -3.0868, "lat_deg": 33.99269663550488, "lon_deg": -117.99653719659648, "altitude_rel_ft": 33.6938, "ground_speed_ft_s": 33.4844, "vel_north_m_s": -4.9225, "vel_east_m_s": 7.9719, "vel_down_m_s": 0.3441, "battery_remain_pct": 79.1478}
{"t_rx_ms": 1774641668354, "run_id": "SIM_TEST", "seq": 22, "pitch_deg": 1.258, "yaw_deg": 262.0881, "roll_deg": -6.0196, "lat_deg": 34.00982265421783, "lon_deg": -117.99412732345576, "altitude_rel_ft": 31.9531, "ground_speed_ft_s": 57.8857, "vel_north_m_s": 4.6617, "vel_east_m_s": -6.0303, "vel_down_m_s": 0.4744, "battery_remain_pct": 73.5751}
{"t_rx_ms": 1774641668455, "run_id": "SIM_TEST", "seq": 23, "pitch_deg": 5.4855, "yaw_deg": 349.3683, "roll_deg": -3.5808, "lat_deg": 33.99737522668374, "lon_deg": -118.00583687175303, "altitude_rel_ft": 74.0029, "ground_speed_ft_s": 9.7513, "vel_north_m_s": 0.4638, "vel_east_m_s": 7.4187, "vel_down_m_s": -0.6488, "battery_remain_pct": 77.3866}
{"t_rx_ms": 1774641668555, "run_id": "SIM_TEST", "seq": 24, "pitch_deg": 8.3255, "yaw_deg": 45.365, "roll_deg": 3.7584, "lat_deg": 34.000360869796026, "lon_deg": -117.99332268363509, "altitude_rel_ft": 87.6185, "ground_speed_ft_s": 19.3385, "vel_north_m_s": -6.3968, "vel_east_m_s": 1.3255, "vel_down_m_s": -0.5677, "battery_remain_pct": 98.7242}
{"t_rx_ms": 1774641668656, "run_id": "SIM_TEST", "seq": 25, "pitch_deg": 7.0981, "yaw_deg": 37.5678, "roll_deg": -10.6325, "lat_deg": 33.99874922015215, "lon_deg": -118.00584712815653, "altitude_rel_ft": 78.5399, "ground_speed_ft_s": 40.5975, "vel_north_m_s": 4.9203, "vel_east_m_s": -3.3259, "vel_down_m_s": 0.552, "battery_remain_pct": 62.203}
{"t_rx_ms": 1774641668757, "run_id": "SIM_TEST", "seq": 26, "pitch_deg": -9.5668, "yaw_deg": 321.2639, "roll_deg": -0.1481, "lat_deg": 34.005886214168, "lon_deg": -118.00990006468774, "altitude_rel_ft": 25.0312, "ground_speed_ft_s": 33.5427, "vel_north_m_s": -1.7906, "vel_east_m_s": -1.0297, "vel_down_m_s": -0.1687, "battery_remain_pct": 77.1958}
{"t_rx_ms": 1774641668858, "run_id": "SIM_TEST", "seq": 27, "pitch_deg": 1.0177, "yaw_deg": 173.6429, "roll_deg": -5.6564, "lat_deg": 33.99584674731032, "lon_deg": -118.00094028693124, "altitude_rel_ft": 30.0025, "ground_speed_ft_s": 6.0242, "vel_north_m_s": -4.0564, "vel_east_m_s": -2.4847, "vel_down_m_s": 0.7641, "battery_remain_pct": 64.7549}
{"t_rx_ms": 1774641668958, "run_id": "SIM_TEST", "seq": 28, "pitch_deg": 9.1793, "yaw_deg": 64.8015, "roll_deg": 12.4636, "lat_deg": 34.0095208574813, "lon_deg": -117.99200238456912, "altitude_rel_ft": 35.2753, "ground_speed_ft_s": 44.6055, "vel_north_m_s": 7.8192, "vel_east_m_s": 0.4473, "vel_down_m_s": -0.8327, "battery_remain_pct": 50.7717}
{"t_rx_ms": 1774641669059, "run_id": "SIM_TEST", "seq": 29, "pitch_deg": -8.4864, "yaw_deg": 253.224, "roll_deg": 2.4858, "lat_deg": 34.007987953421775, "lon_deg": -117.99986560102627, "altitude_rel_ft": 34.6839, "ground_speed_ft_s": 10.4349, "vel_north_m_s": -5.6357, "vel_east_m_s": -9.5347, "vel_down_m_s": -0.1363, "battery_remain_pct": 99.5224}
{"t_rx_ms": 1774641669160, "run_id": "SIM_TEST", "seq": 30, "pitch_deg": -5.1999, "yaw_deg": 321.2196, "roll_deg": 1.1948, "lat_deg": 34.009033786761734, "lon_deg": -117.99909507148293, "altitude_rel_ft": 80.8849, "ground_speed_ft_s": 50.4978, "vel_north_m_s": -4.3927, "vel_east_m_s": 0.7792, "vel_down_m_s": -0.0413, "battery_remain_pct": 86.7946}
{"t_rx_ms": 1774641669260, "run_id": "SIM_TEST", "seq": 31, "pitch_deg": 7.6883, "yaw_deg": 119.9808, "roll_deg": -12.0443, "lat_deg": 33.99667472361708, "lon_deg": -117.99482148125725, "altitude_rel_ft": 39.4017, "ground_speed_ft_s": 23.4084, "vel_north_m_s": -0.3173, "vel_east_m_s": -8.1149, "vel_down_m_s": -0.1181, "battery_remain_pct": 57.0624}
{"t_rx_ms": 1774641669361, "run_id": "SIM_TEST", "seq": 32, "pitch_deg": -1.7873, "yaw_deg": 227.667, "roll_deg": 7.8858, "lat_deg": 33.99680787729665, "lon_deg": -118.00625968774774, "altitude_rel_ft": 31.9529, "ground_speed_ft_s": 35.6501, "vel_north_m_s": 9.1049, "vel_east_m_s": -2.7616, "vel_down_m_s": -0.3663, "battery_remain_pct": 77.3925}
{"t_rx_ms": 1774641669462, "run_id": "SIM_TEST", "seq": 33, "pitch_deg": 6.3485, "yaw_deg": 2.7458, "roll_deg": 11.025, "lat_deg": 33.99977439697226, "lon_deg": -117.99028287067824, "altitude_rel_ft": 84.0308, "ground_speed_ft_s": 48.7179, "vel_north_m_s": 8.2531, "vel_east_m_s": 9.4937, "vel_down_m_s": 0.8917, "battery_remain_pct": 74.0591}
{"t_rx_ms": 1774641669562, "run_id": "SIM_TEST", "seq": 34, "pitch_deg": -0.0972, "yaw_deg": 23.7169, "roll_deg": -8.1936, "lat_deg": 33.999768030006656, "lon_deg": -118.00936563234619, "altitude_rel_ft": 70.7772, "ground_speed_ft_s": 10.2516, "vel_north_m_s": 0.7891, "vel_east_m_s": -4.1154, "vel_down_m_s": 0.7134, "battery_remain_pct": 89.9684}
{"t_rx_ms": 1774641669663, "run_id": "SIM_TEST", "seq": 35, "pitch_deg": 2.7523, "yaw_deg": 331.7324, "roll_deg": -5.3217, "lat_deg": 33.999562740037945, "lon_deg": -117.99588103378086, "altitude_rel_ft": 48.7157, "ground_speed_ft_s": 34.8387, "vel_north_m_s": 3.6332, "vel_east_m_s": 5.6043, "vel_down_m_s": 0.5951, "battery_remain_pct": 81.7522}
{"t_rx_ms": 1774641669764, "run_id": "SIM_TEST", "seq": 36, "pitch_deg": 2.3287, "yaw_deg": 95.5154, "roll_deg": -8.0615, "lat_deg": 34.009756710019424, "lon_deg": -117.99660219779948, "altitude_rel_ft": 90.1125, "ground_speed_ft_s": 42.6386, "vel_north_m_s": 6.6127, "vel_east_m_s": 0.016, "vel_down_m_s": -0.1385, "battery_remain_pct": 86.9776}
{"t_rx_ms": 1774641669865, "run_id": "SIM_TEST", "seq": 37, "pitch_deg": 2.5648, "yaw_deg": 256.5337, "roll_deg": 7.8952, "lat_deg": 34.00168221924178, "lon_deg": -117.99764100537047, "altitude_rel_ft": 26.8892, "ground_speed_ft_s": 12.6363, "vel_north_m_s": 6.5677, "vel_east_m_s": -7.3827, "vel_down_m_s": -0.5447, "battery_remain_pct": 53.8835}
{"t_rx_ms": 1774641669965, "run_id": "SIM_TEST", "seq": 38, "pitch_deg": -2.2814, "yaw_deg": 237.3312, "roll_deg": -13.9576, "lat_deg": 34.00950776972219, "lon_deg": -117.99040104911585, "altitude_rel_ft": 45.6753, "ground_speed_ft_s": 40.3822, "vel_north_m_s": -7.4645, "vel_east_m_s": 5.536, "vel_down_m_s": 0.8244, "battery_remain_pct": 66.1425}
{"t_rx_ms": 1774641670066, "run_id": "SIM_TEST", "seq": 39, "pitch_deg": -3.3454, "yaw_deg": 170.1939, "roll_deg": 8.3098, "lat_deg": 33.99215465716025, "lon_deg": -117.99666386135038, "altitude_rel_ft": 71.1454, "ground_speed_ft_s": 50.2749, "vel_north_m_s": -5.225, "vel_east_m_s": 7.4496, "vel_down_m_s": -0.2722, "battery_remain_pct": 86.9712}
{"t_rx_ms": 1774641670166, "run_id": "SIM_TEST", "seq": 40, "pitch_deg": -2.5061, "yaw_deg": 45.3409, "roll_deg": 11.8747, "lat_deg": 33.999612154132, "lon_deg": -117.99753622221908, "altitude_rel_ft": 67.5818, "ground_speed_ft_s": 10.4277, "vel_north_m_s": -8.3908, "vel_east_m_s": -2.0527, "vel_down_m_s": 0.6809, "battery_remain_pct": 80.7509}
{"t_rx_ms": 1774641670266, "run_id": "SIM_TEST", "seq": 41, "pitch_deg": -2.3442, "yaw_deg": 295.9808, "roll_deg": 9.0631, "lat_deg": 34.00452332659426, "lon_deg": -117.99739765257507, "altitude_rel_ft": 59.8994, "ground_speed_ft_s": 54.0867, "vel_north_m_s": 8.9685, "vel_east_m_s": -7.2009, "vel_down_m_s": 0.6499, "battery_remain_pct": 60.5492}
{"t_rx_ms": 1774641670367, "run_id": "SIM_TEST", "seq": 42, "pitch_deg": 8.5867, "yaw_deg": 285.9117, "roll_deg": -14.6509, "lat_deg": 33.991189952906105, "lon_deg": -117.99076686760867, "altitude_rel_ft": 65.9364, "ground_speed_ft_s": 34.5454, "vel_north_m_s": -1.3037, "vel_east_m_s": -5.3089, "vel_down_m_s": 0.828, "battery_remain_pct": 81.7728}
{"t_rx_ms": 1774641670467, "run_id": "SIM_TEST", "seq": 43, "pitch_deg": 2.3061, "yaw_deg": 196.9238, "roll_deg": -4.9981, "lat_deg": 33.990645982348425, "lon_deg": -117.99070615233904, "altitude_rel_ft": 20.177, "ground_speed_ft_s": 37.4699, "vel_north_m_s": -1.9078, "vel_east_m_s": -7.8805, "vel_down_m_s": 0.7493, "battery_remain_pct": 73.2693}
{"t_rx_ms": 1774641670567, "run_id": "SIM_TEST", "seq": 44, "pitch_deg": -8.1056, "yaw_deg": 285.1672, "roll_deg": 9.8169, "lat_deg": 34.000055096430884, "lon_deg": -117.99295220147222, "altitude_rel_ft": 96.6601, "ground_speed_ft_s": 32.5904, "vel_north_m_s": -1.2661, "vel_east_m_s": -3.3751, "vel_down_m_s": -0.5387, "battery_remain_pct": 51.8533}
{"t_rx_ms": 1774641670668, "run_id": "SIM_TEST", "seq": 45, "pitch_deg": -5.126, "yaw_deg": 161.8517, "roll_deg": -13.7042, "lat_deg": 34.00355461422163, "lon_deg": -117.99908145874814, "altitude_rel_ft": 34.4636, "ground_speed_ft_s": 18.6199, "vel_north_m_s": -1.0101, "vel_east_m_s": 1.1202, "vel_down_m_s": 0.0328, "battery_remain_pct": 64.6633}
{"t_rx_ms": 1774641670769, "run_id": "SIM_TEST", "seq": 46, "pitch_deg": 0.465, "yaw_deg": 327.151, "roll_deg": -4.4422, "lat_deg": 33.99696358361252, "lon_deg": -117.99239127578169, "altitude_rel_ft": 31.4847, "ground_speed_ft_s": 25.4196, "vel_north_m_s": -5.2077, "vel_east_m_s": 8.3961, "vel_down_m_s": 0.3454, "battery_remain_pct": 80.4346}
{"t_rx_ms": 1774641670869, "run_id": "SIM_TEST", "seq": 47, "pitch_deg": 5.5509, "yaw_deg": 10.4219, "roll_deg": -9.5639, "lat_deg": 33.99588974049882, "lon_deg": -117.9934943197128, "altitude_rel_ft": 99.0654, "ground_speed_ft_s": 46.1591, "vel_north_m_s": 0.315, "vel_east_m_s": 6.9339, "vel_down_m_s": -0.7803, "battery_remain_pct": 59.1412}
{"t_rx_ms": 1774641670970, "run_id": "SIM_TEST", "seq": 48, "pitch_deg": 5.9085, "yaw_deg": 295.8728, "roll_deg": 8.8705, "lat_deg": 34.00367610822488, "lon_deg": -117.99842938684777, "altitude_rel_ft": 53.2733, "ground_speed_ft_s": 39.7618, "vel_north_m_s": 3.3253, "vel_east_m_s": -6.8783, "vel_down_m_s": -0.038, "battery_remain_pct": 91.6739}
{"t_rx_ms": 1774641671070, "run_id": "SIM_TEST", "seq": 49, "pitch_deg": -3.5803, "yaw_deg": 74.2803, "roll_deg": 12.0345, "lat_deg": 34.00419582406965, "lon_deg": -117.99903268918577, "altitude_rel_ft": 53.3559, "ground_speed_ft_s": 56.8713, "vel_north_m_s": 7.1331, "vel_east_m_s": 3.1124, "vel_down_m_s": 0.0408, "battery_remain_pct": 89.4855}
{"t_rx_ms": 1774641671171, "run_id": "SIM_TEST", "seq": 50, "pitch_deg": -1.5965, "yaw_deg": 221.8911, "roll_deg": -3.5847, "lat_deg": 33.99906015763208, "lon_deg": -118.00356891652567, "altitude_rel_ft": 48.7873, "ground_speed_ft_s": 20.95, "vel_north_m_s": -7.3591, "vel_east_m_s": -3.6555, "vel_down_m_s": -0.8707, "battery_remain_pct": 87.711}
{"t_rx_ms": 1774641671272, "run_id": "SIM_TEST", "seq": 51, "pitch_deg": -3.4224, "yaw_deg": 106.5207, "roll_deg": 3.3665, "lat_deg": 33.993678676823365, "lon_deg": -118.00957644222203, "altitude_rel_ft": 35.8844, "ground_speed_ft_s": 35.218, "vel_north_m_s": -6.7315, "vel_east_m_s": -6.6832, "vel_down_m_s": 0.3307, "battery_remain_pct": 96.0091}
{"t_rx_ms": 1774641671372, "run_id": "SIM_TEST", "seq": 52, "pitch_deg": 4.2508, "yaw_deg": 346.5886, "roll_deg": 1.7999, "lat_deg": 34.00379996584343, "lon_deg": -118.00655731602487, "altitude_rel_ft": 45.2424, "ground_speed_ft_s": 7.1682, "vel_north_m_s": -4.2581, "vel_east_m_s": 5.5791, "vel_down_m_s": 0.7723, "battery_remain_pct": 56.6427}
{"t_rx_ms": 1774641671474, "run_id": "SIM_TEST", "seq": 53, "pitch_deg": 6.4076, "yaw_deg": 55.4595, "roll_deg": -13.3079, "lat_deg": 34.005163376681736, "lon_deg": -117.99614921117215, "altitude_rel_ft": 86.3533, "ground_speed_ft_s": 39.7067, "vel_north_m_s": -2.4804, "vel_east_m_s": -9.9112, "vel_down_m_s": 0.9371, "battery_remain_pct": 63.3835}
{"t_rx_ms": 1774641671574, "run_id": "SIM_TEST", "seq": 54, "pitch_deg": -0.679, "yaw_deg": 270.2439, "roll_deg": -0.4171, "lat_deg": 33.999240429878164, "lon_deg": -118.00649204137173, "altitude_rel_ft": 38.0521, "ground_speed_ft_s": 40.8898, "vel_north_m_s": 6.7517, "vel_east_m_s": 5.1975, "vel_down_m_s": 0.2253, "battery_remain_pct": 63.3611}
{"t_rx_ms": 1774641671675, "run_id": "SIM_TEST", "seq": 55, "pitch_deg": 0.3876, "yaw_deg": 61.5191, "roll_deg": 11.3589, "lat_deg": 33.992450280700645, "lon_deg": -118.0006720802338, "altitude_rel_ft": 83.8583, "ground_speed_ft_s": 56.4669, "vel_north_m_s": -5.5909, "vel_east_m_s": 4.4094, "vel_down_m_s": 0.3523, "battery_remain_pct": 95.6747}
{"t_rx_ms": 1774641671775, "run_id": "SIM_TEST", "seq": 56, "pitch_deg": -6.2514, "yaw_deg": 36.6393, "roll_deg": 12.2932, "lat_deg": 33.99154311124531, "lon_deg": -118.00108778020304, "altitude_rel_ft": 29.1264, "ground_speed_ft_s": 16.177, "vel_north_m_s": -9.1584, "vel_east_m_s": -0.3173, "vel_down_m_s": -0.4893, "battery_remain_pct": 80.1176}
{"t_rx_ms": 1774641671876, "run_id": "SIM_TEST", "seq": 57, "pitch_deg": -6.5865, "yaw_deg": 251.0284, "roll_deg": 8.5312, "lat_deg": 34.00871740312364, "lon_deg": -117.99512080889984, "altitude_rel_ft": 96.7175, "ground_speed_ft_s": 24.0737, "vel_north_m_s": -5.2868, "vel_east_m_s": 8.7569, "vel_down_m_s": 0.6536, "battery_remain_pct": 74.282}
{"t_rx_ms": 1774641671976, "run_id": "SIM_TEST", "seq": 58, "pitch_deg": 4.6892, "yaw_deg": 100.5007, "roll_deg": -12.0111, "lat_deg": 33.99863573089628, "lon_deg": -118.00057656294541, "altitude_rel_ft": 72.192, "ground_speed_ft_s": 59.9467, "vel_north_m_s": 9.5681, "vel_east_m_s": 1.5328, "vel_down_m_s": 0.1981, "battery_remain_pct": 92.766}
{"t_rx_ms": 1774641672077, "run_id": "SIM_TEST", "seq": 59, "pitch_deg": -0.8078, "yaw_deg": 227.8573, "roll_deg": -12.124, "lat_deg": 34.000207431633875, "lon_deg": -117.99852474208635, "altitude_rel_ft": 87.5231, "ground_speed_ft_s": 44.7871, "vel_north_m_s": 1.1829, "vel_east_m_s": 8.3906, "vel_down_m_s": 0.268, "battery_remain_pct": 72.6331}
{"t_rx_ms": 1774641672178, "run_id": "SIM_TEST", "seq": 60, "pitch_deg": 3.8456, "yaw_deg": 92.5288, "roll_deg": 8.7485, "lat_deg": 33.990384633927455, "lon_deg": -118.00894274426427, "altitude_rel_ft": 65.366, "ground_speed_ft_s": 23.5814, "vel_north_m_s": -7.1903, "vel_east_m_s": 3.7628, "vel_down_m_s": -0.3862, "battery_remain_pct": 52.7996}
{"t_rx_ms": 1774641672278, "run_id": "SIM_TEST", "seq": 61, "pitch_deg": -8.1558, "yaw_deg": 49.3261, "roll_deg": 8.6177, "lat_deg": 33.9940899143335, "lon_deg": -118.00183097720574, "altitude_rel_ft": 70.1153, "ground_speed_ft_s": 28.1167, "vel_north_m_s": 0.1635, "vel_east_m_s": 4.4151, "vel_down_m_s": -0.8638, "battery_remain_pct": 81.8141}
{"t_rx_ms": 1774641672379, "run_id": "SIM_TEST", "seq": 62, "pitch_deg": 8.3919, "yaw_deg": 201.909, "roll_deg": -12.9915, "lat_deg": 34.001892654164436, "lon_deg": -117.99273952354264, "altitude_rel_ft": 66.9887, "ground_speed_ft_s": 6.1333, "vel_north_m_s": -2.0573, "vel_east_m_s": -5.874, "vel_down_m_s": -0.1941, "battery_remain_pct": 89.5829}
{"t_rx_ms": 1774641672480, "run_id": "SIM_TEST", "seq": 63, "pitch_deg": -9.3636, "yaw_deg": 171.6956, "roll_deg": -3.3045, "lat_deg": 33.99867303001248, "lon_deg": -118.007993926565, "altitude_rel_ft": 34.57, "ground_speed_ft_s": 10.7643, "vel_north_m_s": 3.7774, "vel_east_m_s": 7.3195, "vel_down_m_s": -0.7602, "battery_remain_pct": 71.8668}
{"t_rx_ms": 1774641672580, "run_id": "SIM_TEST", "seq": 64, "pitch_deg": -1.5241, "yaw_deg": 185.1251, "roll_deg": -8.7284, "lat_deg": 33.99634369477646, "lon_deg": -117.99697295416499, "altitude_rel_ft": 34.1874, "ground_speed_ft_s": 42.8456, "vel_north_m_s": -2.6317, "vel_east_m_s": -1.436, "vel_down_m_s": 0.3232, "battery_remain_pct": 92.9458}
{"t_rx_ms": 1774641672681, "run_id": "SIM_TEST", "seq": 65, "pitch_deg": -2.0962, "yaw_deg": 93.6885, "roll_deg": -14.0312, "lat_deg": 33.99472883050104, "lon_deg": -118.00019392170795, "altitude_rel_ft": 94.0703, "ground_speed_ft_s": 36.4085, "vel_north_m_s": -3.5787, "vel_east_m_s": 7.3711, "vel_down_m_s": 0.1857, "battery_remain_pct": 83.7122}
{"t_rx_ms": 1774641672781, "run_id": "SIM_TEST", "seq": 66, "pitch_deg": -1.3529, "yaw_deg": 73.4306, "roll_deg": -3.6338, "lat_deg": 33.99018118492358, "lon_deg": -117.99536316585501, "altitude_rel_ft": 27.8473, "ground_speed_ft_s": 56.893, "vel_north_m_s": -8.1055, "vel_east_m_s": 3.432, "vel_down_m_s": -0.8157, "battery_remain_pct": 95.9431}
{"t_rx_ms": 1774641672882, "run_id": "SIM_TEST", "seq": 67, "pitch_deg": -5.2364, "yaw_deg": 122.765, "roll_deg": -8.1678, "lat_deg": 33.99422884261839, "lon_deg": -118.00007950055844, "altitude_rel_ft": 97.1433, "ground_speed_ft_s": 28.824, "vel_north_m_s": 9.1522, "vel_east_m_s": -5.151, "vel_down_m_s": -0.721, "battery_remain_pct": 96.1033}
{"t_rx_ms": 1774641672982, "run_id": "SIM_TEST", "seq": 68, "pitch_deg": -3.0135, "yaw_deg": 25.9235, "roll_deg": -9.2232, "lat_deg": 34.00426514297108, "lon_deg": -118.00149809965663, "altitude_rel_ft": 43.5659, "ground_speed_ft_s": 53.0652, "vel_north_m_s": 1.0616, "vel_east_m_s": -8.4029, "vel_down_m_s": 0.6666, "battery_remain_pct": 97.0334}
{"t_rx_ms": 1774641673083, "run_id": "SIM_TEST", "seq": 69, "pitch_deg": -3.4341, "yaw_deg": 341.9206, "roll_deg": -13.464, "lat_deg": 34.0009269590623, "lon_deg": -117.99426137191395, "altitude_rel_ft": 83.4834, "ground_speed_ft_s": 41.3857, "vel_north_m_s": 5.3021, "vel_east_m_s": -7.0948, "vel_down_m_s": 0.8422, "battery_remain_pct": 91.0898}
{"t_rx_ms": 1774641673183, "run_id": "SIM_TEST", "seq": 70, "pitch_deg": -5.1391, "yaw_deg": 258.9492, "roll_deg": -12.9203, "lat_deg": 34.003138027210404, "lon_deg": -117.99922197313496, "altitude_rel_ft": 75.0172, "ground_speed_ft_s": 8.0263, "vel_north_m_s": -2.2896, "vel_east_m_s": 2.5636, "vel_down_m_s": -0.9082, "battery_remain_pct": 55.8129}
{"t_rx_ms": 1774641673283, "run_id": "SIM_TEST", "seq": 71, "pitch_deg": 1.9097, "yaw_deg": 357.9058, "roll_deg": 1.6023, "lat_deg": 34.00635585306891, "lon_deg": -117.99261897235353, "altitude_rel_ft": 69.1664, "ground_speed_ft_s": 20.7953, "vel_north_m_s": -9.9403, "vel_east_m_s": -8.7413, "vel_down_m_s": -0.3212, "battery_remain_pct": 51.4526}
{"t_rx_ms": 1774641673384, "run_id": "SIM_TEST", "seq": 72, "pitch_deg": -2.9109, "yaw_deg": 244.3045, "roll_deg": -5.8851, "lat_deg": 33.99050616031005, "lon_deg": -118.00802151619848, "altitude_rel_ft": 73.3159, "ground_speed_ft_s": 30.3653, "vel_north_m_s": -1.9892, "vel_east_m_s": 5.4714, "vel_down_m_s": 0.6904, "battery_remain_pct": 67.7273}
{"t_rx_ms": 1774641673485, "run_id": "SIM_TEST", "seq": 73, "pitch_deg": 5.9713, "yaw_deg": 72.0686, "roll_deg": 2.1109, "lat_deg": 34.00046514178113, "lon_deg": -117.99183108542839, "altitude_rel_ft": 54.9524, "ground_speed_ft_s": 25.7178, "vel_north_m_s": 6.6687, "vel_east_m_s": -3.9359, "vel_down_m_s": 0.2476, "battery_remain_pct": 97.1991}
{"t_rx_ms": 1774641673585, "run_id": "SIM_TEST", "seq": 74, "pitch_deg": -5.4579, "yaw_deg": 42.21, "roll_deg": 14.8204, "lat_deg": 34.00925128628947, "lon_deg": -118.00056965424649, "altitude_rel_ft": 90.6822, "ground_speed_ft_s": 28.6485, "vel_north_m_s": -9.8043, "vel_east_m_s": -0.5456, "vel_down_m_s": -0.473, "battery_remain_pct": 73.3284}
{"t_rx_ms": 1774641673686, "run_id": "SIM_TEST", "seq": 75, "pitch_deg": 6.8711, "yaw_deg": 45.5434, "roll_deg": 2.3292, "lat_deg": 34.0088775708202, "lon_deg": -118.00334192007146, "altitude_rel_ft": 58.3224, "ground_speed_ft_s": 43.1493, "vel_north_m_s": 7.6083, "vel_east_m_s": 2.5698, "vel_down_m_s": 0.2039, "battery_remain_pct": 97.5509}
{"t_rx_ms": 1774641673786, "run_id": "SIM_TEST", "seq": 76, "pitch_deg": -9.3995, "yaw_deg": 150.6446, "roll_deg": 7.8773, "lat_deg": 34.00949030917187, "lon_deg": -117.99996989869832, "altitude_rel_ft": 94.6754, "ground_speed_ft_s": 47.5336, "vel_north_m_s": -8.3637, "vel_east_m_s": -6.0337, "vel_down_m_s": 0.7373, "battery_remain_pct": 54.1516}
{"t_rx_ms": 1774641673887, "run_id": "SIM_TEST", "seq": 77, "pitch_deg": -4.4742, "yaw_deg": 17.7564, "roll_deg": -9.6351, "lat_deg": 33.99107033064446, "lon_deg": -117.99308479665046, "altitude_rel_ft": 64.9737, "ground_speed_ft_s": 11.1645, "vel_north_m_s": -0.175, "vel_east_m_s": 7.2298, "vel_down_m_s": -0.0682, "battery_remain_pct": 67.437}
{"t_rx_ms": 1774641673988, "run_id": "SIM_TEST", "seq": 78, "pitch_deg": 2.4918, "yaw_deg": 107.9269, "roll_deg": -4.1687, "lat_deg": 34.00549845346871, "lon_deg": -117.99475179980875, "altitude_rel_ft": 89.3052, "ground_speed_ft_s": 26.8397, "vel_north_m_s": 9.0423, "vel_east_m_s": 2.1106, "vel_down_m_s": 0.9718, "battery_remain_pct": 73.8483}
{"t_rx_ms": 1774641674088, "run_id": "SIM_TEST", "seq": 79, "pitch_deg": 3.1888, "yaw_deg": 144.0602, "roll_deg": -10.1284, "lat_deg": 34.00402218867849, "lon_deg": -117.99643066188773, "altitude_rel_ft": 45.812, "ground_speed_ft_s": 5.528, "vel_north_m_s": -9.9769, "vel_east_m_s": 6.446, "vel_down_m_s": -0.6301, "battery_remain_pct": 72.5363}
{"t_rx_ms": 1774641674189, "run_id": "SIM_TEST", "seq": 80, "pitch_deg": 5.1812, "yaw_deg": 127.6234, "roll_deg": 2.8043, "lat_deg": 33.99049625888196, "lon_deg": -118.00781085658737, "altitude_rel_ft": 23.6101, "ground_speed_ft_s": 39.0459, "vel_north_m_s": 5.4733, "vel_east_m_s": 0.3135, "vel_down_m_s": 0.6015, "battery_remain_pct": 62.5607}
{"t_rx_ms": 1774641674289, "run_id": "SIM_TEST", "seq": 81, "pitch_deg": 8.3319, "yaw_deg": 248.2602, "roll_deg": -7.1644, "lat_deg": 33.995618895813394, "lon_deg": -117.99774695125684, "altitude_rel_ft": 25.2079, "ground_speed_ft_s": 17.867, "vel_north_m_s": 4.858, "vel_east_m_s": -0.5411, "vel_down_m_s": 0.9985, "battery_remain_pct": 59.6693}
{"t_rx_ms": 1774641674389, "run_id": "SIM_TEST", "seq": 82, "pitch_deg": -7.1611, "yaw_deg": 86.5697, "roll_deg": -13.988, "lat_deg": 34.00346640849526, "lon_deg": -117.99469910446304, "altitude_rel_ft": 76.3298, "ground_speed_ft_s": 16.4102, "vel_north_m_s": -8.0053, "vel_east_m_s": -2.7797, "vel_down_m_s": 0.6089, "battery_remain_pct": 61.3028}
{"t_rx_ms": 1774641674490, "run_id": "SIM_TEST", "seq": 83, "pitch_deg": 6.0061, "yaw_deg": 169.7372, "roll_deg": 4.7709, "lat_deg": 34.00307470274248, "lon_deg": -117.99583623502646, "altitude_rel_ft": 58.4947, "ground_speed_ft_s": 20.4966, "vel_north_m_s": -9.9853, "vel_east_m_s": 7.3618, "vel_down_m_s": 0.6781, "battery_remain_pct": 52.1842}
{"t_rx_ms": 1774641674591, "run_id": "SIM_TEST", "seq": 84, "pitch_deg": -0.4811, "yaw_deg": 118.962, "roll_deg": -8.8458, "lat_deg": 34.00862740587694, "lon_deg": -118.00663033330076, "altitude_rel_ft": 40.5032, "ground_speed_ft_s": 35.2549, "vel_north_m_s": 2.7607, "vel_east_m_s": -6.685, "vel_down_m_s": -0.9523, "battery_remain_pct": 74.9975}
{"t_rx_ms": 1774641674692, "run_id": "SIM_TEST", "seq": 85, "pitch_deg": -5.6155, "yaw_deg": 237.4837, "roll_deg": -13.9698, "lat_deg": 34.0006980812715, "lon_deg": -118.0024598132721, "altitude_rel_ft": 27.0879, "ground_speed_ft_s": 53.2208, "vel_north_m_s": -1.3999, "vel_east_m_s": -7.3146, "vel_down_m_s": -0.6472, "battery_remain_pct": 93.2512}
{"t_rx_ms": 1774641674792, "run_id": "SIM_TEST", "seq": 86, "pitch_deg": 6.1168, "yaw_deg": 261.876, "roll_deg": 9.4333, "lat_deg": 33.99227158769301, "lon_deg": -117.99819261919049, "altitude_rel_ft": 24.9708, "ground_speed_ft_s": 21.5001, "vel_north_m_s": -3.6001, "vel_east_m_s": -3.59, "vel_down_m_s": 0.8383, "battery_remain_pct": 78.3788}
{"t_rx_ms": 1774641674893, "run_id": "SIM_TEST", "seq": 87, "pitch_deg": 8.9566, "yaw_deg": 150.7387, "roll_deg": 9.2276, "lat_deg": 34.00872636899222, "lon_deg": -117.99573489847603, "altitude_rel_ft": 55.2081, "ground_speed_ft_s": 40.954, "vel_north_m_s": 4.5533, "vel_east_m_s": 9.171, "vel_down_m_s": -0.9602, "battery_remain_pct": 91.3607}
{"t_rx_ms": 1774641674993, "run_id": "SIM_TEST", "seq": 88, "pitch_deg": -0.1189, "yaw_deg": 242.7037, "roll_deg": 3.9046, "lat_deg": 33.99691407861836, "lon_deg": -118.00865145306501, "altitude_rel_ft": 79.3265, "ground_speed_ft_s": 54.4539, "vel_north_m_s": -5.9551, "vel_east_m_s": -5.858, "vel_down_m_s": -0.6801, "battery_remain_pct": 89.6521}
{"t_rx_ms": 1774641675094, "run_id": "SIM_TEST", "seq": 89, "pitch_deg": 1.0863, "yaw_deg": 74.2216, "roll_deg": -6.7199, "lat_deg": 34.00812988009348, "lon_deg": -117.99189546400855, "altitude_rel_ft": 69.3124, "ground_speed_ft_s": 34.3405, "vel_north_m_s": -5.8773, "vel_east_m_s": -9.945, "vel_down_m_s": 0.7049, "battery_remain_pct": 97.6279}
{"t_rx_ms": 1774641675194, "run_id": "SIM_TEST", "seq": 90, "pitch_deg": -1.9853, "yaw_deg": 323.7255, "roll_deg": -7.6823, "lat_deg": 33.99044425846023, "lon_deg": -118.00799384660702, "altitude_rel_ft": 27.6859, "ground_speed_ft_s": 39.0285, "vel_north_m_s": 6.4809, "vel_east_m_s": 3.0225, "vel_down_m_s": 0.4889, "battery_remain_pct": 93.2343}
{"t_rx_ms": 1774641675295, "run_id": "SIM_TEST", "seq": 91, "pitch_deg": 0.2069, "yaw_deg": 184.7053, "roll_deg": 3.6711, "lat_deg": 34.00403313128362, "lon_deg": -117.99667556097913, "altitude_rel_ft": 22.4114, "ground_speed_ft_s": 54.9514, "vel_north_m_s": -4.5832, "vel_east_m_s": 8.0448, "vel_down_m_s": -0.0367, "battery_remain_pct": 95.678}
{"t_rx_ms": 1774641675395, "run_id": "SIM_TEST", "seq": 92, "pitch_deg": -7.6431, "yaw_deg": 333.2018, "roll_deg": 6.8452, "lat_deg": 33.9942370388006, "lon_deg": -117.99938900106763, "altitude_rel_ft": 74.5985, "ground_speed_ft_s": 31.7549, "vel_north_m_s": 2.6088, "vel_east_m_s": -4.4426, "vel_down_m_s": -0.0265, "battery_remain_pct": 76.4466}
{"t_rx_ms": 1774641675496, "run_id": "SIM_TEST", "seq": 93, "pitch_deg": 6.1865, "yaw_deg": 160.3076, "roll_deg": 9.3246, "lat_deg": 34.007882053075875, "lon_deg": -118.00502347897957, "altitude_rel_ft": 73.4488, "ground_speed_ft_s": 25.6806, "vel_north_m_s": 4.1248, "vel_east_m_s": 7.7598, "vel_down_m_s": -0.1683, "battery_remain_pct": 95.1847}
{"t_rx_ms": 1774641675596, "run_id": "SIM_TEST", "seq": 94, "pitch_deg": -9.9527, "yaw_deg": 351.276, "roll_deg": 1.6183, "lat_deg": 33.99689542222006, "lon_deg": -117.99707275660828, "altitude_rel_ft": 26.2387, "ground_speed_ft_s": 40.9614, "vel_north_m_s": -8.3451, "vel_east_m_s": -6.2037, "vel_down_m_s": -0.1645, "battery_remain_pct": 59.5102}
{"t_rx_ms": 1774641675697, "run_id": "SIM_TEST", "seq": 95, "pitch_deg": -8.0661, "yaw_deg": 125.8229, "roll_deg": -4.5239, "lat_deg": 33.99061374494945, "lon_deg": -118.00981698318428, "altitude_rel_ft": 91.9252, "ground_speed_ft_s": 12.0025, "vel_north_m_s": 3.0068, "vel_east_m_s": -7.7863, "vel_down_m_s": 0.4839, "battery_remain_pct": 76.5385}
{"t_rx_ms": 1774641675797, "run_id": "SIM_TEST", "seq": 96, "pitch_deg": -8.2029, "yaw_deg": 151.0214, "roll_deg": 8.8505, "lat_deg": 33.99517547741675, "lon_deg": -117.99093487940813, "altitude_rel_ft": 90.1293, "ground_speed_ft_s": 44.4094, "vel_north_m_s": 1.5355, "vel_east_m_s": 2.5909, "vel_down_m_s": -0.6789, "battery_remain_pct": 88.3196}
{"t_rx_ms": 1774641675898, "run_id": "SIM_TEST", "seq": 97, "pitch_deg": 1.8928, "yaw_deg": 24.0404, "roll_deg": 10.7523, "lat_deg": 33.996374979193035, "lon_deg": -118.00604758926539, "altitude_rel_ft": 96.8325, "ground_speed_ft_s": 43.415, "vel_north_m_s": -7.8553, "vel_east_m_s": -3.3021, "vel_down_m_s": -0.1854, "battery_remain_pct": 91.6438}
{"t_rx_ms": 1774641675998, "run_id": "SIM_TEST", "seq": 98, "pitch_deg": -3.2473, "yaw_deg": 219.2618, "roll_deg": 14.9188, "lat_deg": 33.99288420420618, "lon_deg": -118.00892897589183, "altitude_rel_ft": 21.0175, "ground_speed_ft_s": 30.2996, "vel_north_m_s": -4.5271, "vel_east_m_s": 4.609, "vel_down_m_s": 0.3432, "battery_remain_pct": 89.9119}
{"t_rx_ms": 1774641676099, "run_id": "SIM_TEST", "seq": 99, "pitch_deg": -8.6655, "yaw_deg": 325.5949, "roll_deg": 11.2054, "lat_deg": 33.99768854441828, "lon_deg": -117.99653482671539, "altitude_rel_ft": 35.3516, "ground_speed_ft_s": 20.4678, "vel_north_m_s": 8.3685, "vel_east_m_s": 2.2482, "vel_down_m_s": -0.6035, "battery_remain_pct": 80.7915}
{"t_rx_ms": 1774641676199, "run_id": "SIM_TEST", "seq": 100, "pitch_deg": 8.545, "yaw_deg": 119.1428, "roll_deg": 1.1639, "lat_deg": 34.0068123412361, "lon_deg": -118.00698207753403, "altitude_rel_ft": 69.8671, "ground_speed_ft_s": 18.4553, "vel_north_m_s": 4.2653, "vel_east_m_s": 3.8751, "vel_down_m_s": 0.2167, "battery_remain_pct": 87.7113}
{"t_rx_ms": 1774641676300, "run_id": "SIM_TEST", "seq": 101, "pitch_deg": -9.3752, "yaw_deg": 130.7199, "roll_deg": 7.7814, "lat_deg": 34.0070744328966, "lon_deg": -118.00605110346129, "altitude_rel_ft": 67.6229, "ground_speed_ft_s": 30.3905, "vel_north_m_s": -5.06, "vel_east_m_s": -7.1126, "vel_down_m_s": 0.6245, "battery_remain_pct": 52.2021}
{"t_rx_ms": 1774641676400, "run_id": "SIM_TEST", "seq": 102, "pitch_deg": -9.8512, "yaw_deg": 249.9459, "roll_deg": -1.8967, "lat_deg": 33.99783444096817, "lon_deg": -118.00590656263617, "altitude_rel_ft": 87.5682, "ground_speed_ft_s": 19.3694, "vel_north_m_s": 0.8722, "vel_east_m_s": -6.5907, "vel_down_m_s": -0.8974, "battery_remain_pct": 65.9001}
{"t_rx_ms": 1774641676501, "run_id": "SIM_TEST", "seq": 103, "pitch_deg": 0.6398, "yaw_deg": 260.4872, "roll_deg": -5.2921, "lat_deg": 33.99131117622989, "lon_deg": -118.00326104594022, "altitude_rel_ft": 84.1352, "ground_speed_ft_s": 48.3101, "vel_north_m_s": 2.5085, "vel_east_m_s": 9.0128, "vel_down_m_s": -0.1136, "battery_remain_pct": 92.6787}
{"t_rx_ms": 1774641676601, "run_id": "SIM_TEST", "seq": 104, "pitch_deg": 8.7997, "yaw_deg": 297.1514, "roll_deg": -6.4321, "lat_deg": 33.99153279552427, "lon_deg": -117.99654598176022, "altitude_rel_ft": 28.8664, "ground_speed_ft_s": 54.0926, "vel_north_m_s": 9.4416, "vel_east_m_s": -3.2524, "vel_down_m_s": 0.4381, "battery_remain_pct": 98.5544}
{"t_rx_ms": 1774641676702, "run_id": "SIM_TEST", "seq": 105, "pitch_deg": 9.0802, "yaw_deg": 7.0615, "roll_deg": -14.4622, "lat_deg": 33.997497656331305, "lon_deg": -118.00084693476109, "altitude_rel_ft": 55.635, "ground_speed_ft_s": 18.5247, "vel_north_m_s": -1.7996, "vel_east_m_s": -4.5842, "vel_down_m_s": 0.494, "battery_remain_pct": 76.6266}
{"t_rx_ms": 1774641676802, "run_id": "SIM_TEST", "seq": 106, "pitch_deg": 2.5705, "yaw_deg": 275.8388, "roll_deg": -8.7974, "lat_deg": 33.99925240823614, "lon_deg": -117.99664269283663, "altitude_rel_ft": 92.8611, "ground_speed_ft_s": 15.9061, "vel_north_m_s": -3.9957, "vel_east_m_s": 9.4137, "vel_down_m_s": -0.4928, "battery_remain_pct": 88.7617}
{"t_rx_ms": 1774641676903, "run_id": "SIM_TEST", "seq": 107, "pitch_deg": 0.2874, "yaw_deg": 37.7603, "roll_deg": 1.8825, "lat_deg": 34.0076255041971, "lon_deg": -117.99973616580301, "altitude_rel_ft": 27.4842, "ground_speed_ft_s": 54.8001, "vel_north_m_s": -3.17, "vel_east_m_s": 7.5513, "vel_down_m_s": 0.2295, "battery_remain_pct": 74.3745}
{"t_rx_ms": 1774641677003, "run_id": "SIM_TEST", "seq": 108, "pitch_deg": 7.6327, "yaw_deg": 235.1736, "roll_deg": -8.796, "lat_deg": 34.007560480183756, "lon_deg": -117.99313849970052, "altitude_rel_ft": 55.3144, "ground_speed_ft_s": 20.3758, "vel_north_m_s": 4.5924, "vel_east_m_s": -7.1207, "vel_down_m_s": -0.7547, "battery_remain_pct": 52.7965}
{"t_rx_ms": 1774641677104, "run_id": "SIM_TEST", "seq": 109, "pitch_deg": 3.37, "yaw_deg": 352.11, "roll_deg": 1.7544, "lat_deg": 34.009499704181685, "lon_deg": -118.00490004200063, "altitude_rel_ft": 67.5887, "ground_speed_ft_s": 34.3702, "vel_north_m_s": 1.1835, "vel_east_m_s": -3.7221, "vel_down_m_s": 0.9518, "battery_remain_pct": 52.7127}
{"t_rx_ms": 1774641677205, "run_id": "SIM_TEST", "seq": 110, "pitch_deg": -9.5698, "yaw_deg": 162.9771, "roll_deg": 12.1081, "lat_deg": 34.00895423685967, "lon_deg": -118.00867422852595, "altitude_rel_ft": 64.2614, "ground_speed_ft_s": 8.1964, "vel_north_m_s": -9.7816, "vel_east_m_s": 5.6684, "vel_down_m_s": 0.5582, "battery_remain_pct": 96.2187}
{"t_rx_ms": 1774641677305, "run_id": "SIM_TEST", "seq": 111, "pitch_deg": -0.4928, "yaw_deg": 87.3402, "roll_deg": -14.1782, "lat_deg": 33.99445344310766, "lon_deg": -118.00402296065305, "altitude_rel_ft": 36.8844, "ground_speed_ft_s": 6.9771, "vel_north_m_s": -7.9829, "vel_east_m_s": 0.1608, "vel_down_m_s": -0.538, "battery_remain_pct": 61.9876}
{"t_rx_ms": 1774641677406, "run_id": "SIM_TEST", "seq": 112, "pitch_deg": 8.5892, "yaw_deg": 60.9012, "roll_deg": -11.6916, "lat_deg": 33.99080591307015, "lon_deg": -117.99902656732613, "altitude_rel_ft": 48.3185, "ground_speed_ft_s": 20.8454, "vel_north_m_s": -6.9707, "vel_east_m_s": -0.3758, "vel_down_m_s": -0.2061, "battery_remain_pct": 94.744}
{"t_rx_ms": 1774641677507, "run_id": "SIM_TEST", "seq": 113, "pitch_deg": 4.7362, "yaw_deg": 132.4621, "roll_deg": 3.9156, "lat_deg": 33.99323161905383, "lon_deg": -117.9928499052643, "altitude_rel_ft": 76.1062, "ground_speed_ft_s": 18.7123, "vel_north_m_s": -3.2686, "vel_east_m_s": -0.3842, "vel_down_m_s": -0.827, "battery_remain_pct": 52.6909}
{"t_rx_ms": 1774641677607, "run_id": "SIM_TEST", "seq": 114, "pitch_deg": 6.9053, "yaw_deg": 257.0499, "roll_deg": 0.222, "lat_deg": 34.00002694201731, "lon_deg": -117.99308980633853, "altitude_rel_ft": 25.5955, "ground_speed_ft_s": 9.8107, "vel_north_m_s": -5.8203, "vel_east_m_s": 1.5628, "vel_down_m_s": -0.4865, "battery_remain_pct": 61.4678}
{"t_rx_ms": 1774641677707, "run_id": "SIM_TEST", "seq": 115, "pitch_deg": 9.6446, "yaw_deg": 250.5209, "roll_deg": -8.3761, "lat_deg": 34.00706389133557, "lon_deg": -118.00563785319305, "altitude_rel_ft": 49.8396, "ground_speed_ft_s": 49.5067, "vel_north_m_s": -4.1432, "vel_east_m_s": -6.4436, "vel_down_m_s": -0.224, "battery_remain_pct": 78.3358}
{"t_rx_ms": 1774641677808, "run_id": "SIM_TEST", "seq": 116, "pitch_deg": 8.1883, "yaw_deg": 262.0549, "roll_deg": 12.8611, "lat_deg": 33.99064794794828, "lon_deg": -118.00636265643553, "altitude_rel_ft": 60.3455, "ground_speed_ft_s": 14.1863, "vel_north_m_s": -8.1935, "vel_east_m_s": 1.4851, "vel_down_m_s": 0.6268, "battery_remain_pct": 96.8979}
{"t_rx_ms": 1774641677909, "run_id": "SIM_TEST", "seq": 117, "pitch_deg": -4.2224, "yaw_deg": 238.1589, "roll_deg": 6.3621, "lat_deg": 34.00889389544335, "lon_deg": -118.0052794478189, "altitude_rel_ft": 51.9175, "ground_speed_ft_s": 21.8436, "vel_north_m_s": 5.1689, "vel_east_m_s": -8.101, "vel_down_m_s": 0.7545, "battery_remain_pct": 82.2041}
{"t_rx_ms": 1774641678010, "run_id": "SIM_TEST", "seq": 118, "pitch_deg": 8.2692, "yaw_deg": 98.5642, "roll_deg": 2.3129, "lat_deg": 33.9982708225792, "lon_deg": -118.00357238639462, "altitude_rel_ft": 74.8633, "ground_speed_ft_s": 53.1638, "vel_north_m_s": -2.5964, "vel_east_m_s": -2.9726, "vel_down_m_s": 0.7208, "battery_remain_pct": 80.3876}
{"t_rx_ms": 1774641678111, "run_id": "SIM_TEST", "seq": 119, "pitch_deg": 8.0197, "yaw_deg": 23.6966, "roll_deg": 7.2024, "lat_deg": 33.99822521207527, "lon_deg": -118.0012876545811, "altitude_rel_ft": 23.8219, "ground_speed_ft_s": 29.683, "vel_north_m_s": -0.5561, "vel_east_m_s": 1.7399, "vel_down_m_s": -0.2348, "battery_remain_pct": 89.0591}
{"t_rx_ms": 1774641678211, "run_id": "SIM_TEST", "seq": 120, "pitch_deg": 6.3124, "yaw_deg": 285.5935, "roll_deg": -4.4925, "lat_deg": 34.00809193604156, "lon_deg": -117.99186473983521, "altitude_rel_ft": 59.247, "ground_speed_ft_s": 27.0867, "vel_north_m_s": 5.1008, "vel_east_m_s": 4.4652, "vel_down_m_s": 0.8029, "battery_remain_pct": 60.0997}
{"t_rx_ms": 1774641678312, "run_id": "SIM_TEST", "seq": 121, "pitch_deg": 2.6355, "yaw_deg": 311.5122, "roll_deg": 0.7334, "lat_deg": 33.99473741289015, "lon_deg": -118.00669242779028, "altitude_rel_ft": 50.5325, "ground_speed_ft_s": 38.5219, "vel_north_m_s": -9.8531, "vel_east_m_s": -8.9666, "vel_down_m_s": 0.6281, "battery_remain_pct": 75.6604}
{"t_rx_ms": 1774641678412, "run_id": "SIM_TEST", "seq": 122, "pitch_deg": 1.1622, "yaw_deg": 108.4711, "roll_deg": -11.6458, "lat_deg": 33.996079930878295, "lon_deg": -118.00309201099685, "altitude_rel_ft": 43.6053, "ground_speed_ft_s": 13.0888, "vel_north_m_s": -7.0345, "vel_east_m_s": -3.9466, "vel_down_m_s": -0.2801, "battery_remain_pct": 56.2482}
{"t_rx_ms": 1774641678513, "run_id": "SIM_TEST", "seq": 123, "pitch_deg": 8.9738, "yaw_deg": 271.2211, "roll_deg": -6.8772, "lat_deg": 34.0099040949716, "lon_deg": -118.0043187824023, "altitude_rel_ft": 54.5388, "ground_speed_ft_s": 40.1708, "vel_north_m_s": 5.1318, "vel_east_m_s": -2.9352, "vel_down_m_s": 0.4204, "battery_remain_pct": 99.9359}
{"t_rx_ms": 1774641678614, "run_id": "SIM_TEST", "seq": 124, "pitch_deg": -3.8051, "yaw_deg": 67.209, "roll_deg": 3.3582, "lat_deg": 33.996690493489005, "lon_deg": -117.99524509969586, "altitude_rel_ft": 30.9089, "ground_speed_ft_s": 10.798, "vel_north_m_s": 0.7993, "vel_east_m_s": 8.1004, "vel_down_m_s": -0.7977, "battery_remain_pct": 92.9569}
{"t_rx_ms": 1774641678714, "run_id": "SIM_TEST", "seq": 125, "pitch_deg": -1.2653, "yaw_deg": 208.0736, "roll_deg": -0.6663, "lat_deg": 34.002677346115654, "lon_deg": -117.99822363977798, "altitude_rel_ft": 24.5126, "ground_speed_ft_s": 49.8922, "vel_north_m_s": -2.1696, "vel_east_m_s": 5.3792, "vel_down_m_s": 0.3923, "battery_remain_pct": 64.326}
{"t_rx_ms": 1774641678815, "run_id": "SIM_TEST", "seq": 126, "pitch_deg": -3.2703, "yaw_deg": 74.9285, "roll_deg": -2.396, "lat_deg": 34.0025732179649, "lon_deg": -118.00343418056107, "altitude_rel_ft": 63.8782, "ground_speed_ft_s": 15.9943, "vel_north_m_s": 5.5922, "vel_east_m_s": -9.842, "vel_down_m_s": 0.303, "battery_remain_pct": 72.3064}
{"t_rx_ms": 1774641678915, "run_id": "SIM_TEST", "seq": 127, "pitch_deg": -6.7774, "yaw_deg": 62.7327, "roll_deg": 7.0272, "lat_deg": 33.99447462105368, "lon_deg": -118.00402053818088, "altitude_rel_ft": 84.5651, "ground_speed_ft_s": 18.6737, "vel_north_m_s": 2.4761, "vel_east_m_s": 9.3504, "vel_down_m_s": -0.5948, "battery_remain_pct": 85.1034}
{"t_rx_ms": 1774641679016, "run_id": "SIM_TEST", "seq": 128, "pitch_deg": -3.8586, "yaw_deg": 142.6159, "roll_deg": -6.9093, "lat_deg": 33.99115863643269, "lon_deg": -118.00355066036039, "altitude_rel_ft": 51.3837, "ground_speed_ft_s": 39.3009, "vel_north_m_s": 5.3006, "vel_east_m_s": 4.674, "vel_down_m_s": 0.2597, "battery_remain_pct": 88.0684}
{"t_rx_ms": 1774641679116, "run_id": "SIM_TEST", "seq": 129, "pitch_deg": 8.4673, "yaw_deg": 33.7209, "roll_deg": 1.9382, "lat_deg": 34.002969290776136, "lon_deg": -118.00875841807144, "altitude_rel_ft": 28.3653, "ground_speed_ft_s": 23.8059, "vel_north_m_s": -6.5776, "vel_east_m_s": 0.8639, "vel_down_m_s": -0.5324, "battery_remain_pct": 80.6537}
{"t_rx_ms": 1774641679216, "run_id": "SIM_TEST", "seq": 130, "pitch_deg": 7.896, "yaw_deg": 343.2692, "roll_deg": -4.7759, "lat_deg": 34.009059029656235, "lon_deg": -117.99404227288657, "altitude_rel_ft": 51.2611, "ground_speed_ft_s": 20.8111, "vel_north_m_s": 8.5074, "vel_east_m_s": -1.9672, "vel_down_m_s": 0.941, "battery_remain_pct": 61.6135}
{"t_rx_ms": 1774641679317, "run_id": "SIM_TEST", "seq": 131, "pitch_deg": 6.0717, "yaw_deg": 196.9802, "roll_deg": -5.4873, "lat_deg": 33.995828878612166, "lon_deg": -117.99406402559016, "altitude_rel_ft": 46.0851, "ground_speed_ft_s": 26.8621, "vel_north_m_s": -8.4274, "vel_east_m_s": 5.7316, "vel_down_m_s": -0.234, "battery_remain_pct": 77.0439}
{"t_rx_ms": 1774641679418, "run_id": "SIM_TEST", "seq": 132, "pitch_deg": 5.871, "yaw_deg": 49.596, "roll_deg": -9.6668, "lat_deg": 34.009283037609634, "lon_deg": -118.00122263446355, "altitude_rel_ft": 54.3524, "ground_speed_ft_s": 57.6753, "vel_north_m_s": -5.0918, "vel_east_m_s": -0.2389, "vel_down_m_s": 0.3369, "battery_remain_pct": 59.5132}
{"t_rx_ms": 1774641679518, "run_id": "SIM_TEST", "seq": 133, "pitch_deg": -7.7354, "yaw_deg": 158.2338, "roll_deg": 12.9362, "lat_deg": 33.99194282758039, "lon_deg": -118.00215278802628, "altitude_rel_ft": 59.9506, "ground_speed_ft_s": 22.1449, "vel_north_m_s": -8.6506, "vel_east_m_s": -0.6499, "vel_down_m_s": -0.598, "battery_remain_pct": 60.0653}
{"t_rx_ms": 1774641679619, "run_id": "SIM_TEST", "seq": 134, "pitch_deg": -7.2202, "yaw_deg": 295.2601, "roll_deg": 12.1983, "lat_deg": 34.007615202303775, "lon_deg": -117.99275807138724, "altitude_rel_ft": 86.5438, "ground_speed_ft_s": 45.6621, "vel_north_m_s": 6.0878, "vel_east_m_s": -6.7309, "vel_down_m_s": 0.9821, "battery_remain_pct": 52.8875}
{"t_rx_ms": 1774641679720, "run_id": "SIM_TEST", "seq": 135, "pitch_deg": -0.9337, "yaw_deg": 78.6764, "roll_deg": -8.9976, "lat_deg": 33.99726002508979, "lon_deg": -118.00961465392048, "altitude_rel_ft": 27.7152, "ground_speed_ft_s": 35.1372, "vel_north_m_s": 1.1958, "vel_east_m_s": -0.8227, "vel_down_m_s": 0.9636, "battery_remain_pct": 61.5381}
{"t_rx_ms": 1774641679820, "run_id": "SIM_TEST", "seq": 136, "pitch_deg": -7.2917, "yaw_deg": 156.2806, "roll_deg": -13.1675, "lat_deg": 34.005461462749956, "lon_deg": -118.00548370160953, "altitude_rel_ft": 68.5431, "ground_speed_ft_s": 14.2603, "vel_north_m_s": 5.4269, "vel_east_m_s": 3.3492, "vel_down_m_s": -0.0305, "battery_remain_pct": 92.6316}
{"t_rx_ms": 1774641679920, "run_id": "SIM_TEST", "seq": 137, "pitch_deg": -0.7924, "yaw_deg": 187.1518, "roll_deg": 7.7631, "lat_deg": 33.99547422127794, "lon_deg": -117.9900301843622, "altitude_rel_ft": 28.9614, "ground_speed_ft_s": 26.5527, "vel_north_m_s": -0.0167, "vel_east_m_s": 3.9641, "vel_down_m_s": -0.7571, "battery_remain_pct": 57.1968}
{"t_rx_ms": 1774641680020, "run_id": "SIM_TEST", "seq": 138, "pitch_deg": -5.4165, "yaw_deg": 323.0675, "roll_deg": 4.0734, "lat_deg": 34.00591132087752, "lon_deg": -118.00877287922816, "altitude_rel_ft": 66.9581, "ground_speed_ft_s": 31.8668, "vel_north_m_s": 0.2917, "vel_east_m_s": 1.1156, "vel_down_m_s": 0.7916, "battery_remain_pct": 79.6585}
{"t_rx_ms": 1774641680121, "run_id": "SIM_TEST", "seq": 139, "pitch_deg": -1.6221, "yaw_deg": 294.011, "roll_deg": 1.2614, "lat_deg": 34.004650435683004, "lon_deg": -117.99431093837214, "altitude_rel_ft": 35.7349, "ground_speed_ft_s": 21.7851, "vel_north_m_s": 4.9562, "vel_east_m_s": 1.5806, "vel_down_m_s": 0.2161, "battery_remain_pct": 95.724}
{"t_rx_ms": 1774641680221, "run_id": "SIM_TEST", "seq": 140, "pitch_deg": -9.9301, "yaw_deg": 236.0275, "roll_deg": 2.0362, "lat_deg": 34.0053387805138, "lon_deg": -118.00468552426324, "altitude_rel_ft": 41.7066, "ground_speed_ft_s": 12.6251, "vel_north_m_s": -0.9616, "vel_east_m_s": -4.9152, "vel_down_m_s": 0.4113, "battery_remain_pct": 82.2303}
{"t_rx_ms": 1774641680322, "run_id": "SIM_TEST", "seq": 141, "pitch_deg": -6.6444, "yaw_deg": 22.6689, "roll_deg": -8.551, "lat_deg": 34.004604404426935, "lon_deg": -118.00301074751745, "altitude_rel_ft": 58.1524, "ground_speed_ft_s": 34.9646, "vel_north_m_s": 8.9089, "vel_east_m_s": -5.1988, "vel_down_m_s": -0.5568, "battery_remain_pct": 83.0665}
{"t_rx_ms": 1774641680422, "run_id": "SIM_TEST", "seq": 142, "pitch_deg": 9.7294, "yaw_deg": 296.0029, "roll_deg": 13.377, "lat_deg": 34.00981525591695, "lon_deg": -117.99770198984851, "altitude_rel_ft": 73.7988, "ground_speed_ft_s": 58.1545, "vel_north_m_s": 3.1685, "vel_east_m_s": -7.5635, "vel_down_m_s": -0.4774, "battery_remain_pct": 59.2179}
{"t_rx_ms": 1774641680522, "run_id": "SIM_TEST", "seq": 143, "pitch_deg": 8.4473, "yaw_deg": 352.583, "roll_deg": -13.6283, "lat_deg": 34.00320596914255, "lon_deg": -118.00903784089132, "altitude_rel_ft": 84.8316, "ground_speed_ft_s": 32.1162, "vel_north_m_s": 5.0101, "vel_east_m_s": 2.1878, "vel_down_m_s": -0.7227, "battery_remain_pct": 77.388}
{"t_rx_ms": 1774641680623, "run_id": "SIM_TEST", "seq": 144, "pitch_deg": -0.0659, "yaw_deg": 266.2059, "roll_deg": -1.8414, "lat_deg": 33.997348760949684, "lon_deg": -117.9992422543922, "altitude_rel_ft": 21.407, "ground_speed_ft_s": 38.7349, "vel_north_m_s": -9.3899, "vel_east_m_s": 3.4347, "vel_down_m_s": 0.6368, "battery_remain_pct": 85.159}
{"t_rx_ms": 1774641680724, "run_id": "SIM_TEST", "seq": 145, "pitch_deg": 1.6531, "yaw_deg": 187.7164, "roll_deg": -12.3241, "lat_deg": 34.00978850908657, "lon_deg": -117.997031685929, "altitude_rel_ft": 70.6831, "ground_speed_ft_s": 43.0397, "vel_north_m_s": 8.7234, "vel_east_m_s": 5.8988, "vel_down_m_s": 0.9889, "battery_remain_pct": 52.0132}
{"t_rx_ms": 1774641680824, "run_id": "SIM_TEST", "seq": 146, "pitch_deg": -3.2283, "yaw_deg": 328.8261, "roll_deg": -7.5395, "lat_deg": 34.002066943247286, "lon_deg": -117.99083145433188, "altitude_rel_ft": 86.3237, "ground_speed_ft_s": 14.5721, "vel_north_m_s": 9.6134, "vel_east_m_s": -7.8588, "vel_down_m_s": 0.5963, "battery_remain_pct": 69.6832}
{"t_rx_ms": 1774641680925, "run_id": "SIM_TEST", "seq": 147, "pitch_deg": -2.7277, "yaw_deg": 73.9182, "roll_deg": -9.0781, "lat_deg": 33.99804652168503, "lon_deg": -118.00131499847436, "altitude_rel_ft": 36.8259, "ground_speed_ft_s": 6.8657, "vel_north_m_s": -2.6983, "vel_east_m_s": 3.2473, "vel_down_m_s": 0.7601, "battery_remain_pct": 80.5582}
{"t_rx_ms": 1774641681025, "run_id": "SIM_TEST", "seq": 148, "pitch_deg": 5.9667, "yaw_deg": 97.5457, "roll_deg": -13.3936, "lat_deg": 33.99583910391265, "lon_deg": -118.00893090944521, "altitude_rel_ft": 31.8415, "ground_speed_ft_s": 37.0926, "vel_north_m_s": -3.2872, "vel_east_m_s": 5.4325, "vel_down_m_s": 0.3205, "battery_remain_pct": 71.6835}
{"t_rx_ms": 1774641681126, "run_id": "SIM_TEST", "seq": 149, "pitch_deg": 0.0215, "yaw_deg": 285.7721, "roll_deg": 11.544, "lat_deg": 34.004507226678975, "lon_deg": -118.00030507993779, "altitude_rel_ft": 53.7696, "ground_speed_ft_s": 49.1997, "vel_north_m_s": -5.9188, "vel_east_m_s": -0.4022, "vel_down_m_s": -0.9638, "battery_remain_pct": 70.3471}
{"t_rx_ms": 1774641681226, "run_id": "SIM_TEST", "seq": 150, "pitch_deg": -6.2922, "yaw_deg": 326.4906, "roll_deg": -10.5389, "lat_deg": 34.00456872164037, "lon_deg": -118.00589629227235, "altitude_rel_ft": 42.8676, "ground_speed_ft_s": 17.3302, "vel_north_m_s": 2.5781, "vel_east_m_s": 9.4349, "vel_down_m_s": 0.9584, "battery_remain_pct": 53.7587}
{"t_rx_ms": 1774641681327, "run_id": "SIM_TEST", "seq": 151, "pitch_deg": 3.4629, "yaw_deg": 194.8823, "roll_deg": -12.5271, "lat_deg": 34.00822359218455, "lon_deg": -118.00267686187028, "altitude_rel_ft": 56.7856, "ground_speed_ft_s": 58.7408, "vel_north_m_s": -1.9126, "vel_east_m_s": 4.7441, "vel_down_m_s": -0.2283, "battery_remain_pct": 74.63}
{"t_rx_ms": 1774641681427, "run_id": "SIM_TEST", "seq": 152, "pitch_deg": 2.0983, "yaw_deg": 80.0699, "roll_deg": 6.6989, "lat_deg": 33.998145165439865, "lon_deg": -117.99438245172554, "altitude_rel_ft": 28.7253, "ground_speed_ft_s": 29.9804, "vel_north_m_s": 4.5649, "vel_east_m_s": 6.1203, "vel_down_m_s": -0.8128, "battery_remain_pct": 61.0875}
{"t_rx_ms": 1774641681528, "run_id": "SIM_TEST", "seq": 153, "pitch_deg": -5.681, "yaw_deg": 254.7156, "roll_deg": -12.8383, "lat_deg": 34.0043166847487, "lon_deg": -118.0001329813897, "altitude_rel_ft": 97.2571, "ground_speed_ft_s": 46.9368, "vel_north_m_s": 3.0965, "vel_east_m_s": -3.9055, "vel_down_m_s": -0.3046, "battery_remain_pct": 77.2131}
{"t_rx_ms": 1774641681628, "run_id": "SIM_TEST", "seq": 154, "pitch_deg": -4.259, "yaw_deg": 293.3841, "roll_deg": 14.6022, "lat_deg": 33.99049276332597, "lon_deg": -117.99248032964026, "altitude_rel_ft": 31.6196, "ground_speed_ft_s": 12.4178, "vel_north_m_s": 9.6495, "vel_east_m_s": 1.508, "vel_down_m_s": 0.9185, "battery_remain_pct": 83.8291}
{"t_rx_ms": 1774641681729, "run_id": "SIM_TEST", "seq": 155, "pitch_deg": 1.5555, "yaw_deg": 261.0292, "roll_deg": -14.2076, "lat_deg": 34.00436478444785, "lon_deg": -118.00497303873256, "altitude_rel_ft": 35.8509, "ground_speed_ft_s": 48.5414, "vel_north_m_s": 5.5317, "vel_east_m_s": 6.5995, "vel_down_m_s": -0.6938, "battery_remain_pct": 81.9108}
{"t_rx_ms": 1774641681829, "run_id": "SIM_TEST", "seq": 156, "pitch_deg": -2.3569, "yaw_deg": 217.6066, "roll_deg": -0.9717, "lat_deg": 33.99728477458039, "lon_deg": -117.99737751463253, "altitude_rel_ft": 60.1948, "ground_speed_ft_s": 59.7522, "vel_north_m_s": 7.0162, "vel_east_m_s": 0.2293, "vel_down_m_s": -0.7444, "battery_remain_pct": 69.8776}
{"t_rx_ms": 1774641681930, "run_id": "SIM_TEST", "seq": 157, "pitch_deg": -3.6394, "yaw_deg": 120.1098, "roll_deg": -6.8158, "lat_deg": 34.0045107849917, "lon_deg": -118.00131403970816, "altitude_rel_ft": 65.9896, "ground_speed_ft_s": 34.8198, "vel_north_m_s": -6.3534, "vel_east_m_s": -9.1689, "vel_down_m_s": 0.7287, "battery_remain_pct": 99.3444}
{"t_rx_ms": 1774641682030, "run_id": "SIM_TEST", "seq": 158, "pitch_deg": -4.2636, "yaw_deg": 127.2781, "roll_deg": -12.8154, "lat_deg": 34.00222486455853, "lon_deg": -118.0016740641356, "altitude_rel_ft": 26.9697, "ground_speed_ft_s": 37.0301, "vel_north_m_s": 2.6811, "vel_east_m_s": 8.6636, "vel_down_m_s": -0.1843, "battery_remain_pct": 85.5242}
{"t_rx_ms": 1774641682131, "run_id": "SIM_TEST", "seq": 159, "pitch_deg": 0.1462, "yaw_deg": 188.3258, "roll_deg": 5.1128, "lat_deg": 34.00868580236839, "lon_deg": -118.00548243392444, "altitude_rel_ft": 73.9907, "ground_speed_ft_s": 27.0467, "vel_north_m_s": -0.8671, "vel_east_m_s": 4.4251, "vel_down_m_s": 0.0241, "battery_remain_pct": 81.8524}
{"t_rx_ms": 1774641682231, "run_id": "SIM_TEST", "seq": 160, "pitch_deg": 5.6512, "yaw_deg": 36.8936, "roll_deg": -14.5334, "lat_deg": 33.99522005443137, "lon_deg": -117.99459768247368, "altitude_rel_ft": 97.7682, "ground_speed_ft_s": 14.8177, "vel_north_m_s": 6.8129, "vel_east_m_s": -8.3831, "vel_down_m_s": -0.3347, "battery_remain_pct": 95.9577}
{"t_rx_ms": 1774641682331, "run_id": "SIM_TEST", "seq": 161, "pitch_deg": 4.2186, "yaw_deg": 64.4111, "roll_deg": -14.453, "lat_deg": 33.99604137461344, "lon_deg": -117.99514228303006, "altitude_rel_ft": 71.5179, "ground_speed_ft_s": 43.615, "vel_north_m_s": 4.7585, "vel_east_m_s": 9.8307, "vel_down_m_s": -0.8408, "battery_remain_pct": 59.9597}
{"t_rx_ms": 1774641682432, "run_id": "SIM_TEST", "seq": 162, "pitch_deg": 0.5342, "yaw_deg": 317.2052, "roll_deg": -7.6444, "lat_deg": 34.00316594545415, "lon_deg": -117.99819223816925, "altitude_rel_ft": 98.3372, "ground_speed_ft_s": 29.8103, "vel_north_m_s": -4.7353, "vel_east_m_s": 1.4917, "vel_down_m_s": 0.5704, "battery_remain_pct": 93.2262}
{"t_rx_ms": 1774641682532, "run_id": "SIM_TEST", "seq": 163, "pitch_deg": -3.8488, "yaw_deg": 169.1158, "roll_deg": -10.0132, "lat_deg": 33.992915345759464, "lon_deg": -117.9925586028959, "altitude_rel_ft": 35.4699, "ground_speed_ft_s": 33.2103, "vel_north_m_s": -3.6961, "vel_east_m_s": -4.729, "vel_down_m_s": 0.9007, "battery_remain_pct": 53.9848}
{"t_rx_ms": 1774641682633, "run_id": "SIM_TEST", "seq": 164, "pitch_deg": -4.4402, "yaw_deg": 251.5622, "roll_deg": 5.7115, "lat_deg": 33.99820818748175, "lon_deg": -117.99950805731011, "altitude_rel_ft": 89.932, "ground_speed_ft_s": 52.1854, "vel_north_m_s": -6.4856, "vel_east_m_s": -7.0065, "vel_down_m_s": 0.4264, "battery_remain_pct": 50.8739}
{"t_rx_ms": 1774641682733, "run_id": "SIM_TEST", "seq": 165, "pitch_deg": 6.0511, "yaw_deg": 313.2562, "roll_deg": 0.608, "lat_deg": 33.99534681784723, "lon_deg": -117.99016237456357, "altitude_rel_ft": 75.4405, "ground_speed_ft_s": 42.1397, "vel_north_m_s": 6.973, "vel_east_m_s": 4.6647, "vel_down_m_s": 0.0387, "battery_remain_pct": 95.7209}
{"t_rx_ms": 1774641682834, "run_id": "SIM_TEST", "seq": 166, "pitch_deg": 0.4373, "yaw_deg": 131.6249, "roll_deg": 4.827, "lat_deg": 34.00382803385152, "lon_deg": -117.9988045169727, "altitude_rel_ft": 73.7607, "ground_speed_ft_s": 43.7735, "vel_north_m_s": -6.576, "vel_east_m_s": -9.5807, "vel_down_m_s": -0.8849, "battery_remain_pct": 61.8941}
{"t_rx_ms": 1774641682934, "run_id": "SIM_TEST", "seq": 167, "pitch_deg": -1.8516, "yaw_deg": 259.9861, "roll_deg": 10.0439, "lat_deg": 33.995504027750975, "lon_deg": -117.99059507555508, "altitude_rel_ft": 74.679, "ground_speed_ft_s": 51.2366, "vel_north_m_s": -6.7759, "vel_east_m_s": 9.4918, "vel_down_m_s": 0.4676, "battery_remain_pct": 87.3256}
{"t_rx_ms": 1774641683034, "run_id": "SIM_TEST", "seq": 168, "pitch_deg": -6.084, "yaw_deg": 340.5959, "roll_deg": -1.903, "lat_deg": 34.00259036422407, "lon_deg": -117.9944118565882, "altitude_rel_ft": 73.3338, "ground_speed_ft_s": 59.6626, "vel_north_m_s": 4.0299, "vel_east_m_s": -1.7057, "vel_down_m_s": 0.0043, "battery_remain_pct": 54.498}
{"t_rx_ms": 1774641683135, "run_id": "SIM_TEST", "seq": 169, "pitch_deg": 6.7967, "yaw_deg": 119.8122, "roll_deg": 2.0394, "lat_deg": 33.99661719475133, "lon_deg": -118.0041575412931, "altitude_rel_ft": 83.1908, "ground_speed_ft_s": 59.697, "vel_north_m_s": -5.5442, "vel_east_m_s": -4.5941, "vel_down_m_s": 0.1558, "battery_remain_pct": 66.7695}
{"t_rx_ms": 1774641683236, "run_id": "SIM_TEST", "seq": 170, "pitch_deg": -6.8212, "yaw_deg": 77.0568, "roll_deg": -3.2005, "lat_deg": 34.00036810498822, "lon_deg": -117.99202173307503, "altitude_rel_ft": 28.2408, "ground_speed_ft_s": 9.5108, "vel_north_m_s": -2.9239, "vel_east_m_s": 1.0691, "vel_down_m_s": 0.8865, "battery_remain_pct": 69.2012}
{"t_rx_ms": 1774641683336, "run_id": "SIM_TEST", "seq": 171, "pitch_deg": -0.3419, "yaw_deg": 178.6772, "roll_deg": 6.7718, "lat_deg": 33.99778697940743, "lon_deg": -117.99550575352929, "altitude_rel_ft": 47.2093, "ground_speed_ft_s": 43.3054, "vel_north_m_s": 5.9115, "vel_east_m_s": -7.5957, "vel_down_m_s": -0.1339, "battery_remain_pct": 72.572}
