{"t_rx_ms": 1778114337489, "run_id": "20260506_173856", "seq": 0, "pitch_deg": null, "yaw_deg": null, "roll_deg": null, "lat_deg": null, "lon_deg": null, "altitude_rel_ft": null, "ground_speed_ft_s": null, "vel_north_m_s": null, "vel_east_m_s": null, "vel_down_m_s": null, "battery_remain_pct": null}
{"t_rx_ms": 1778114337682, "run_id": "20260506_173856", "seq": 1, "pitch_deg": null, "yaw_deg": null, "roll_deg": null, "lat_deg": null, "lon_deg": null, "altitude_rel_ft": null, "ground_speed_ft_s": null, "vel_north_m_s": null, "vel_east_m_s": null, "vel_down_m_s": null, "battery_remain_pct": null}
{"t_rx_ms": 1778114337883, "run_id": "20260506_173856", "seq": 2, "pitch_deg": null, "yaw_deg": null, "roll_deg": null, "lat_deg": null, "lon_deg": null, "altitude_rel_ft": null, "ground_speed_ft_s": null, "vel_north_m_s": null, "vel_east_m_s": null, "vel_down_m_s": null, "battery_remain_pct": null}
{"t_rx_ms": 1778114338083, "run_id": "20260506_173856", "seq": 3, "pitch_deg": null, "yaw_deg": null, "roll_deg": null, "lat_deg": null, "lon_deg": null, "altitude_rel_ft": null, "ground_speed_ft_s": null, "vel_north_m_s": null, "vel_east_m_s": null, "vel_down_m_s": null, "battery_remain_pct": null}
{"t_rx_ms": 1778114338284, "run_id": "20260506_173856", "seq": 4, "pitch_deg": null, "yaw_deg": null, "roll_deg": null, "lat_deg": null, "lon_deg": null, "altitude_rel_ft": null, "ground_speed_ft_s": null, "vel_north_m_s": null, "vel_east_m_s": null, "vel_down_m_s": null, "battery_remain_pct": null}
{"t_rx_ms": 1778114338484, "run_id": "20260506_173856", "seq": 5, "pitch_deg": 1.5153, "yaw_deg": -13.7538, "roll_deg": 0.4928, "lat_deg": 0.0, "lon_deg": 0.0, "altitude_rel_ft": 41.1155, "ground_speed_ft_s": 0.0, "vel_north_m_s": 0.0, "vel_east_m_s": 0.0, "vel_down_m_s": 0.0, "battery_remain_pct": 9900.0}
{"t_rx_ms": 1778114338685, "run_id": "20260506_173856", "seq": 6, "pitch_deg": 1.5153, "yaw_deg": -13.7538, "roll_deg": 0.4928, "lat_deg": 0.0, "lon_deg": 0.0, "altitude_rel_ft": 41.1155, "ground_speed_ft_s": 0.0, "vel_north_m_s": 0.0, "vel_east_m_s": 0.0, "vel_down_m_s": 0.0, "battery_remain_pct": 9900.0}
{"t_rx_ms": 1778114338886, "run_id": "20260506_173856", "seq": 7, "pitch_deg": 1.5153, "yaw_deg": -13.7538, "roll_deg": 0.4928, "lat_deg": 0.0, "lon_deg": 0.0, "altitude_rel_ft": 41.1155, "ground_speed_ft_s": 0.0, "vel_north_m_s": 0.0, "vel_east_m_s": 0.0, "vel_down_m_s": 0.0, "battery_remain_pct": 9900.0}
{"t_rx_ms": 1778114339086, "run_id": "20260506_173856", "seq": 8, "pitch_deg": 1.5153, "yaw_deg": -13.7538, "roll_deg": 0.4928, "lat_deg": 0.0, "lon_deg": 0.0, "altitude_rel_ft": 41.1155, "ground_speed_ft_s": 0.0, "vel_north_m_s": 0.0, "vel_east_m_s": 0.0, "vel_down_m_s": 0.0, "battery_remain_pct": 9900.0}
{"t_rx_ms": 1778114339287, "run_id": "20260506_173856", "seq": 9, "pitch_deg": 1.5153, "yaw_deg": -13.7538, "roll_deg": 0.4928, "lat_deg": 0.0, "lon_deg": 0.0, "altitude_rel_ft": 41.1155, "ground_speed_ft_s": 0.0, "vel_north_m_s": 0.0, "vel_east_m_s": 0.0, "vel_down_m_s": 0.0, "battery_remain_pct": 9900.0}
{"t_rx_ms": 1778114339487, "run_id": "20260506_173856", "seq": 10, "pitch_deg": 1.512, "yaw_deg": -13.736, "roll_deg": 0.4898, "lat_deg": 0.0, "lon_deg": 0.0, "altitude_rel_ft": 40.6135, "ground_speed_ft_s": 0.0, "vel_north_m_s": 0.0, "vel_east_m_s": 0.0, "vel_down_m_s": 0.0, "battery_remain_pct": 9900.0}
{"t_rx_ms": 1778114339688, "run_id": "20260506_173856", "seq": 11, "pitch_deg": 1.512, "yaw_deg": -13.736, "roll_deg": 0.4898, "lat_deg": 0.0, "lon_deg": 0.0, "altitude_rel_ft": 40.6135, "ground_speed_ft_s": 0.0, "vel_north_m_s": 0.0, "vel_east_m_s": 0.0, "vel_down_m_s": 0.0, "battery_remain_pct": 9900.0}
{"t_rx_ms": 1778114339889, "run_id": "20260506_173856", "seq": 12, "pitch_deg": 1.512, "yaw_deg": -13.736, "roll_deg": 0.4898, "lat_deg": 0.0, "lon_deg": 0.0, "altitude_rel_ft": 40.6135, "ground_speed_ft_s": 0.0, "vel_north_m_s": 0.0, "vel_east_m_s": 0.0, "vel_down_m_s": 0.0, "battery_remain_pct": 9900.0}
{"t_rx_ms": 1778114340089, "run_id": "20260506_173856", "seq": 13, "pitch_deg": 1.512, "yaw_deg": -13.736, "roll_deg": 0.4898, "lat_deg": 0.0, "lon_deg": 0.0, "altitude_rel_ft": 40.6135, "ground_speed_ft_s": 0.0, "vel_north_m_s": 0.0, "vel_east_m_s": 0.0, "vel_down_m_s": 0.0, "battery_remain_pct": 9900.0}
{"t_rx_ms": 1778114340290, "run_id": "20260506_173856", "seq": 14, "pitch_deg": 1.512, "yaw_deg": -13.736, "roll_deg": 0.4898, "lat_deg": 0.0, "lon_deg": 0.0, "altitude_rel_ft": 40.6135, "ground_speed_ft_s": 0.0, "vel_north_m_s": 0.0, "vel_east_m_s": 0.0, "vel_down_m_s": 0.0, "battery_remain_pct": 9900.0}
{"t_rx_ms": 1778114340492, "run_id": "20260506_173856", "seq": 15, "pitch_deg": 1.5085, "yaw_deg": -13.7697, "roll_deg": 0.4821, "lat_deg": 0.0, "lon_deg": 0.0, "altitude_rel_ft": 41.2402, "ground_speed_ft_s": 0.0, "vel_north_m_s": 0.0, "vel_east_m_s": 0.0, "vel_down_m_s": 0.0, "battery_remain_pct": 9900.0}
{"t_rx_ms": 1778114340693, "run_id": "20260506_173856", "seq": 16, "pitch_deg": 1.5085, "yaw_deg": -13.7697, "roll_deg": 0.4821, "lat_deg": 0.0, "lon_deg": 0.0, "altitude_rel_ft": 41.2402, "ground_speed_ft_s": 0.0, "vel_north_m_s": 0.0, "vel_east_m_s": 0.0, "vel_down_m_s": 0.0, "battery_remain_pct": 9900.0}
{"t_rx_ms": 1778114340896, "run_id": "20260506_173856", "seq": 17, "pitch_deg": 1.5085, "yaw_deg": -13.7697, "roll_deg": 0.4821, "lat_deg": 0.0, "lon_deg": 0.0, "altitude_rel_ft": 41.2402, "ground_speed_ft_s": 0.0, "vel_north_m_s": 0.0, "vel_east_m_s": 0.0, "vel_down_m_s": 0.0, "battery_remain_pct": 9900.0}
{"t_rx_ms": 1778114341097, "run_id": "20260506_173856", "seq": 18, "pitch_deg": 1.5085, "yaw_deg": -13.7697, "roll_deg": 0.4821, "lat_deg": 0.0, "lon_deg": 0.0, "altitude_rel_ft": 41.2402, "ground_speed_ft_s": 0.0, "vel_north_m_s": 0.0, "vel_east_m_s": 0.0, "vel_down_m_s": 0.0, "battery_remain_pct": 9900.0}
{"t_rx_ms": 1778114341297, "run_id": "20260506_173856", "seq": 19, "pitch_deg": 1.5085, "yaw_deg": -13.7697, "roll_deg": 0.4821, "lat_deg": 0.0, "lon_deg": 0.0, "altitude_rel_ft": 41.2402, "ground_speed_ft_s": 0.0, "vel_north_m_s": 0.0, "vel_east_m_s": 0.0, "vel_down_m_s": 0.0, "battery_remain_pct": 9900.0}
{"t_rx_ms": 1778114341498, "run_id": "20260506_173856", "seq": 20, "pitch_deg": 1.5095, "yaw_deg": -13.8644, "roll_deg": 0.4837, "lat_deg": 0.0, "lon_deg": 0.0, "altitude_rel_ft": 40.1214, "ground_speed_ft_s": 0.0, "vel_north_m_s": 0.0, "vel_east_m_s": 0.0, "vel_down_m_s": 0.0, "battery_remain_pct": 9900.0}
{"t_rx_ms": 1778114341699, "run_id": "20260506_173856", "seq": 21, "pitch_deg": 1.5095, "yaw_deg": -13.8644, "roll_deg": 0.4837, "lat_deg": 0.0, "lon_deg": 0.0, "altitude_rel_ft": 40.1214, "ground_speed_ft_s": 0.0, "vel_north_m_s": 0.0, "vel_east_m_s": 0.0, "vel_down_m_s": 0.0, "battery_remain_pct": 9900.0}
{"t_rx_ms": 1778114341899, "run_id": "20260506_173856", "seq": 22, "pitch_deg": 1.5095, "yaw_deg": -13.8644, "roll_deg": 0.4837, "lat_deg": 0.0, "lon_deg": 0.0, "altitude_rel_ft": 40.1214, "ground_speed_ft_s": 0.0, "vel_north_m_s": 0.0, "vel_east_m_s": 0.0, "vel_down_m_s": 0.0, "battery_remain_pct": 9900.0}
{"t_rx_ms": 1778114342100, "run_id": "20260506_173856", "seq": 23, "pitch_deg": 1.5095, "yaw_deg": -13.8644, "roll_deg": 0.4837, "lat_deg": 0.0, "lon_deg": 0.0, "altitude_rel_ft": 40.1214, "ground_speed_ft_s": 0.0, "vel_north_m_s": 0.0, "vel_east_m_s": 0.0, "vel_down_m_s": 0.0, "battery_remain_pct": 9900.0}
{"t_rx_ms": 1778114342301, "run_id": "20260506_173856", "seq": 24, "pitch_deg": 1.5095, "yaw_deg": -13.8644, "roll_deg": 0.4837, "lat_deg": 0.0, "lon_deg": 0.0, "altitude_rel_ft": 40.1214, "ground_speed_ft_s": 0.0, "vel_north_m_s": 0.0, "vel_east_m_s": 0.0, "vel_down_m_s": 0.0, "battery_remain_pct": 9900.0}
{"t_rx_ms": 1778114342502, "run_id": "20260506_173856", "seq": 25, "pitch_deg": 1.5095, "yaw_deg": -13.8644, "roll_deg": 0.4837, "lat_deg": 0.0, "lon_deg": 0.0, "altitude_rel_ft": 40.1214, "ground_speed_ft_s": 0.0, "vel_north_m_s": 0.0, "vel_east_m_s": 0.0, "vel_down_m_s": 0.0, "battery_remain_pct": 9900.0}
{"t_rx_ms": 1778114342702, "run_id": "20260506_173856", "seq": 26, "pitch_deg": 1.5106, "yaw_deg": -13.7114, "roll_deg": 0.4863, "lat_deg": 0.0, "lon_deg": 0.0, "altitude_rel_ft": 40.9318, "ground_speed_ft_s": 0.0, "vel_north_m_s": 0.0, "vel_east_m_s": 0.0, "vel_down_m_s": 0.0, "battery_remain_pct": 9900.0}
{"t_rx_ms": 1778114342903, "run_id": "20260506_173856", "seq": 27, "pitch_deg": 1.5106, "yaw_deg": -13.7114, "roll_deg": 0.4863, "lat_deg": 0.0, "lon_deg": 0.0, "altitude_rel_ft": 40.9318, "ground_speed_ft_s": 0.0, "vel_north_m_s": 0.0, "vel_east_m_s": 0.0, "vel_down_m_s": 0.0, "battery_remain_pct": 9900.0}
{"t_rx_ms": 1778114343103, "run_id": "20260506_173856", "seq": 28, "pitch_deg": 1.5106, "yaw_deg": -13.7114, "roll_deg": 0.4863, "lat_deg": 0.0, "lon_deg": 0.0, "altitude_rel_ft": 40.9318, "ground_speed_ft_s": 0.0, "vel_north_m_s": 0.0, "vel_east_m_s": 0.0, "vel_down_m_s": 0.0, "battery_remain_pct": 9900.0}
{"t_rx_ms": 1778114343304, "run_id": "20260506_173856", "seq": 29, "pitch_deg": 1.5106, "yaw_deg": -13.7114, "roll_deg": 0.4863, "lat_deg": 0.0, "lon_deg": 0.0, "altitude_rel_ft": 40.9318, "ground_speed_ft_s": 0.0, "vel_north_m_s": 0.0, "vel_east_m_s": 0.0, "vel_down_m_s": 0.0, "battery_remain_pct": 9900.0}
{"t_rx_ms": 1778114343509, "run_id": "20260506_173856", "seq": 30, "pitch_deg": 1.5075, "yaw_deg": -13.7101, "roll_deg": 0.4856, "lat_deg": 0.0, "lon_deg": 0.0, "altitude_rel_ft": 41.6568, "ground_speed_ft_s": 0.0, "vel_north_m_s": 0.0, "vel_east_m_s": 0.0, "vel_down_m_s": 0.0, "battery_remain_pct": 9900.0}
{"t_rx_ms": 1778114343710, "run_id": "20260506_173856", "seq": 31, "pitch_deg": 1.5075, "yaw_deg": -13.7101, "roll_deg": 0.4856, "lat_deg": 0.0, "lon_deg": 0.0, "altitude_rel_ft": 41.6568, "ground_speed_ft_s": 0.0, "vel_north_m_s": 0.0, "vel_east_m_s": 0.0, "vel_down_m_s": 0.0, "battery_remain_pct": 9900.0}
{"t_rx_ms": 1778114343910, "run_id": "20260506_173856", "seq": 32, "pitch_deg": 1.5075, "yaw_deg": -13.7101, "roll_deg": 0.4856, "lat_deg": 0.0, "lon_deg": 0.0, "altitude_rel_ft": 41.6568, "ground_speed_ft_s": 0.0, "vel_north_m_s": 0.0, "vel_east_m_s": 0.0, "vel_down_m_s": 0.0, "battery_remain_pct": 9900.0}
{"t_rx_ms": 1778114344111, "run_id": "20260506_173856", "seq": 33, "pitch_deg": 1.5075, "yaw_deg": -13.7101, "roll_deg": 0.4856, "lat_deg": 0.0, "lon_deg": 0.0, "altitude_rel_ft": 41.6568, "ground_speed_ft_s": 0.0, "vel_north_m_s": 0.0, "vel_east_m_s": 0.0, "vel_down_m_s": 0.0, "battery_remain_pct": 9900.0}
{"t_rx_ms": 1778114344312, "run_id": "20260506_173856", "seq": 34, "pitch_deg": 1.5075, "yaw_deg": -13.7101, "roll_deg": 0.4856, "lat_deg": 0.0, "lon_deg": 0.0, "altitude_rel_ft": 41.6568, "ground_speed_ft_s": 0.0, "vel_north_m_s": 0.0, "vel_east_m_s": 0.0, "vel_down_m_s": 0.0, "battery_remain_pct": 9900.0}
{"t_rx_ms": 1778114344512, "run_id": "20260506_173856", "seq": 35, "pitch_deg": 1.5087, "yaw_deg": -13.6987, "roll_deg": 0.486, "lat_deg": 0.0, "lon_deg": 0.0, "altitude_rel_ft": 40.9022, "ground_speed_ft_s": 0.0, "vel_north_m_s": 0.0, "vel_east_m_s": 0.0, "vel_down_m_s": 0.0, "battery_remain_pct": 9900.0}
{"t_rx_ms": 1778114344714, "run_id": "20260506_173856", "seq": 36, "pitch_deg": 1.5087, "yaw_deg": -13.6987, "roll_deg": 0.486, "lat_deg": 0.0, "lon_deg": 0.0, "altitude_rel_ft": 40.9022, "ground_speed_ft_s": 0.0, "vel_north_m_s": 0.0, "vel_east_m_s": 0.0, "vel_down_m_s": 0.0, "battery_remain_pct": 9900.0}
{"t_rx_ms": 1778114344913, "run_id": "20260506_173856", "seq": 37, "pitch_deg": 1.5087, "yaw_deg": -13.6987, "roll_deg": 0.486, "lat_deg": 0.0, "lon_deg": 0.0, "altitude_rel_ft": 40.9022, "ground_speed_ft_s": 0.0, "vel_north_m_s": 0.0, "vel_east_m_s": 0.0, "vel_down_m_s": 0.0, "battery_remain_pct": 9900.0}
{"t_rx_ms": 1778114345114, "run_id": "20260506_173856", "seq": 38, "pitch_deg": 1.5087, "yaw_deg": -13.6987, "roll_deg": 0.486, "lat_deg": 0.0, "lon_deg": 0.0, "altitude_rel_ft": 40.9022, "ground_speed_ft_s": 0.0, "vel_north_m_s": 0.0, "vel_east_m_s": 0.0, "vel_down_m_s": 0.0, "battery_remain_pct": 9900.0}
{"t_rx_ms": 1778114345314, "run_id": "20260506_173856", "seq": 39, "pitch_deg": 1.5087, "yaw_deg": -13.6987, "roll_deg": 0.486, "lat_deg": 0.0, "lon_deg": 0.0, "altitude_rel_ft": 40.9022, "ground_speed_ft_s": 0.0, "vel_north_m_s": 0.0, "vel_east_m_s": 0.0, "vel_down_m_s": 0.0, "battery_remain_pct": 9900.0}
{"t_rx_ms": 1778114345514, "run_id": "20260506_173856", "seq": 40, "pitch_deg": 1.5154, "yaw_deg": -13.7014, "roll_deg": 0.4846, "lat_deg": 0.0, "lon_deg": 0.0, "altitude_rel_ft": 40.5184, "ground_speed_ft_s": 0.0, "vel_north_m_s": 0.0, "vel_east_m_s": 0.0, "vel_down_m_s": 0.0, "battery_remain_pct": 9900.0}
{"t_rx_ms": 1778114345715, "run_id": "20260506_173856", "seq": 41, "pitch_deg": 1.5154, "yaw_deg": -13.7014, "roll_deg": 0.4846, "lat_deg": 0.0, "lon_deg": 0.0, "altitude_rel_ft": 40.5184, "ground_speed_ft_s": 0.0, "vel_north_m_s": 0.0, "vel_east_m_s": 0.0, "vel_down_m_s": 0.0, "battery_remain_pct": 9900.0}
{"t_rx_ms": 1778114345915, "run_id": "20260506_173856", "seq": 42, "pitch_deg": 1.5154, "yaw_deg": -13.7014, "roll_deg": 0.4846, "lat_deg": 0.0, "lon_deg": 0.0, "altitude_rel_ft": 40.5184, "ground_speed_ft_s": 0.0, "vel_north_m_s": 0.0, "vel_east_m_s": 0.0, "vel_down_m_s": 0.0, "battery_remain_pct": 9900.0}
{"t_rx_ms": 1778114346116, "run_id": "20260506_173856", "seq": 43, "pitch_deg": 1.5154, "yaw_deg": -13.7014, "roll_deg": 0.4846, "lat_deg": 0.0, "lon_deg": 0.0, "altitude_rel_ft": 40.5184, "ground_speed_ft_s": 0.0, "vel_north_m_s": 0.0, "vel_east_m_s": 0.0, "vel_down_m_s": 0.0, "battery_remain_pct": 9900.0}
{"t_rx_ms": 1778114346316, "run_id": "20260506_173856", "seq": 44, "pitch_deg": 1.5154, "yaw_deg": -13.7014, "roll_deg": 0.4846, "lat_deg": 0.0, "lon_deg": 0.0, "altitude_rel_ft": 40.5184, "ground_speed_ft_s": 0.0, "vel_north_m_s": 0.0, "vel_east_m_s": 0.0, "vel_down_m_s": 0.0, "battery_remain_pct": 9900.0}
{"t_rx_ms": 1778114346517, "run_id": "20260506_173856", "seq": 45, "pitch_deg": 1.5126, "yaw_deg": -13.6929, "roll_deg": 0.4819, "lat_deg": 0.0, "lon_deg": 0.0, "altitude_rel_ft": 41.0007, "ground_speed_ft_s": 0.0, "vel_north_m_s": 0.0, "vel_east_m_s": 0.0, "vel_down_m_s": 0.0, "battery_remain_pct": 9900.0}
{"t_rx_ms": 1778114346717, "run_id": "20260506_173856", "seq": 46, "pitch_deg": 1.5126, "yaw_deg": -13.6929, "roll_deg": 0.4819, "lat_deg": 0.0, "lon_deg": 0.0, "altitude_rel_ft": 41.0007, "ground_speed_ft_s": 0.0, "vel_north_m_s": 0.0, "vel_east_m_s": 0.0, "vel_down_m_s": 0.0, "battery_remain_pct": 9900.0}
{"t_rx_ms": 1778114346917, "run_id": "20260506_173856", "seq": 47, "pitch_deg": 1.5126, "yaw_deg": -13.6929, "roll_deg": 0.4819, "lat_deg": 0.0, "lon_deg": 0.0, "altitude_rel_ft": 41.0007, "ground_speed_ft_s": 0.0, "vel_north_m_s": 0.0, "vel_east_m_s": 0.0, "vel_down_m_s": 0.0, "battery_remain_pct": 9900.0}
{"t_rx_ms": 1778114347118, "run_id": "20260506_173856", "seq": 48, "pitch_deg": 1.5126, "yaw_deg": -13.6929, "roll_deg": 0.4819, "lat_deg": 0.0, "lon_deg": 0.0, "altitude_rel_ft": 41.0007, "ground_speed_ft_s": 0.0, "vel_north_m_s": 0.0, "vel_east_m_s": 0.0, "vel_down_m_s": 0.0, "battery_remain_pct": 9900.0}
{"t_rx_ms": 1778114347318, "run_id": "20260506_173856", "seq": 49, "pitch_deg": 1.5126, "yaw_deg": -13.6929, "roll_deg": 0.4819, "lat_deg": 0.0, "lon_deg": 0.0, "altitude_rel_ft": 41.0007, "ground_speed_ft_s": 0.0, "vel_north_m_s": 0.0, "vel_east_m_s": 0.0, "vel_down_m_s": 0.0, "battery_remain_pct": 9900.0}
{"t_rx_ms": 1778114347519, "run_id": "20260506_173856", "seq": 50, "pitch_deg": 1.5066, "yaw_deg": -13.7362, "roll_deg": 0.4764, "lat_deg": 0.0, "lon_deg": 0.0, "altitude_rel_ft": 41.4829, "ground_speed_ft_s": 0.0, "vel_north_m_s": 0.0, "vel_east_m_s": 0.0, "vel_down_m_s": 0.0, "battery_remain_pct": 9900.0}
{"t_rx_ms": 1778114347721, "run_id": "20260506_173856", "seq": 51, "pitch_deg": 1.5066, "yaw_deg": -13.7362, "roll_deg": 0.4764, "lat_deg": 0.0, "lon_deg": 0.0, "altitude_rel_ft": 41.4829, "ground_speed_ft_s": 0.0, "vel_north_m_s": 0.0, "vel_east_m_s": 0.0, "vel_down_m_s": 0.0, "battery_remain_pct": 9900.0}
{"t_rx_ms": 1778114347921, "run_id": "20260506_173856", "seq": 52, "pitch_deg": 1.5066, "yaw_deg": -13.7362, "roll_deg": 0.4764, "lat_deg": 0.0, "lon_deg": 0.0, "altitude_rel_ft": 41.4829, "ground_speed_ft_s": 0.0, "vel_north_m_s": 0.0, "vel_east_m_s": 0.0, "vel_down_m_s": 0.0, "battery_remain_pct": 9900.0}
{"t_rx_ms": 1778114348122, "run_id": "20260506_173856", "seq": 53, "pitch_deg": 1.5066, "yaw_deg": -13.7362, "roll_deg": 0.4764, "lat_deg": 0.0, "lon_deg": 0.0, "altitude_rel_ft": 41.4829, "ground_speed_ft_s": 0.0, "vel_north_m_s": 0.0, "vel_east_m_s": 0.0, "vel_down_m_s": 0.0, "battery_remain_pct": 9900.0}
{"t_rx_ms": 1778114348324, "run_id": "20260506_173856", "seq": 54, "pitch_deg": 1.5066, "yaw_deg": -13.7362, "roll_deg": 0.4764, "lat_deg": 0.0, "lon_deg": 0.0, "altitude_rel_ft": 41.4829, "ground_speed_ft_s": 0.0, "vel_north_m_s": 0.0, "vel_east_m_s": 0.0, "vel_down_m_s": 0.0, "battery_remain_pct": 9900.0}
{"t_rx_ms": 1778114348524, "run_id": "20260506_173856", "seq": 55, "pitch_deg": 1.5066, "yaw_deg": -13.7208, "roll_deg": 0.4765, "lat_deg": 0.0, "lon_deg": 0.0, "altitude_rel_ft": 40.6234, "ground_speed_ft_s": 0.0, "vel_north_m_s": 0.0, "vel_east_m_s": 0.0, "vel_down_m_s": 0.0, "battery_remain_pct": 9900.0}
{"t_rx_ms": 1778114348725, "run_id": "20260506_173856", "seq": 56, "pitch_deg": 1.5066, "yaw_deg": -13.7208, "roll_deg": 0.4765, "lat_deg": 0.0, "lon_deg": 0.0, "altitude_rel_ft": 40.6234, "ground_speed_ft_s": 0.0, "vel_north_m_s": 0.0, "vel_east_m_s": 0.0, "vel_down_m_s": 0.0, "battery_remain_pct": 9900.0}
{"t_rx_ms": 1778114348926, "run_id": "20260506_173856", "seq": 57, "pitch_deg": 1.5066, "yaw_deg": -13.7208, "roll_deg": 0.4765, "lat_deg": 0.0, "lon_deg": 0.0, "altitude_rel_ft": 40.6234, "ground_speed_ft_s": 0.0, "vel_north_m_s": 0.0, "vel_east_m_s": 0.0, "vel_down_m_s": 0.0, "battery_remain_pct": 9900.0}
{"t_rx_ms": 1778114349126, "run_id": "20260506_173856", "seq": 58, "pitch_deg": 1.5066, "yaw_deg": -13.7208, "roll_deg": 0.4765, "lat_deg": 0.0, "lon_deg": 0.0, "altitude_rel_ft": 40.6234, "ground_speed_ft_s": 0.0, "vel_north_m_s": 0.0, "vel_east_m_s": 0.0, "vel_down_m_s": 0.0, "battery_remain_pct": 9900.0}
{"t_rx_ms": 1778114349326, "run_id": "20260506_173856", "seq": 59, "pitch_deg": 1.5066, "yaw_deg": -13.7208, "roll_deg": 0.4765, "lat_deg": 0.0, "lon_deg": 0.0, "altitude_rel_ft": 40.6234, "ground_speed_ft_s": 0.0, "vel_north_m_s": 0.0, "vel_east_m_s": 0.0, "vel_down_m_s": 0.0, "battery_remain_pct": 9900.0}
{"t_rx_ms": 1778114349527, "run_id": "20260506_173856", "seq": 60, "pitch_deg": 1.4991, "yaw_deg": -13.7834, "roll_deg": 0.4722, "lat_deg": 0.0, "lon_deg": 0.0, "altitude_rel_ft": 40.21, "ground_speed_ft_s": 0.0, "vel_north_m_s": 0.0, "vel_east_m_s": 0.0, "vel_down_m_s": 0.0, "battery_remain_pct": 9900.0}
{"t_rx_ms": 1778114349728, "run_id": "20260506_173856", "seq": 61, "pitch_deg": 1.4991, "yaw_deg": -13.7834, "roll_deg": 0.4722, "lat_deg": 0.0, "lon_deg": 0.0, "altitude_rel_ft": 40.21, "ground_speed_ft_s": 0.0, "vel_north_m_s": 0.0, "vel_east_m_s": 0.0, "vel_down_m_s": 0.0, "battery_remain_pct": 9900.0}
{"t_rx_ms": 1778114349928, "run_id": "20260506_173856", "seq": 62, "pitch_deg": 1.4991, "yaw_deg": -13.7834, "roll_deg": 0.4722, "lat_deg": 0.0, "lon_deg": 0.0, "altitude_rel_ft": 40.21, "ground_speed_ft_s": 0.0, "vel_north_m_s": 0.0, "vel_east_m_s": 0.0, "vel_down_m_s": 0.0, "battery_remain_pct": 9900.0}
{"t_rx_ms": 1778114350129, "run_id": "20260506_173856", "seq": 63, "pitch_deg": 1.4991, "yaw_deg": -13.7834, "roll_deg": 0.4722, "lat_deg": 0.0, "lon_deg": 0.0, "altitude_rel_ft": 40.21, "ground_speed_ft_s": 0.0, "vel_north_m_s": 0.0, "vel_east_m_s": 0.0, "vel_down_m_s": 0.0, "battery_remain_pct": 9900.0}
{"t_rx_ms": 1778114350329, "run_id": "20260506_173856", "seq": 64, "pitch_deg": 1.4991, "yaw_deg": -13.7834, "roll_deg": 0.4722, "lat_deg": 0.0, "lon_deg": 0.0, "altitude_rel_ft": 40.21, "ground_speed_ft_s": 0.0, "vel_north_m_s": 0.0, "vel_east_m_s": 0.0, "vel_down_m_s": 0.0, "battery_remain_pct": 9900.0}
{"t_rx_ms": 1778114350530, "run_id": "20260506_173856", "seq": 65, "pitch_deg": 1.496, "yaw_deg": -13.8248, "roll_deg": 0.4679, "lat_deg": 0.0, "lon_deg": 0.0, "altitude_rel_ft": 40.5446, "ground_speed_ft_s": 0.0, "vel_north_m_s": 0.0, "vel_east_m_s": 0.0, "vel_down_m_s": 0.0, "battery_remain_pct": 9900.0}
{"t_rx_ms": 1778114350731, "run_id": "20260506_173856", "seq": 66, "pitch_deg": 1.496, "yaw_deg": -13.8248, "roll_deg": 0.4679, "lat_deg": 0.0, "lon_deg": 0.0, "altitude_rel_ft": 40.5446, "ground_speed_ft_s": 0.0, "vel_north_m_s": 0.0, "vel_east_m_s": 0.0, "vel_down_m_s": 0.0, "battery_remain_pct": 9900.0}
{"t_rx_ms": 1778114350932, "run_id": "20260506_173856", "seq": 67, "pitch_deg": 1.496, "yaw_deg": -13.8248, "roll_deg": 0.4679, "lat_deg": 0.0, "lon_deg": 0.0, "altitude_rel_ft": 40.5446, "ground_speed_ft_s": 0.0, "vel_north_m_s": 0.0, "vel_east_m_s": 0.0, "vel_down_m_s": 0.0, "battery_remain_pct": 9900.0}
{"t_rx_ms": 1778114351132, "run_id": "20260506_173856", "seq": 68, "pitch_deg": 1.496, "yaw_deg": -13.8248, "roll_deg": 0.4679, "lat_deg": 0.0, "lon_deg": 0.0, "altitude_rel_ft": 40.5446, "ground_speed_ft_s": 0.0, "vel_north_m_s": 0.0, "vel_east_m_s": 0.0, "vel_down_m_s": 0.0, "battery_remain_pct": 9900.0}
{"t_rx_ms": 1778114351333, "run_id": "20260506_173856", "seq": 69, "pitch_deg": 1.496, "yaw_deg": -13.8248, "roll_deg": 0.4679, "lat_deg": 0.0, "lon_deg": 0.0, "altitude_rel_ft": 40.5446, "ground_speed_ft_s": 0.0, "vel_north_m_s": 0.0, "vel_east_m_s": 0.0, "vel_down_m_s": 0.0, "battery_remain_pct": 9900.0}
{"t_rx_ms": 1778114351534, "run_id": "20260506_173856", "seq": 70, "pitch_deg": 1.4977, "yaw_deg": -13.7433, "roll_deg": 0.4652, "lat_deg": 0.0, "lon_deg": 0.0, "altitude_rel_ft": 40.8661, "ground_speed_ft_s": 0.0, "vel_north_m_s": 0.0, "vel_east_m_s": 0.0, "vel_down_m_s": 0.0, "battery_remain_pct": 9900.0}
{"t_rx_ms": 1778114351736, "run_id": "20260506_173856", "seq": 71, "pitch_deg": 1.4977, "yaw_deg": -13.7433, "roll_deg": 0.4652, "lat_deg": 0.0, "lon_deg": 0.0, "altitude_rel_ft": 40.8661, "ground_speed_ft_s": 0.0, "vel_north_m_s": 0.0, "vel_east_m_s": 0.0, "vel_down_m_s": 0.0, "battery_remain_pct": 9900.0}
{"t_rx_ms": 1778114351937, "run_id": "20260506_173856", "seq": 72, "pitch_deg": 1.4977, "yaw_deg": -13.7433, "roll_deg": 0.4652, "lat_deg": 0.0, "lon_deg": 0.0, "altitude_rel_ft": 40.8661, "ground_speed_ft_s": 0.0, "vel_north_m_s": 0.0, "vel_east_m_s": 0.0, "vel_down_m_s": 0.0, "battery_remain_pct": 9900.0}
{"t_rx_ms": 1778114352137, "run_id": "20260506_173856", "seq": 73, "pitch_deg": 1.4977, "yaw_deg": -13.7433, "roll_deg": 0.4652, "lat_deg": 0.0, "lon_deg": 0.0, "altitude_rel_ft": 40.8661, "ground_speed_ft_s": 0.0, "vel_north_m_s": 0.0, "vel_east_m_s": 0.0, "vel_down_m_s": 0.0, "battery_remain_pct": 9900.0}
{"t_rx_ms": 1778114352339, "run_id": "20260506_173856", "seq": 74, "pitch_deg": 1.4977, "yaw_deg": -13.7433, "roll_deg": 0.4652, "lat_deg": 0.0, "lon_deg": 0.0, "altitude_rel_ft": 40.8661, "ground_speed_ft_s": 0.0, "vel_north_m_s": 0.0, "vel_east_m_s": 0.0, "vel_down_m_s": 0.0, "battery_remain_pct": 9900.0}
{"t_rx_ms": 1778114352541, "run_id": "20260506_173856", "seq": 75, "pitch_deg": 1.4976, "yaw_deg": -13.7053, "roll_deg": 0.4635, "lat_deg": 0.0, "lon_deg": 0.0, "altitude_rel_ft": 40.584, "ground_speed_ft_s": 0.0, "vel_north_m_s": 0.0, "vel_east_m_s": 0.0, "vel_down_m_s": 0.0, "battery_remain_pct": 9900.0}
{"t_rx_ms": 1778114352741, "run_id": "20260506_173856", "seq": 76, "pitch_deg": 1.4976, "yaw_deg": -13.7053, "roll_deg": 0.4635, "lat_deg": 0.0, "lon_deg": 0.0, "altitude_rel_ft": 40.584, "ground_speed_ft_s": 0.0, "vel_north_m_s": 0.0, "vel_east_m_s": 0.0, "vel_down_m_s": 0.0, "battery_remain_pct": 9900.0}
{"t_rx_ms": 1778114352941, "run_id": "20260506_173856", "seq": 77, "pitch_deg": 1.4976, "yaw_deg": -13.7053, "roll_deg": 0.4635, "lat_deg": 0.0, "lon_deg": 0.0, "altitude_rel_ft": 40.584, "ground_speed_ft_s": 0.0, "vel_north_m_s": 0.0, "vel_east_m_s": 0.0, "vel_down_m_s": 0.0, "battery_remain_pct": 9900.0}
{"t_rx_ms": 1778114353142, "run_id": "20260506_173856", "seq": 78, "pitch_deg": 1.4976, "yaw_deg": -13.7053, "roll_deg": 0.4635, "lat_deg": 0.0, "lon_deg": 0.0, "altitude_rel_ft": 40.584, "ground_speed_ft_s": 0.0, "vel_north_m_s": 0.0, "vel_east_m_s": 0.0, "vel_down_m_s": 0.0, "battery_remain_pct": 9900.0}
{"t_rx_ms": 1778114353343, "run_id": "20260506_173856", "seq": 79, "pitch_deg": 1.4976, "yaw_deg": -13.7053, "roll_deg": 0.4635, "lat_deg": 0.0, "lon_deg": 0.0, "altitude_rel_ft": 40.584, "ground_speed_ft_s": 0.0, "vel_north_m_s": 0.0, "vel_east_m_s": 0.0, "vel_down_m_s": 0.0, "battery_remain_pct": 9900.0}
{"t_rx_ms": 1778114353543, "run_id": "20260506_173856", "seq": 80, "pitch_deg": 1.4925, "yaw_deg": -13.7294, "roll_deg": 0.4642, "lat_deg": 0.0, "lon_deg": 0.0, "altitude_rel_ft": 40.4396, "ground_speed_ft_s": 0.0, "vel_north_m_s": 0.0, "vel_east_m_s": 0.0, "vel_down_m_s": 0.0, "battery_remain_pct": 9900.0}
{"t_rx_ms": 1778114353744, "run_id": "20260506_173856", "seq": 81, "pitch_deg": 1.4925, "yaw_deg": -13.7294, "roll_deg": 0.4642, "lat_deg": 0.0, "lon_deg": 0.0, "altitude_rel_ft": 40.4396, "ground_speed_ft_s": 0.0, "vel_north_m_s": 0.0, "vel_east_m_s": 0.0, "vel_down_m_s": 0.0, "battery_remain_pct": 9900.0}
{"t_rx_ms": 1778114353944, "run_id": "20260506_173856", "seq": 82, "pitch_deg": 1.4925, "yaw_deg": -13.7294, "roll_deg": 0.4642, "lat_deg": 0.0, "lon_deg": 0.0, "altitude_rel_ft": 40.4396, "ground_speed_ft_s": 0.0, "vel_north_m_s": 0.0, "vel_east_m_s": 0.0, "vel_down_m_s": 0.0, "battery_remain_pct": 9900.0}
{"t_rx_ms": 1778114354145, "run_id": "20260506_173856", "seq": 83, "pitch_deg": 1.4925, "yaw_deg": -13.7294, "roll_deg": 0.4642, "lat_deg": 0.0, "lon_deg": 0.0, "altitude_rel_ft": 40.4396, "ground_speed_ft_s": 0.0, "vel_north_m_s": 0.0, "vel_east_m_s": 0.0, "vel_down_m_s": 0.0, "battery_remain_pct": 9900.0}
{"t_rx_ms": 1778114354346, "run_id": "20260506_173856", "seq": 84, "pitch_deg": 1.4925, "yaw_deg": -13.7294, "roll_deg": 0.4642, "lat_deg": 0.0, "lon_deg": 0.0, "altitude_rel_ft": 40.4396, "ground_speed_ft_s": 0.0, "vel_north_m_s": 0.0, "vel_east_m_s": 0.0, "vel_down_m_s": 0.0, "battery_remain_pct": 9900.0}
{"t_rx_ms": 1778114354545, "run_id": "20260506_173856", "seq": 85, "pitch_deg": 1.4941, "yaw_deg": -13.8125, "roll_deg": 0.4638, "lat_deg": 0.0, "lon_deg": 0.0, "altitude_rel_ft": 40.981, "ground_speed_ft_s": 0.0, "vel_north_m_s": 0.0, "vel_east_m_s": 0.0, "vel_down_m_s": 0.0, "battery_remain_pct": 9900.0}
{"t_rx_ms": 1778114354746, "run_id": "20260506_173856", "seq": 86, "pitch_deg": 1.4941, "yaw_deg": -13.8125, "roll_deg": 0.4638, "lat_deg": 0.0, "lon_deg": 0.0, "altitude_rel_ft": 40.981, "ground_speed_ft_s": 0.0, "vel_north_m_s": 0.0, "vel_east_m_s": 0.0, "vel_down_m_s": 0.0, "battery_remain_pct": 9900.0}
{"t_rx_ms": 1778114354947, "run_id": "20260506_173856", "seq": 87, "pitch_deg": 1.4941, "yaw_deg": -13.8125, "roll_deg": 0.4638, "lat_deg": 0.0, "lon_deg": 0.0, "altitude_rel_ft": 40.981, "ground_speed_ft_s": 0.0, "vel_north_m_s": 0.0, "vel_east_m_s": 0.0, "vel_down_m_s": 0.0, "battery_remain_pct": 9900.0}
{"t_rx_ms": 1778114355147, "run_id": "20260506_173856", "seq": 88, "pitch_deg": 1.4941, "yaw_deg": -13.8125, "roll_deg": 0.4638, "lat_deg": 0.0, "lon_deg": 0.0, "altitude_rel_ft": 40.981, "ground_speed_ft_s": 0.0, "vel_north_m_s": 0.0, "vel_east_m_s": 0.0, "vel_down_m_s": 0.0, "battery_remain_pct": 9900.0}
{"t_rx_ms": 1778114355348, "run_id": "20260506_173856", "seq": 89, "pitch_deg": 1.4941, "yaw_deg": -13.8125, "roll_deg": 0.4638, "lat_deg": 0.0, "lon_deg": 0.0, "altitude_rel_ft": 40.981, "ground_speed_ft_s": 0.0, "vel_north_m_s": 0.0, "vel_east_m_s": 0.0, "vel_down_m_s": 0.0, "battery_remain_pct": 9900.0}
{"t_rx_ms": 1778114355549, "run_id": "20260506_173856", "seq": 90, "pitch_deg": 1.4915, "yaw_deg": -13.6783, "roll_deg": 0.4629, "lat_deg": 0.0, "lon_deg": 0.0, "altitude_rel_ft": 40.2756, "ground_speed_ft_s": 0.0, "vel_north_m_s": 0.0, "vel_east_m_s": 0.0, "vel_down_m_s": 0.0, "battery_remain_pct": 9900.0}
{"t_rx_ms": 1778114355749, "run_id": "20260506_173856", "seq": 91, "pitch_deg": 1.4915, "yaw_deg": -13.6783, "roll_deg": 0.4629, "lat_deg": 0.0, "lon_deg": 0.0, "altitude_rel_ft": 40.2756, "ground_speed_ft_s": 0.0, "vel_north_m_s": 0.0, "vel_east_m_s": 0.0, "vel_down_m_s": 0.0, "battery_remain_pct": 9900.0}
{"t_rx_ms": 1778114355949, "run_id": "20260506_173856", "seq": 92, "pitch_deg": 1.4915, "yaw_deg": -13.6783, "roll_deg": 0.4629, "lat_deg": 0.0, "lon_deg": 0.0, "altitude_rel_ft": 40.2756, "ground_speed_ft_s": 0.0, "vel_north_m_s": 0.0, "vel_east_m_s": 0.0, "vel_down_m_s": 0.0, "battery_remain_pct": 9900.0}
{"t_rx_ms": 1778114356150, "run_id": "20260506_173856", "seq": 93, "pitch_deg": 1.4915, "yaw_deg": -13.6783, "roll_deg": 0.4629, "lat_deg": 0.0, "lon_deg": 0.0, "altitude_rel_ft": 40.2756, "ground_speed_ft_s": 0.0, "vel_north_m_s": 0.0, "vel_east_m_s": 0.0, "vel_down_m_s": 0.0, "battery_remain_pct": 9900.0}
{"t_rx_ms": 1778114356351, "run_id": "20260506_173856", "seq": 94, "pitch_deg": 1.4915, "yaw_deg": -13.6783, "roll_deg": 0.4629, "lat_deg": 0.0, "lon_deg": 0.0, "altitude_rel_ft": 40.2756, "ground_speed_ft_s": 0.0, "vel_north_m_s": 0.0, "vel_east_m_s": 0.0, "vel_down_m_s": 0.0, "battery_remain_pct": 9900.0}
{"t_rx_ms": 1778114356551, "run_id": "20260506_173856", "seq": 95, "pitch_deg": 1.4856, "yaw_deg": -13.6762, "roll_deg": 0.4568, "lat_deg": 0.0, "lon_deg": 0.0, "altitude_rel_ft": 41.2205, "ground_speed_ft_s": 0.0, "vel_north_m_s": 0.0, "vel_east_m_s": 0.0, "vel_down_m_s": 0.0, "battery_remain_pct": 9900.0}
{"t_rx_ms": 1778114356752, "run_id": "20260506_173856", "seq": 96, "pitch_deg": 1.4856, "yaw_deg": -13.6762, "roll_deg": 0.4568, "lat_deg": 0.0, "lon_deg": 0.0, "altitude_rel_ft": 41.2205, "ground_speed_ft_s": 0.0, "vel_north_m_s": 0.0, "vel_east_m_s": 0.0, "vel_down_m_s": 0.0, "battery_remain_pct": 9900.0}
{"t_rx_ms": 1778114356952, "run_id": "20260506_173856", "seq": 97, "pitch_deg": 1.4856, "yaw_deg": -13.6762, "roll_deg": 0.4568, "lat_deg": 0.0, "lon_deg": 0.0, "altitude_rel_ft": 41.2205, "ground_speed_ft_s": 0.0, "vel_north_m_s": 0.0, "vel_east_m_s": 0.0, "vel_down_m_s": 0.0, "battery_remain_pct": 9900.0}
{"t_rx_ms": 1778114357153, "run_id": "20260506_173856", "seq": 98, "pitch_deg": 1.4856, "yaw_deg": -13.6762, "roll_deg": 0.4568, "lat_deg": 0.0, "lon_deg": 0.0, "altitude_rel_ft": 41.2205, "ground_speed_ft_s": 0.0, "vel_north_m_s": 0.0, "vel_east_m_s": 0.0, "vel_down_m_s": 0.0, "battery_remain_pct": 9900.0}
{"t_rx_ms": 1778114357353, "run_id": "20260506_173856", "seq": 99, "pitch_deg": 1.4856, "yaw_deg": -13.6762, "roll_deg": 0.4568, "lat_deg": 0.0, "lon_deg": 0.0, "altitude_rel_ft": 41.2205, "ground_speed_ft_s": 0.0, "vel_north_m_s": 0.0, "vel_east_m_s": 0.0, "vel_down_m_s": 0.0, "battery_remain_pct": 9900.0}
{"t_rx_ms": 1778114357558, "run_id": "20260506_173856", "seq": 100, "pitch_deg": 1.4844, "yaw_deg": -13.7379, "roll_deg": 0.4594, "lat_deg": 0.0, "lon_deg": 0.0, "altitude_rel_ft": 40.6824, "ground_speed_ft_s": 0.0, "vel_north_m_s": 0.0, "vel_east_m_s": 0.0, "vel_down_m_s": 0.0, "battery_remain_pct": 9900.0}
{"t_rx_ms": 1778114357759, "run_id": "20260506_173856", "seq": 101, "pitch_deg": 1.4844, "yaw_deg": -13.7379, "roll_deg": 0.4594, "lat_deg": 0.0, "lon_deg": 0.0, "altitude_rel_ft": 40.6824, "ground_speed_ft_s": 0.0, "vel_north_m_s": 0.0, "vel_east_m_s": 0.0, "vel_down_m_s": 0.0, "battery_remain_pct": 9900.0}
{"t_rx_ms": 1778114357960, "run_id": "20260506_173856", "seq": 102, "pitch_deg": 1.4844, "yaw_deg": -13.7379, "roll_deg": 0.4594, "lat_deg": 0.0, "lon_deg": 0.0, "altitude_rel_ft": 40.6824, "ground_speed_ft_s": 0.0, "vel_north_m_s": 0.0, "vel_east_m_s": 0.0, "vel_down_m_s": 0.0, "battery_remain_pct": 9900.0}
{"t_rx_ms": 1778114358162, "run_id": "20260506_173856", "seq": 103, "pitch_deg": 1.4844, "yaw_deg": -13.7379, "roll_deg": 0.4594, "lat_deg": 0.0, "lon_deg": 0.0, "altitude_rel_ft": 40.6824, "ground_speed_ft_s": 0.0, "vel_north_m_s": 0.0, "vel_east_m_s": 0.0, "vel_down_m_s": 0.0, "battery_remain_pct": 9900.0}
{"t_rx_ms": 1778114358363, "run_id": "20260506_173856", "seq": 104, "pitch_deg": 1.4844, "yaw_deg": -13.7379, "roll_deg": 0.4594, "lat_deg": 0.0, "lon_deg": 0.0, "altitude_rel_ft": 40.6824, "ground_speed_ft_s": 0.0, "vel_north_m_s": 0.0, "vel_east_m_s": 0.0, "vel_down_m_s": 0.0, "battery_remain_pct": 9900.0}
{"t_rx_ms": 1778114358565, "run_id": "20260506_173856", "seq": 105, "pitch_deg": 1.4843, "yaw_deg": -13.859, "roll_deg": 0.4537, "lat_deg": 0.0, "lon_deg": 0.0, "altitude_rel_ft": 41.3484, "ground_speed_ft_s": 0.0, "vel_north_m_s": 0.0, "vel_east_m_s": 0.0, "vel_down_m_s": 0.0, "battery_remain_pct": 9900.0}
{"t_rx_ms": 1778114358766, "run_id": "20260506_173856", "seq": 106, "pitch_deg": 1.4843, "yaw_deg": -13.859, "roll_deg": 0.4537, "lat_deg": 0.0, "lon_deg": 0.0, "altitude_rel_ft": 41.3484, "ground_speed_ft_s": 0.0, "vel_north_m_s": 0.0, "vel_east_m_s": 0.0, "vel_down_m_s": 0.0, "battery_remain_pct": 9900.0}
{"t_rx_ms": 1778114358967, "run_id": "20260506_173856", "seq": 107, "pitch_deg": 1.4843, "yaw_deg": -13.859, "roll_deg": 0.4537, "lat_deg": 0.0, "lon_deg": 0.0, "altitude_rel_ft": 41.3484, "ground_speed_ft_s": 0.0, "vel_north_m_s": 0.0, "vel_east_m_s": 0.0, "vel_down_m_s": 0.0, "battery_remain_pct": 9900.0}
{"t_rx_ms": 1778114359168, "run_id": "20260506_173856", "seq": 108, "pitch_deg": 1.4843, "yaw_deg": -13.859, "roll_deg": 0.4537, "lat_deg": 0.0, "lon_deg": 0.0, "altitude_rel_ft": 41.3484, "ground_speed_ft_s": 0.0, "vel_north_m_s": 0.0, "vel_east_m_s": 0.0, "vel_down_m_s": 0.0, "battery_remain_pct": 9900.0}
{"t_rx_ms": 1778114359368, "run_id": "20260506_173856", "seq": 109, "pitch_deg": 1.4843, "yaw_deg": -13.859, "roll_deg": 0.4537, "lat_deg": 0.0, "lon_deg": 0.0, "altitude_rel_ft": 41.3484, "ground_speed_ft_s": 0.0, "vel_north_m_s": 0.0, "vel_east_m_s": 0.0, "vel_down_m_s": 0.0, "battery_remain_pct": 9900.0}
{"t_rx_ms": 1778114359569, "run_id": "20260506_173856", "seq": 110, "pitch_deg": 1.4952, "yaw_deg": -13.8871, "roll_deg": 0.4609, "lat_deg": 0.0, "lon_deg": 0.0, "altitude_rel_ft": 41.4239, "ground_speed_ft_s": 0.0, "vel_north_m_s": 0.0, "vel_east_m_s": 0.0, "vel_down_m_s": 0.0, "battery_remain_pct": 9900.0}
{"t_rx_ms": 1778114359770, "run_id": "20260506_173856", "seq": 111, "pitch_deg": 1.4952, "yaw_deg": -13.8871, "roll_deg": 0.4609, "lat_deg": 0.0, "lon_deg": 0.0, "altitude_rel_ft": 41.4239, "ground_speed_ft_s": 0.0, "vel_north_m_s": 0.0, "vel_east_m_s": 0.0, "vel_down_m_s": 0.0, "battery_remain_pct": 9900.0}
{"t_rx_ms": 1778114359971, "run_id": "20260506_173856", "seq": 112, "pitch_deg": 1.4952, "yaw_deg": -13.8871, "roll_deg": 0.4609, "lat_deg": 0.0, "lon_deg": 0.0, "altitude_rel_ft": 41.4239, "ground_speed_ft_s": 0.0, "vel_north_m_s": 0.0, "vel_east_m_s": 0.0, "vel_down_m_s": 0.0, "battery_remain_pct": 9900.0}
{"t_rx_ms": 1778114360171, "run_id": "20260506_173856", "seq": 113, "pitch_deg": 1.4952, "yaw_deg": -13.8871, "roll_deg": 0.4609, "lat_deg": 0.0, "lon_deg": 0.0, "altitude_rel_ft": 41.4239, "ground_speed_ft_s": 0.0, "vel_north_m_s": 0.0, "vel_east_m_s": 0.0, "vel_down_m_s": 0.0, "battery_remain_pct": 9900.0}
{"t_rx_ms": 1778114360372, "run_id": "20260506_173856", "seq": 114, "pitch_deg": 1.4952, "yaw_deg": -13.8871, "roll_deg": 0.4609, "lat_deg": 0.0, "lon_deg": 0.0, "altitude_rel_ft": 41.4239, "ground_speed_ft_s": 0.0, "vel_north_m_s": 0.0, "vel_east_m_s": 0.0, "vel_down_m_s": 0.0, "battery_remain_pct": 9900.0}
{"t_rx_ms": 1778114360572, "run_id": "20260506_173856", "seq": 115, "pitch_deg": 1.4866, "yaw_deg": -13.9146, "roll_deg": 0.4607, "lat_deg": 0.0, "lon_deg": 0.0, "altitude_rel_ft": 41.1253, "ground_speed_ft_s": 0.0, "vel_north_m_s": 0.0, "vel_east_m_s": 0.0, "vel_down_m_s": 0.0, "battery_remain_pct": 9900.0}
{"t_rx_ms": 1778114360773, "run_id": "20260506_173856", "seq": 116, "pitch_deg": 1.4866, "yaw_deg": -13.9146, "roll_deg": 0.4607, "lat_deg": 0.0, "lon_deg": 0.0, "altitude_rel_ft": 41.1253, "ground_speed_ft_s": 0.0, "vel_north_m_s": 0.0, "vel_east_m_s": 0.0, "vel_down_m_s": 0.0, "battery_remain_pct": 9900.0}
{"t_rx_ms": 1778114360974, "run_id": "20260506_173856", "seq": 117, "pitch_deg": 1.4866, "yaw_deg": -13.9146, "roll_deg": 0.4607, "lat_deg": 0.0, "lon_deg": 0.0, "altitude_rel_ft": 41.1253, "ground_speed_ft_s": 0.0, "vel_north_m_s": 0.0, "vel_east_m_s": 0.0, "vel_down_m_s": 0.0, "battery_remain_pct": 9900.0}
{"t_rx_ms": 1778114361174, "run_id": "20260506_173856", "seq": 118, "pitch_deg": 1.4866, "yaw_deg": -13.9146, "roll_deg": 0.4607, "lat_deg": 0.0, "lon_deg": 0.0, "altitude_rel_ft": 41.1253, "ground_speed_ft_s": 0.0, "vel_north_m_s": 0.0, "vel_east_m_s": 0.0, "vel_down_m_s": 0.0, "battery_remain_pct": 9900.0}
{"t_rx_ms": 1778114361375, "run_id": "20260506_173856", "seq": 119, "pitch_deg": 1.4866, "yaw_deg": -13.9146, "roll_deg": 0.4607, "lat_deg": 0.0, "lon_deg": 0.0, "altitude_rel_ft": 41.1253, "ground_speed_ft_s": 0.0, "vel_north_m_s": 0.0, "vel_east_m_s": 0.0, "vel_down_m_s": 0.0, "battery_remain_pct": 9900.0}
{"t_rx_ms": 1778114361576, "run_id": "20260506_173856", "seq": 120, "pitch_deg": 1.4862, "yaw_deg": -13.8691, "roll_deg": 0.464, "lat_deg": 0.0, "lon_deg": 0.0, "altitude_rel_ft": 40.6726, "ground_speed_ft_s": 0.0, "vel_north_m_s": 0.0, "vel_east_m_s": 0.0, "vel_down_m_s": 0.0, "battery_remain_pct": 9900.0}
{"t_rx_ms": 1778114361776, "run_id": "20260506_173856", "seq": 121, "pitch_deg": 1.4862, "yaw_deg": -13.8691, "roll_deg": 0.464, "lat_deg": 0.0, "lon_deg": 0.0, "altitude_rel_ft": 40.6726, "ground_speed_ft_s": 0.0, "vel_north_m_s": 0.0, "vel_east_m_s": 0.0, "vel_down_m_s": 0.0, "battery_remain_pct": 9900.0}
{"t_rx_ms": 1778114361977, "run_id": "20260506_173856", "seq": 122, "pitch_deg": 1.4862, "yaw_deg": -13.8691, "roll_deg": 0.464, "lat_deg": 0.0, "lon_deg": 0.0, "altitude_rel_ft": 40.6726, "ground_speed_ft_s": 0.0, "vel_north_m_s": 0.0, "vel_east_m_s": 0.0, "vel_down_m_s": 0.0, "battery_remain_pct": 9900.0}
{"t_rx_ms": 1778114362178, "run_id": "20260506_173856", "seq": 123, "pitch_deg": 1.4862, "yaw_deg": -13.8691, "roll_deg": 0.464, "lat_deg": 0.0, "lon_deg": 0.0, "altitude_rel_ft": 40.6726, "ground_speed_ft_s": 0.0, "vel_north_m_s": 0.0, "vel_east_m_s": 0.0, "vel_down_m_s": 0.0, "battery_remain_pct": 9900.0}
{"t_rx_ms": 1778114362378, "run_id": "20260506_173856", "seq": 124, "pitch_deg": 1.4862, "yaw_deg": -13.8691, "roll_deg": 0.464, "lat_deg": 0.0, "lon_deg": 0.0, "altitude_rel_ft": 40.6726, "ground_speed_ft_s": 0.0, "vel_north_m_s": 0.0, "vel_east_m_s": 0.0, "vel_down_m_s": 0.0, "battery_remain_pct": 9900.0}
{"t_rx_ms": 1778114362580, "run_id": "20260506_173856", "seq": 125, "pitch_deg": 1.4932, "yaw_deg": -13.8718, "roll_deg": 0.4621, "lat_deg": 0.0, "lon_deg": 0.0, "altitude_rel_ft": 41.2598, "ground_speed_ft_s": 0.0, "vel_north_m_s": 0.0, "vel_east_m_s": 0.0, "vel_down_m_s": 0.0, "battery_remain_pct": 9900.0}
{"t_rx_ms": 1778114362781, "run_id": "20260506_173856", "seq": 126, "pitch_deg": 1.4932, "yaw_deg": -13.8718, "roll_deg": 0.4621, "lat_deg": 0.0, "lon_deg": 0.0, "altitude_rel_ft": 41.2598, "ground_speed_ft_s": 0.0, "vel_north_m_s": 0.0, "vel_east_m_s": 0.0, "vel_down_m_s": 0.0, "battery_remain_pct": 9900.0}
{"t_rx_ms": 1778114362983, "run_id": "20260506_173856", "seq": 127, "pitch_deg": 1.4932, "yaw_deg": -13.8718, "roll_deg": 0.4621, "lat_deg": 0.0, "lon_deg": 0.0, "altitude_rel_ft": 41.2598, "ground_speed_ft_s": 0.0, "vel_north_m_s": 0.0, "vel_east_m_s": 0.0, "vel_down_m_s": 0.0, "battery_remain_pct": 9900.0}
{"t_rx_ms": 1778114363183, "run_id": "20260506_173856", "seq": 128, "pitch_deg": 1.4932, "yaw_deg": -13.8718, "roll_deg": 0.4621, "lat_deg": 0.0, "lon_deg": 0.0, "altitude_rel_ft": 41.2598, "ground_speed_ft_s": 0.0, "vel_north_m_s": 0.0, "vel_east_m_s": 0.0, "vel_down_m_s": 0.0, "battery_remain_pct": 9900.0}
{"t_rx_ms": 1778114363384, "run_id": "20260506_173856", "seq": 129, "pitch_deg": 1.4932, "yaw_deg": -13.8718, "roll_deg": 0.4621, "lat_deg": 0.0, "lon_deg": 0.0, "altitude_rel_ft": 41.2598, "ground_speed_ft_s": 0.0, "vel_north_m_s": 0.0, "vel_east_m_s": 0.0, "vel_down_m_s": 0.0, "battery_remain_pct": 9900.0}
{"t_rx_ms": 1778114363584, "run_id": "20260506_173856", "seq": 130, "pitch_deg": 1.4998, "yaw_deg": -13.8017, "roll_deg": 0.4634, "lat_deg": 0.0, "lon_deg": 0.0, "altitude_rel_ft": 40.479, "ground_speed_ft_s": 0.0, "vel_north_m_s": 0.0, "vel_east_m_s": 0.0, "vel_down_m_s": 0.0, "battery_remain_pct": 9900.0}
{"t_rx_ms": 1778114363785, "run_id": "20260506_173856", "seq": 131, "pitch_deg": 1.4998, "yaw_deg": -13.8017, "roll_deg": 0.4634, "lat_deg": 0.0, "lon_deg": 0.0, "altitude_rel_ft": 40.479, "ground_speed_ft_s": 0.0, "vel_north_m_s": 0.0, "vel_east_m_s": 0.0, "vel_down_m_s": 0.0, "battery_remain_pct": 9900.0}
{"t_rx_ms": 1778114363985, "run_id": "20260506_173856", "seq": 132, "pitch_deg": 1.4998, "yaw_deg": -13.8017, "roll_deg": 0.4634, "lat_deg": 0.0, "lon_deg": 0.0, "altitude_rel_ft": 40.479, "ground_speed_ft_s": 0.0, "vel_north_m_s": 0.0, "vel_east_m_s": 0.0, "vel_down_m_s": 0.0, "battery_remain_pct": 9900.0}
{"t_rx_ms": 1778114364185, "run_id": "20260506_173856", "seq": 133, "pitch_deg": 1.4998, "yaw_deg": -13.8017, "roll_deg": 0.4634, "lat_deg": 0.0, "lon_deg": 0.0, "altitude_rel_ft": 40.479, "ground_speed_ft_s": 0.0, "vel_north_m_s": 0.0, "vel_east_m_s": 0.0, "vel_down_m_s": 0.0, "battery_remain_pct": 9900.0}
{"t_rx_ms": 1778114364386, "run_id": "20260506_173856", "seq": 134, "pitch_deg": 1.4998, "yaw_deg": -13.8017, "roll_deg": 0.4634, "lat_deg": 0.0, "lon_deg": 0.0, "altitude_rel_ft": 40.479, "ground_speed_ft_s": 0.0, "vel_north_m_s": 0.0, "vel_east_m_s": 0.0, "vel_down_m_s": 0.0, "battery_remain_pct": 9900.0}
{"t_rx_ms": 1778114364587, "run_id": "20260506_173856", "seq": 135, "pitch_deg": 1.4968, "yaw_deg": -13.905, "roll_deg": 0.4577, "lat_deg": 0.0, "lon_deg": 0.0, "altitude_rel_ft": 40.1411, "ground_speed_ft_s": 0.0, "vel_north_m_s": 0.0, "vel_east_m_s": 0.0, "vel_down_m_s": 0.0, "battery_remain_pct": 9900.0}
{"t_rx_ms": 1778114364789, "run_id": "20260506_173856", "seq": 136, "pitch_deg": 1.4968, "yaw_deg": -13.905, "roll_deg": 0.4577, "lat_deg": 0.0, "lon_deg": 0.0, "altitude_rel_ft": 40.1411, "ground_speed_ft_s": 0.0, "vel_north_m_s": 0.0, "vel_east_m_s": 0.0, "vel_down_m_s": 0.0, "battery_remain_pct": 9900.0}
{"t_rx_ms": 1778114364990, "run_id": "20260506_173856", "seq": 137, "pitch_deg": 1.4968, "yaw_deg": -13.905, "roll_deg": 0.4577, "lat_deg": 0.0, "lon_deg": 0.0, "altitude_rel_ft": 40.1411, "ground_speed_ft_s": 0.0, "vel_north_m_s": 0.0, "vel_east_m_s": 0.0, "vel_down_m_s": 0.0, "battery_remain_pct": 9900.0}
{"t_rx_ms": 1778114365190, "run_id": "20260506_173856", "seq": 138, "pitch_deg": 1.4968, "yaw_deg": -13.905, "roll_deg": 0.4577, "lat_deg": 0.0, "lon_deg": 0.0, "altitude_rel_ft": 40.1411, "ground_speed_ft_s": 0.0, "vel_north_m_s": 0.0, "vel_east_m_s": 0.0, "vel_down_m_s": 0.0, "battery_remain_pct": 9900.0}
{"t_rx_ms": 1778114365391, "run_id": "20260506_173856", "seq": 139, "pitch_deg": 1.4968, "yaw_deg": -13.905, "roll_deg": 0.4577, "lat_deg": 0.0, "lon_deg": 0.0, "altitude_rel_ft": 40.1411, "ground_speed_ft_s": 0.0, "vel_north_m_s": 0.0, "vel_east_m_s": 0.0, "vel_down_m_s": 0.0, "battery_remain_pct": 9900.0}
{"t_rx_ms": 1778114365593, "run_id": "20260506_173856", "seq": 140, "pitch_deg": 1.5009, "yaw_deg": -14.0021, "roll_deg": 0.4615, "lat_deg": 0.0, "lon_deg": 0.0, "altitude_rel_ft": 40.5446, "ground_speed_ft_s": 0.0, "vel_north_m_s": 0.0, "vel_east_m_s": 0.0, "vel_down_m_s": 0.0, "battery_remain_pct": 9900.0}
{"t_rx_ms": 1778114365795, "run_id": "20260506_173856", "seq": 141, "pitch_deg": 1.5009, "yaw_deg": -14.0021, "roll_deg": 0.4615, "lat_deg": 0.0, "lon_deg": 0.0, "altitude_rel_ft": 40.5446, "ground_speed_ft_s": 0.0, "vel_north_m_s": 0.0, "vel_east_m_s": 0.0, "vel_down_m_s": 0.0, "battery_remain_pct": 9900.0}
{"t_rx_ms": 1778114365996, "run_id": "20260506_173856", "seq": 142, "pitch_deg": 1.5009, "yaw_deg": -14.0021, "roll_deg": 0.4615, "lat_deg": 0.0, "lon_deg": 0.0, "altitude_rel_ft": 40.5446, "ground_speed_ft_s": 0.0, "vel_north_m_s": 0.0, "vel_east_m_s": 0.0, "vel_down_m_s": 0.0, "battery_remain_pct": 9900.0}
{"t_rx_ms": 1778114366196, "run_id": "20260506_173856", "seq": 143, "pitch_deg": 1.5009, "yaw_deg": -14.0021, "roll_deg": 0.4615, "lat_deg": 0.0, "lon_deg": 0.0, "altitude_rel_ft": 40.5446, "ground_speed_ft_s": 0.0, "vel_north_m_s": 0.0, "vel_east_m_s": 0.0, "vel_down_m_s": 0.0, "battery_remain_pct": 9900.0}
{"t_rx_ms": 1778114366398, "run_id": "20260506_173856", "seq": 144, "pitch_deg": 1.5009, "yaw_deg": -14.0021, "roll_deg": 0.4615, "lat_deg": 0.0, "lon_deg": 0.0, "altitude_rel_ft": 40.5446, "ground_speed_ft_s": 0.0, "vel_north_m_s": 0.0, "vel_east_m_s": 0.0, "vel_down_m_s": 0.0, "battery_remain_pct": 9900.0}
{"t_rx_ms": 1778114366598, "run_id": "20260506_173856", "seq": 145, "pitch_deg": 1.4979, "yaw_deg": -13.9716, "roll_deg": 0.4626, "lat_deg": 0.0, "lon_deg": 0.0, "altitude_rel_ft": 40.2362, "ground_speed_ft_s": 0.0, "vel_north_m_s": 0.0, "vel_east_m_s": 0.0, "vel_down_m_s": 0.0, "battery_remain_pct": 9900.0}
{"t_rx_ms": 1778114366800, "run_id": "20260506_173856", "seq": 146, "pitch_deg": 1.4979, "yaw_deg": -13.9716, "roll_deg": 0.4626, "lat_deg": 0.0, "lon_deg": 0.0, "altitude_rel_ft": 40.2362, "ground_speed_ft_s": 0.0, "vel_north_m_s": 0.0, "vel_east_m_s": 0.0, "vel_down_m_s": 0.0, "battery_remain_pct": 9900.0}
{"t_rx_ms": 1778114367000, "run_id": "20260506_173856", "seq": 147, "pitch_deg": 1.4979, "yaw_deg": -13.9716, "roll_deg": 0.4626, "lat_deg": 0.0, "lon_deg": 0.0, "altitude_rel_ft": 40.2362, "ground_speed_ft_s": 0.0, "vel_north_m_s": 0.0, "vel_east_m_s": 0.0, "vel_down_m_s": 0.0, "battery_remain_pct": 9900.0}
{"t_rx_ms": 1778114367201, "run_id": "20260506_173856", "seq": 148, "pitch_deg": 1.4979, "yaw_deg": -13.9716, "roll_deg": 0.4626, "lat_deg": 0.0, "lon_deg": 0.0, "altitude_rel_ft": 40.2362, "ground_speed_ft_s": 0.0, "vel_north_m_s": 0.0, "vel_east_m_s": 0.0, "vel_down_m_s": 0.0, "battery_remain_pct": 9900.0}
{"t_rx_ms": 1778114367401, "run_id": "20260506_173856", "seq": 149, "pitch_deg": 1.4979, "yaw_deg": -13.9716, "roll_deg": 0.4626, "lat_deg": 0.0, "lon_deg": 0.0, "altitude_rel_ft": 40.2362, "ground_speed_ft_s": 0.0, "vel_north_m_s": 0.0, "vel_east_m_s": 0.0, "vel_down_m_s": 0.0, "battery_remain_pct": 9900.0}
{"t_rx_ms": 1778114367603, "run_id": "20260506_173856", "seq": 150, "pitch_deg": 1.5008, "yaw_deg": -14.0661, "roll_deg": 0.465, "lat_deg": 0.0, "lon_deg": 0.0, "altitude_rel_ft": 41.2402, "ground_speed_ft_s": 0.0, "vel_north_m_s": 0.0, "vel_east_m_s": 0.0, "vel_down_m_s": 0.0, "battery_remain_pct": 9900.0}
{"t_rx_ms": 1778114367804, "run_id": "20260506_173856", "seq": 151, "pitch_deg": 1.5008, "yaw_deg": -14.0661, "roll_deg": 0.465, "lat_deg": 0.0, "lon_deg": 0.0, "altitude_rel_ft": 41.2402, "ground_speed_ft_s": 0.0, "vel_north_m_s": 0.0, "vel_east_m_s": 0.0, "vel_down_m_s": 0.0, "battery_remain_pct": 9900.0}
{"t_rx_ms": 1778114368004, "run_id": "20260506_173856", "seq": 152, "pitch_deg": 1.5008, "yaw_deg": -14.0661, "roll_deg": 0.465, "lat_deg": 0.0, "lon_deg": 0.0, "altitude_rel_ft": 41.2402, "ground_speed_ft_s": 0.0, "vel_north_m_s": 0.0, "vel_east_m_s": 0.0, "vel_down_m_s": 0.0, "battery_remain_pct": 9900.0}
{"t_rx_ms": 1778114368205, "run_id": "20260506_173856", "seq": 153, "pitch_deg": 1.5008, "yaw_deg": -14.0661, "roll_deg": 0.465, "lat_deg": 0.0, "lon_deg": 0.0, "altitude_rel_ft": 41.2402, "ground_speed_ft_s": 0.0, "vel_north_m_s": 0.0, "vel_east_m_s": 0.0, "vel_down_m_s": 0.0, "battery_remain_pct": 9900.0}
{"t_rx_ms": 1778114368405, "run_id": "20260506_173856", "seq": 154, "pitch_deg": 1.5008, "yaw_deg": -14.0661, "roll_deg": 0.465, "lat_deg": 0.0, "lon_deg": 0.0, "altitude_rel_ft": 41.2402, "ground_speed_ft_s": 0.0, "vel_north_m_s": 0.0, "vel_east_m_s": 0.0, "vel_down_m_s": 0.0, "battery_remain_pct": 9900.0}
{"t_rx_ms": 1778114368606, "run_id": "20260506_173856", "seq": 155, "pitch_deg": 1.4992, "yaw_deg": -13.9645, "roll_deg": 0.4662, "lat_deg": 0.0, "lon_deg": 0.0, "altitude_rel_ft": 40.7185, "ground_speed_ft_s": 0.0, "vel_north_m_s": 0.0, "vel_east_m_s": 0.0, "vel_down_m_s": 0.0, "battery_remain_pct": 9900.0}
{"t_rx_ms": 1778114368807, "run_id": "20260506_173856", "seq": 156, "pitch_deg": 1.4992, "yaw_deg": -13.9645, "roll_deg": 0.4662, "lat_deg": 0.0, "lon_deg": 0.0, "altitude_rel_ft": 40.7185, "ground_speed_ft_s": 0.0, "vel_north_m_s": 0.0, "vel_east_m_s": 0.0, "vel_down_m_s": 0.0, "battery_remain_pct": 9900.0}
{"t_rx_ms": 1778114369007, "run_id": "20260506_173856", "seq": 157, "pitch_deg": 1.4992, "yaw_deg": -13.9645, "roll_deg": 0.4662, "lat_deg": 0.0, "lon_deg": 0.0, "altitude_rel_ft": 40.7185, "ground_speed_ft_s": 0.0, "vel_north_m_s": 0.0, "vel_east_m_s": 0.0, "vel_down_m_s": 0.0, "battery_remain_pct": 9900.0}
{"t_rx_ms": 1778114369208, "run_id": "20260506_173856", "seq": 158, "pitch_deg": 1.4992, "yaw_deg": -13.9645, "roll_deg": 0.4662, "lat_deg": 0.0, "lon_deg": 0.0, "altitude_rel_ft": 40.7185, "ground_speed_ft_s": 0.0, "vel_north_m_s": 0.0, "vel_east_m_s": 0.0, "vel_down_m_s": 0.0, "battery_remain_pct": 9900.0}
{"t_rx_ms": 1778114369408, "run_id": "20260506_173856", "seq": 159, "pitch_deg": 1.4992, "yaw_deg": -13.9645, "roll_deg": 0.4662, "lat_deg": 0.0, "lon_deg": 0.0, "altitude_rel_ft": 40.7185, "ground_speed_ft_s": 0.0, "vel_north_m_s": 0.0, "vel_east_m_s": 0.0, "vel_down_m_s": 0.0, "battery_remain_pct": 9900.0}
{"t_rx_ms": 1778114369610, "run_id": "20260506_173856", "seq": 160, "pitch_deg": 1.4986, "yaw_deg": -13.9571, "roll_deg": 0.4663, "lat_deg": 0.0, "lon_deg": 0.0, "altitude_rel_ft": 40.8825, "ground_speed_ft_s": 0.0, "vel_north_m_s": 0.0, "vel_east_m_s": 0.0, "vel_down_m_s": 0.0, "battery_remain_pct": 9900.0}
{"t_rx_ms": 1778114369810, "run_id": "20260506_173856", "seq": 161, "pitch_deg": 1.4986, "yaw_deg": -13.9571, "roll_deg": 0.4663, "lat_deg": 0.0, "lon_deg": 0.0, "altitude_rel_ft": 40.8825, "ground_speed_ft_s": 0.0, "vel_north_m_s": 0.0, "vel_east_m_s": 0.0, "vel_down_m_s": 0.0, "battery_remain_pct": 9900.0}
{"t_rx_ms": 1778114370011, "run_id": "20260506_173856", "seq": 162, "pitch_deg": 1.4986, "yaw_deg": -13.9571, "roll_deg": 0.4663, "lat_deg": 0.0, "lon_deg": 0.0, "altitude_rel_ft": 40.8825, "ground_speed_ft_s": 0.0, "vel_north_m_s": 0.0, "vel_east_m_s": 0.0, "vel_down_m_s": 0.0, "battery_remain_pct": 9900.0}
{"t_rx_ms": 1778114370212, "run_id": "20260506_173856", "seq": 163, "pitch_deg": 1.4986, "yaw_deg": -13.9571, "roll_deg": 0.4663, "lat_deg": 0.0, "lon_deg": 0.0, "altitude_rel_ft": 40.8825, "ground_speed_ft_s": 0.0, "vel_north_m_s": 0.0, "vel_east_m_s": 0.0, "vel_down_m_s": 0.0, "battery_remain_pct": 9900.0}
{"t_rx_ms": 1778114370415, "run_id": "20260506_173856", "seq": 164, "pitch_deg": 1.4986, "yaw_deg": -13.9571, "roll_deg": 0.4663, "lat_deg": 0.0, "lon_deg": 0.0, "altitude_rel_ft": 40.8825, "ground_speed_ft_s": 0.0, "vel_north_m_s": 0.0, "vel_east_m_s": 0.0, "vel_down_m_s": 0.0, "battery_remain_pct": 9900.0}
{"t_rx_ms": 1778114370619, "run_id": "20260506_173856", "seq": 165, "pitch_deg": 1.4908, "yaw_deg": -13.8833, "roll_deg": 0.458, "lat_deg": 0.0, "lon_deg": 0.0, "altitude_rel_ft": 40.1804, "ground_speed_ft_s": 0.0, "vel_north_m_s": 0.0, "vel_east_m_s": 0.0, "vel_down_m_s": 0.0, "battery_remain_pct": 9900.0}
{"t_rx_ms": 1778114370820, "run_id": "20260506_173856", "seq": 166, "pitch_deg": 1.4908, "yaw_deg": -13.8833, "roll_deg": 0.458, "lat_deg": 0.0, "lon_deg": 0.0, "altitude_rel_ft": 40.1804, "ground_speed_ft_s": 0.0, "vel_north_m_s": 0.0, "vel_east_m_s": 0.0, "vel_down_m_s": 0.0, "battery_remain_pct": 9900.0}
{"t_rx_ms": 1778114371022, "run_id": "20260506_173856", "seq": 167, "pitch_deg": 1.4908, "yaw_deg": -13.8833, "roll_deg": 0.458, "lat_deg": 0.0, "lon_deg": 0.0, "altitude_rel_ft": 40.1804, "ground_speed_ft_s": 0.0, "vel_north_m_s": 0.0, "vel_east_m_s": 0.0, "vel_down_m_s": 0.0, "battery_remain_pct": 9900.0}
{"t_rx_ms": 1778114371222, "run_id": "20260506_173856", "seq": 168, "pitch_deg": 1.4908, "yaw_deg": -13.8833, "roll_deg": 0.458, "lat_deg": 0.0, "lon_deg": 0.0, "altitude_rel_ft": 40.1804, "ground_speed_ft_s": 0.0, "vel_north_m_s": 0.0, "vel_east_m_s": 0.0, "vel_down_m_s": 0.0, "battery_remain_pct": 9900.0}
{"t_rx_ms": 1778114371423, "run_id": "20260506_173856", "seq": 169, "pitch_deg": 1.4908, "yaw_deg": -13.8833, "roll_deg": 0.458, "lat_deg": 0.0, "lon_deg": 0.0, "altitude_rel_ft": 40.1804, "ground_speed_ft_s": 0.0, "vel_north_m_s": 0.0, "vel_east_m_s": 0.0, "vel_down_m_s": 0.0, "battery_remain_pct": 9900.0}
{"t_rx_ms": 1778114371625, "run_id": "20260506_173856", "seq": 170, "pitch_deg": 1.4942, "yaw_deg": -13.9108, "roll_deg": 0.4631, "lat_deg": 0.0, "lon_deg": 0.0, "altitude_rel_ft": 41.0958, "ground_speed_ft_s": 0.0, "vel_north_m_s": 0.0, "vel_east_m_s": 0.0, "vel_down_m_s": 0.0, "battery_remain_pct": 9900.0}
{"t_rx_ms": 1778114371825, "run_id": "20260506_173856", "seq": 171, "pitch_deg": 1.4942, "yaw_deg": -13.9108, "roll_deg": 0.4631, "lat_deg": 0.0, "lon_deg": 0.0, "altitude_rel_ft": 41.0958, "ground_speed_ft_s": 0.0, "vel_north_m_s": 0.0, "vel_east_m_s": 0.0, "vel_down_m_s": 0.0, "battery_remain_pct": 9900.0}
{"t_rx_ms": 1778114372026, "run_id": "20260506_173856", "seq": 172, "pitch_deg": 1.4942, "yaw_deg": -13.9108, "roll_deg": 0.4631, "lat_deg": 0.0, "lon_deg": 0.0, "altitude_rel_ft": 41.0958, "ground_speed_ft_s": 0.0, "vel_north_m_s": 0.0, "vel_east_m_s": 0.0, "vel_down_m_s": 0.0, "battery_remain_pct": 9900.0}
{"t_rx_ms": 1778114372226, "run_id": "20260506_173856", "seq": 173, "pitch_deg": 1.4942, "yaw_deg": -13.9108, "roll_deg": 0.4631, "lat_deg": 0.0, "lon_deg": 0.0, "altitude_rel_ft": 41.0958, "ground_speed_ft_s": 0.0, "vel_north_m_s": 0.0, "vel_east_m_s": 0.0, "vel_down_m_s": 0.0, "battery_remain_pct": 9900.0}
{"t_rx_ms": 1778114372427, "run_id": "20260506_173856", "seq": 174, "pitch_deg": 1.4942, "yaw_deg": -13.9108, "roll_deg": 0.4631, "lat_deg": 0.0, "lon_deg": 0.0, "altitude_rel_ft": 41.0958, "ground_speed_ft_s": 0.0, "vel_north_m_s": 0.0, "vel_east_m_s": 0.0, "vel_down_m_s": 0.0, "battery_remain_pct": 9900.0}
{"t_rx_ms": 1778114372629, "run_id": "20260506_173856", "seq": 175, "pitch_deg": 1.4959, "yaw_deg": -13.9307, "roll_deg": 0.471, "lat_deg": 0.0, "lon_deg": 0.0, "altitude_rel_ft": 40.7972, "ground_speed_ft_s": 0.0, "vel_north_m_s": 0.0, "vel_east_m_s": 0.0, "vel_down_m_s": 0.0, "battery_remain_pct": 9900.0}
{"t_rx_ms": 1778114372829, "run_id": "20260506_173856", "seq": 176, "pitch_deg": 1.4959, "yaw_deg": -13.9307, "roll_deg": 0.471, "lat_deg": 0.0, "lon_deg": 0.0, "altitude_rel_ft": 40.7972, "ground_speed_ft_s": 0.0, "vel_north_m_s": 0.0, "vel_east_m_s": 0.0, "vel_down_m_s": 0.0, "battery_remain_pct": 9900.0}
{"t_rx_ms": 1778114373030, "run_id": "20260506_173856", "seq": 177, "pitch_deg": 1.4959, "yaw_deg": -13.9307, "roll_deg": 0.471, "lat_deg": 0.0, "lon_deg": 0.0, "altitude_rel_ft": 40.7972, "ground_speed_ft_s": 0.0, "vel_north_m_s": 0.0, "vel_east_m_s": 0.0, "vel_down_m_s": 0.0, "battery_remain_pct": 9900.0}
{"t_rx_ms": 1778114373230, "run_id": "20260506_173856", "seq": 178, "pitch_deg": 1.4959, "yaw_deg": -13.9307, "roll_deg": 0.471, "lat_deg": 0.0, "lon_deg": 0.0, "altitude_rel_ft": 40.7972, "ground_speed_ft_s": 0.0, "vel_north_m_s": 0.0, "vel_east_m_s": 0.0, "vel_down_m_s": 0.0, "battery_remain_pct": 9900.0}
{"t_rx_ms": 1778114373431, "run_id": "20260506_173856", "seq": 179, "pitch_deg": 1.4959, "yaw_deg": -13.9307, "roll_deg": 0.471, "lat_deg": 0.0, "lon_deg": 0.0, "altitude_rel_ft": 40.7972, "ground_speed_ft_s": 0.0, "vel_north_m_s": 0.0, "vel_east_m_s": 0.0, "vel_down_m_s": 0.0, "battery_remain_pct": 9900.0}
{"t_rx_ms": 1778114373633, "run_id": "20260506_173856", "seq": 180, "pitch_deg": 1.4925, "yaw_deg": -13.9902, "roll_deg": 0.4761, "lat_deg": 0.0, "lon_deg": 0.0, "altitude_rel_ft": 41.1155, "ground_speed_ft_s": 0.0, "vel_north_m_s": 0.0, "vel_east_m_s": 0.0, "vel_down_m_s": 0.0, "battery_remain_pct": 9900.0}
{"t_rx_ms": 1778114373834, "run_id": "20260506_173856", "seq": 181, "pitch_deg": 1.4925, "yaw_deg": -13.9902, "roll_deg": 0.4761, "lat_deg": 0.0, "lon_deg": 0.0, "altitude_rel_ft": 41.1155, "ground_speed_ft_s": 0.0, "vel_north_m_s": 0.0, "vel_east_m_s": 0.0, "vel_down_m_s": 0.0, "battery_remain_pct": 9900.0}
{"t_rx_ms": 1778114374035, "run_id": "20260506_173856", "seq": 182, "pitch_deg": 1.4925, "yaw_deg": -13.9902, "roll_deg": 0.4761, "lat_deg": 0.0, "lon_deg": 0.0, "altitude_rel_ft": 41.1155, "ground_speed_ft_s": 0.0, "vel_north_m_s": 0.0, "vel_east_m_s": 0.0, "vel_down_m_s": 0.0, "battery_remain_pct": 9900.0}
{"t_rx_ms": 1778114374236, "run_id": "20260506_173856", "seq": 183, "pitch_deg": 1.4925, "yaw_deg": -13.9902, "roll_deg": 0.4761, "lat_deg": 0.0, "lon_deg": 0.0, "altitude_rel_ft": 41.1155, "ground_speed_ft_s": 0.0, "vel_north_m_s": 0.0, "vel_east_m_s": 0.0, "vel_down_m_s": 0.0, "battery_remain_pct": 9900.0}
{"t_rx_ms": 1778114374436, "run_id": "20260506_173856", "seq": 184, "pitch_deg": 1.4925, "yaw_deg": -13.9902, "roll_deg": 0.4761, "lat_deg": 0.0, "lon_deg": 0.0, "altitude_rel_ft": 41.1155, "ground_speed_ft_s": 0.0, "vel_north_m_s": 0.0, "vel_east_m_s": 0.0, "vel_down_m_s": 0.0, "battery_remain_pct": 9900.0}
{"t_rx_ms": 1778114374637, "run_id": "20260506_173856", "seq": 185, "pitch_deg": 1.4921, "yaw_deg": -13.9311, "roll_deg": 0.4776, "lat_deg": 0.0, "lon_deg": 0.0, "altitude_rel_ft": 40.8661, "ground_speed_ft_s": 0.0, "vel_north_m_s": 0.0, "vel_east_m_s": 0.0, "vel_down_m_s": 0.0, "battery_remain_pct": 9900.0}
{"t_rx_ms": 1778114374838, "run_id": "20260506_173856", "seq": 186, "pitch_deg": 1.4921, "yaw_deg": -13.9311, "roll_deg": 0.4776, "lat_deg": 0.0, "lon_deg": 0.0, "altitude_rel_ft": 40.8661, "ground_speed_ft_s": 0.0, "vel_north_m_s": 0.0, "vel_east_m_s": 0.0, "vel_down_m_s": 0.0, "battery_remain_pct": 9900.0}
{"t_rx_ms": 1778114375038, "run_id": "20260506_173856", "seq": 187, "pitch_deg": 1.4921, "yaw_deg": -13.9311, "roll_deg": 0.4776, "lat_deg": 0.0, "lon_deg": 0.0, "altitude_rel_ft": 40.8661, "ground_speed_ft_s": 0.0, "vel_north_m_s": 0.0, "vel_east_m_s": 0.0, "vel_down_m_s": 0.0, "battery_remain_pct": 9900.0}
{"t_rx_ms": 1778114375239, "run_id": "20260506_173856", "seq": 188, "pitch_deg": 1.4921, "yaw_deg": -13.9311, "roll_deg": 0.4776, "lat_deg": 0.0, "lon_deg": 0.0, "altitude_rel_ft": 40.8661, "ground_speed_ft_s": 0.0, "vel_north_m_s": 0.0, "vel_east_m_s": 0.0, "vel_down_m_s": 0.0, "battery_remain_pct": 9900.0}
{"t_rx_ms": 1778114375439, "run_id": "20260506_173856", "seq": 189, "pitch_deg": 1.4921, "yaw_deg": -13.9311, "roll_deg": 0.4776, "lat_deg": 0.0, "lon_deg": 0.0, "altitude_rel_ft": 40.8661, "ground_speed_ft_s": 0.0, "vel_north_m_s": 0.0, "vel_east_m_s": 0.0, "vel_down_m_s": 0.0, "battery_remain_pct": 9900.0}
{"t_rx_ms": 1778114375640, "run_id": "20260506_173856", "seq": 190, "pitch_deg": 1.4904, "yaw_deg": -13.8614, "roll_deg": 0.4815, "lat_deg": 0.0, "lon_deg": 0.0, "altitude_rel_ft": 40.6529, "ground_speed_ft_s": 0.0, "vel_north_m_s": 0.0, "vel_east_m_s": 0.0, "vel_down_m_s": 0.0, "battery_remain_pct": 9900.0}
{"t_rx_ms": 1778114375840, "run_id": "20260506_173856", "seq": 191, "pitch_deg": 1.4904, "yaw_deg": -13.8614, "roll_deg": 0.4815, "lat_deg": 0.0, "lon_deg": 0.0, "altitude_rel_ft": 40.6529, "ground_speed_ft_s": 0.0, "vel_north_m_s": 0.0, "vel_east_m_s": 0.0, "vel_down_m_s": 0.0, "battery_remain_pct": 9900.0}
{"t_rx_ms": 1778114376041, "run_id": "20260506_173856", "seq": 192, "pitch_deg": 1.4904, "yaw_deg": -13.8614, "roll_deg": 0.4815, "lat_deg": 0.0, "lon_deg": 0.0, "altitude_rel_ft": 40.6529, "ground_speed_ft_s": 0.0, "vel_north_m_s": 0.0, "vel_east_m_s": 0.0, "vel_down_m_s": 0.0, "battery_remain_pct": 9900.0}
{"t_rx_ms": 1778114376242, "run_id": "20260506_173856", "seq": 193, "pitch_deg": 1.4904, "yaw_deg": -13.8614, "roll_deg": 0.4815, "lat_deg": 0.0, "lon_deg": 0.0, "altitude_rel_ft": 40.6529, "ground_speed_ft_s": 0.0, "vel_north_m_s": 0.0, "vel_east_m_s": 0.0, "vel_down_m_s": 0.0, "battery_remain_pct": 9900.0}
