{"t_rx_ms": 1776459893409, "run_id": "20260417_124507", "seq": 1587, "pitch_deg": 12.7301, "yaw_deg": -43.809, "roll_deg": -65.5637, "lat_deg": 34.0407088, "lon_deg": -117.8154699, "altitude_rel_ft": 0.128, "ground_speed_ft_s": 0.0328, "vel_north_m_s": -0.01, "vel_east_m_s": 0.0, "vel_down_m_s": 0.0, "battery_remain_pct": 9900.0}
{"t_rx_ms": 1776459893611, "run_id": "20260417_124507", "seq": 1588, "pitch_deg": 12.7301, "yaw_deg": -43.809, "roll_deg": -65.5637, "lat_deg": 34.0407088, "lon_deg": -117.8154699, "altitude_rel_ft": 0.128, "ground_speed_ft_s": 0.0328, "vel_north_m_s": -0.01, "vel_east_m_s": 0.0, "vel_down_m_s": 0.0, "battery_remain_pct": 9900.0}
{"t_rx_ms": 1776459893812, "run_id": "20260417_124507", "seq": 1589, "pitch_deg": 12.7301, "yaw_deg": -43.809, "roll_deg": -65.5637, "lat_deg": 34.0407088, "lon_deg": -117.8154699, "altitude_rel_ft": 0.128, "ground_speed_ft_s": 0.0328, "vel_north_m_s": -0.01, "vel_east_m_s": 0.0, "vel_down_m_s": 0.0, "battery_remain_pct": 9900.0}
{"t_rx_ms": 1776459894013, "run_id": "20260417_124507", "seq": 1590, "pitch_deg": 12.7301, "yaw_deg": -43.809, "roll_deg": -65.5637, "lat_deg": 34.0407088, "lon_deg": -117.8154699, "altitude_rel_ft": 0.128, "ground_speed_ft_s": 0.0328, "vel_north_m_s": -0.01, "vel_east_m_s": 0.0, "vel_down_m_s": 0.0, "battery_remain_pct": 9900.0}
{"t_rx_ms": 1776459894214, "run_id": "20260417_124507", "seq": 1591, "pitch_deg": 12.6826, "yaw_deg": -43.6231, "roll_deg": -65.7943, "lat_deg": 34.040708599999995, "lon_deg": -117.8154699, "altitude_rel_ft": 0.2461, "ground_speed_ft_s": 0.0656, "vel_north_m_s": -0.02, "vel_east_m_s": 0.0, "vel_down_m_s": 0.0, "battery_remain_pct": 9900.0}
{"t_rx_ms": 1776459894415, "run_id": "20260417_124507", "seq": 1592, "pitch_deg": 12.6826, "yaw_deg": -43.6231, "roll_deg": -65.7943, "lat_deg": 34.040708599999995, "lon_deg": -117.8154699, "altitude_rel_ft": 0.2461, "ground_speed_ft_s": 0.0656, "vel_north_m_s": -0.02, "vel_east_m_s": 0.0, "vel_down_m_s": 0.0, "battery_remain_pct": 9900.0}
{"t_rx_ms": 1776459894618, "run_id": "20260417_124507", "seq": 1593, "pitch_deg": 12.6826, "yaw_deg": -43.6231, "roll_deg": -65.7943, "lat_deg": 34.040708599999995, "lon_deg": -117.8154699, "altitude_rel_ft": 0.2461, "ground_speed_ft_s": 0.0656, "vel_north_m_s": -0.02, "vel_east_m_s": 0.0, "vel_down_m_s": 0.0, "battery_remain_pct": 9900.0}
{"t_rx_ms": 1776459894821, "run_id": "20260417_124507", "seq": 1594, "pitch_deg": 12.6826, "yaw_deg": -43.6231, "roll_deg": -65.7943, "lat_deg": 34.040708599999995, "lon_deg": -117.8154699, "altitude_rel_ft": 0.2461, "ground_speed_ft_s": 0.0656, "vel_north_m_s": -0.02, "vel_east_m_s": 0.0, "vel_down_m_s": 0.0, "battery_remain_pct": 9900.0}
{"t_rx_ms": 1776459895022, "run_id": "20260417_124507", "seq": 1595, "pitch_deg": 12.6826, "yaw_deg": -43.6231, "roll_deg": -65.7943, "lat_deg": 34.040708599999995, "lon_deg": -117.8154699, "altitude_rel_ft": 0.2461, "ground_speed_ft_s": 0.0656, "vel_north_m_s": -0.02, "vel_east_m_s": 0.0, "vel_down_m_s": 0.0, "battery_remain_pct": 9900.0}
{"t_rx_ms": 1776459895224, "run_id": "20260417_124507", "seq": 1596, "pitch_deg": 12.5084, "yaw_deg": -43.5446, "roll_deg": -65.9177, "lat_deg": 34.0407085, "lon_deg": -117.8154699, "altitude_rel_ft": 0.2231, "ground_speed_ft_s": 0.0328, "vel_north_m_s": -0.01, "vel_east_m_s": 0.0, "vel_down_m_s": -0.01, "battery_remain_pct": 9900.0}
{"t_rx_ms": 1776459895431, "run_id": "20260417_124507", "seq": 1597, "pitch_deg": 12.5084, "yaw_deg": -43.5446, "roll_deg": -65.9177, "lat_deg": 34.0407085, "lon_deg": -117.8154699, "altitude_rel_ft": 0.2231, "ground_speed_ft_s": 0.0328, "vel_north_m_s": -0.01, "vel_east_m_s": 0.0, "vel_down_m_s": -0.01, "battery_remain_pct": 9900.0}
{"t_rx_ms": 1776459895634, "run_id": "20260417_124507", "seq": 1598, "pitch_deg": 12.5084, "yaw_deg": -43.5446, "roll_deg": -65.9177, "lat_deg": 34.0407085, "lon_deg": -117.8154699, "altitude_rel_ft": 0.2231, "ground_speed_ft_s": 0.0328, "vel_north_m_s": -0.01, "vel_east_m_s": 0.0, "vel_down_m_s": -0.01, "battery_remain_pct": 9900.0}
{"t_rx_ms": 1776459895835, "run_id": "20260417_124507", "seq": 1599, "pitch_deg": 12.5084, "yaw_deg": -43.5446, "roll_deg": -65.9177, "lat_deg": 34.0407085, "lon_deg": -117.8154699, "altitude_rel_ft": 0.2231, "ground_speed_ft_s": 0.0328, "vel_north_m_s": -0.01, "vel_east_m_s": 0.0, "vel_down_m_s": -0.01, "battery_remain_pct": 9900.0}
{"t_rx_ms": 1776459896036, "run_id": "20260417_124507", "seq": 1600, "pitch_deg": 12.5837, "yaw_deg": -43.5275, "roll_deg": -65.7653, "lat_deg": 34.0407085, "lon_deg": -117.8154699, "altitude_rel_ft": 0.2231, "ground_speed_ft_s": 0.0328, "vel_north_m_s": -0.01, "vel_east_m_s": 0.0, "vel_down_m_s": -0.01, "battery_remain_pct": 9900.0}
{"t_rx_ms": 1776459896237, "run_id": "20260417_124507", "seq": 1601, "pitch_deg": 12.5837, "yaw_deg": -43.5275, "roll_deg": -65.7653, "lat_deg": 34.0407085, "lon_deg": -117.8154699, "altitude_rel_ft": 0.1575, "ground_speed_ft_s": 0.0, "vel_north_m_s": 0.0, "vel_east_m_s": 0.0, "vel_down_m_s": 0.0, "battery_remain_pct": 9900.0}
{"t_rx_ms": 1776459896440, "run_id": "20260417_124507", "seq": 1602, "pitch_deg": 12.5837, "yaw_deg": -43.5275, "roll_deg": -65.7653, "lat_deg": 34.0407085, "lon_deg": -117.8154699, "altitude_rel_ft": 0.1575, "ground_speed_ft_s": 0.0, "vel_north_m_s": 0.0, "vel_east_m_s": 0.0, "vel_down_m_s": 0.0, "battery_remain_pct": 9900.0}
{"t_rx_ms": 1776459896641, "run_id": "20260417_124507", "seq": 1603, "pitch_deg": 12.5837, "yaw_deg": -43.5275, "roll_deg": -65.7653, "lat_deg": 34.0407085, "lon_deg": -117.8154699, "altitude_rel_ft": 0.1575, "ground_speed_ft_s": 0.0, "vel_north_m_s": 0.0, "vel_east_m_s": 0.0, "vel_down_m_s": 0.0, "battery_remain_pct": 9900.0}
{"t_rx_ms": 1776459896844, "run_id": "20260417_124507", "seq": 1604, "pitch_deg": 12.5837, "yaw_deg": -43.5275, "roll_deg": -65.7653, "lat_deg": 34.0407085, "lon_deg": -117.8154699, "altitude_rel_ft": 0.1575, "ground_speed_ft_s": 0.0, "vel_north_m_s": 0.0, "vel_east_m_s": 0.0, "vel_down_m_s": 0.0, "battery_remain_pct": 9900.0}
{"t_rx_ms": 1776459897045, "run_id": "20260417_124507", "seq": 1605, "pitch_deg": 12.3993, "yaw_deg": -43.4123, "roll_deg": -66.0347, "lat_deg": 34.040708699999996, "lon_deg": -117.8154699, "altitude_rel_ft": 0.0361, "ground_speed_ft_s": 0.0328, "vel_north_m_s": 0.01, "vel_east_m_s": 0.0, "vel_down_m_s": 0.0, "battery_remain_pct": 9900.0}
{"t_rx_ms": 1776459897246, "run_id": "20260417_124507", "seq": 1606, "pitch_deg": 12.3993, "yaw_deg": -43.4123, "roll_deg": -66.0347, "lat_deg": 34.040708699999996, "lon_deg": -117.8154699, "altitude_rel_ft": 0.0361, "ground_speed_ft_s": 0.0328, "vel_north_m_s": 0.01, "vel_east_m_s": 0.0, "vel_down_m_s": 0.0, "battery_remain_pct": 9900.0}
{"t_rx_ms": 1776459897447, "run_id": "20260417_124507", "seq": 1607, "pitch_deg": 12.3993, "yaw_deg": -43.4123, "roll_deg": -66.0347, "lat_deg": 34.040708699999996, "lon_deg": -117.8154699, "altitude_rel_ft": 0.0361, "ground_speed_ft_s": 0.0328, "vel_north_m_s": 0.01, "vel_east_m_s": 0.0, "vel_down_m_s": 0.0, "battery_remain_pct": 9900.0}
{"t_rx_ms": 1776459897648, "run_id": "20260417_124507", "seq": 1608, "pitch_deg": 12.3993, "yaw_deg": -43.4123, "roll_deg": -66.0347, "lat_deg": 34.040708699999996, "lon_deg": -117.8154699, "altitude_rel_ft": 0.0361, "ground_speed_ft_s": 0.0328, "vel_north_m_s": 0.01, "vel_east_m_s": 0.0, "vel_down_m_s": 0.0, "battery_remain_pct": 9900.0}
{"t_rx_ms": 1776459897848, "run_id": "20260417_124507", "seq": 1609, "pitch_deg": 12.3993, "yaw_deg": -43.4123, "roll_deg": -66.0347, "lat_deg": 34.040708699999996, "lon_deg": -117.8154699, "altitude_rel_ft": 0.0361, "ground_speed_ft_s": 0.0328, "vel_north_m_s": 0.01, "vel_east_m_s": 0.0, "vel_down_m_s": 0.0, "battery_remain_pct": 9900.0}
{"t_rx_ms": 1776459898049, "run_id": "20260417_124507", "seq": 1610, "pitch_deg": 12.0298, "yaw_deg": -43.4758, "roll_deg": -66.06, "lat_deg": 34.0407091, "lon_deg": -117.8154699, "altitude_rel_ft": 0.0591, "ground_speed_ft_s": 0.0656, "vel_north_m_s": 0.02, "vel_east_m_s": 0.0, "vel_down_m_s": -0.01, "battery_remain_pct": 9900.0}
{"t_rx_ms": 1776459898251, "run_id": "20260417_124507", "seq": 1611, "pitch_deg": 12.0298, "yaw_deg": -43.4758, "roll_deg": -66.06, "lat_deg": 34.0407091, "lon_deg": -117.8154699, "altitude_rel_ft": 0.0591, "ground_speed_ft_s": 0.0656, "vel_north_m_s": 0.02, "vel_east_m_s": 0.0, "vel_down_m_s": -0.01, "battery_remain_pct": 9900.0}
{"t_rx_ms": 1776459898451, "run_id": "20260417_124507", "seq": 1612, "pitch_deg": 12.0298, "yaw_deg": -43.4758, "roll_deg": -66.06, "lat_deg": 34.0407091, "lon_deg": -117.8154699, "altitude_rel_ft": 0.0591, "ground_speed_ft_s": 0.0656, "vel_north_m_s": 0.02, "vel_east_m_s": 0.0, "vel_down_m_s": -0.01, "battery_remain_pct": 9900.0}
{"t_rx_ms": 1776459898654, "run_id": "20260417_124507", "seq": 1613, "pitch_deg": 12.0298, "yaw_deg": -43.4758, "roll_deg": -66.06, "lat_deg": 34.0407091, "lon_deg": -117.8154699, "altitude_rel_ft": 0.0591, "ground_speed_ft_s": 0.0656, "vel_north_m_s": 0.02, "vel_east_m_s": 0.0, "vel_down_m_s": -0.01, "battery_remain_pct": 9900.0}
{"t_rx_ms": 1776459898858, "run_id": "20260417_124507", "seq": 1614, "pitch_deg": 12.0298, "yaw_deg": -43.4758, "roll_deg": -66.06, "lat_deg": 34.0407091, "lon_deg": -117.8154699, "altitude_rel_ft": 0.0591, "ground_speed_ft_s": 0.0656, "vel_north_m_s": 0.02, "vel_east_m_s": 0.0, "vel_down_m_s": -0.01, "battery_remain_pct": 9900.0}
{"t_rx_ms": 1776459899057, "run_id": "20260417_124507", "seq": 1615, "pitch_deg": 11.7389, "yaw_deg": -43.3567, "roll_deg": -66.2355, "lat_deg": 34.040709299999996, "lon_deg": -117.8154699, "altitude_rel_ft": 0.1739, "ground_speed_ft_s": 0.0984, "vel_north_m_s": 0.03, "vel_east_m_s": 0.0, "vel_down_m_s": -0.01, "battery_remain_pct": 9900.0}
{"t_rx_ms": 1776459899258, "run_id": "20260417_124507", "seq": 1616, "pitch_deg": 11.7389, "yaw_deg": -43.3567, "roll_deg": -66.2355, "lat_deg": 34.040709299999996, "lon_deg": -117.8154699, "altitude_rel_ft": 0.1739, "ground_speed_ft_s": 0.0984, "vel_north_m_s": 0.03, "vel_east_m_s": 0.0, "vel_down_m_s": -0.01, "battery_remain_pct": 9900.0}
{"t_rx_ms": 1776459899458, "run_id": "20260417_124507", "seq": 1617, "pitch_deg": 11.7389, "yaw_deg": -43.3567, "roll_deg": -66.2355, "lat_deg": 34.040709299999996, "lon_deg": -117.8154699, "altitude_rel_ft": 0.1739, "ground_speed_ft_s": 0.0984, "vel_north_m_s": 0.03, "vel_east_m_s": 0.0, "vel_down_m_s": -0.01, "battery_remain_pct": 9900.0}
{"t_rx_ms": 1776459899660, "run_id": "20260417_124507", "seq": 1618, "pitch_deg": 11.7389, "yaw_deg": -43.3567, "roll_deg": -66.2355, "lat_deg": 34.040709299999996, "lon_deg": -117.8154699, "altitude_rel_ft": 0.1739, "ground_speed_ft_s": 0.0984, "vel_north_m_s": 0.03, "vel_east_m_s": 0.0, "vel_down_m_s": -0.01, "battery_remain_pct": 9900.0}
{"t_rx_ms": 1776459899861, "run_id": "20260417_124507", "seq": 1619, "pitch_deg": 11.7389, "yaw_deg": -43.3567, "roll_deg": -66.2355, "lat_deg": 34.040709299999996, "lon_deg": -117.8154699, "altitude_rel_ft": 0.1739, "ground_speed_ft_s": 0.0984, "vel_north_m_s": 0.03, "vel_east_m_s": 0.0, "vel_down_m_s": -0.01, "battery_remain_pct": 9900.0}
{"t_rx_ms": 1776459900062, "run_id": "20260417_124507", "seq": 1620, "pitch_deg": 10.5457, "yaw_deg": -42.7718, "roll_deg": -66.2436, "lat_deg": 34.0407096, "lon_deg": -117.8154699, "altitude_rel_ft": 0.2723, "ground_speed_ft_s": 0.1312, "vel_north_m_s": 0.04, "vel_east_m_s": 0.0, "vel_down_m_s": -0.02, "battery_remain_pct": 9900.0}
{"t_rx_ms": 1776459900264, "run_id": "20260417_124507", "seq": 1621, "pitch_deg": 10.5457, "yaw_deg": -42.7718, "roll_deg": -66.2436, "lat_deg": 34.0407096, "lon_deg": -117.8154699, "altitude_rel_ft": 0.2723, "ground_speed_ft_s": 0.1312, "vel_north_m_s": 0.04, "vel_east_m_s": 0.0, "vel_down_m_s": -0.02, "battery_remain_pct": 9900.0}
{"t_rx_ms": 1776459900466, "run_id": "20260417_124507", "seq": 1622, "pitch_deg": 10.5457, "yaw_deg": -42.7718, "roll_deg": -66.2436, "lat_deg": 34.0407096, "lon_deg": -117.8154699, "altitude_rel_ft": 0.2723, "ground_speed_ft_s": 0.1312, "vel_north_m_s": 0.04, "vel_east_m_s": 0.0, "vel_down_m_s": -0.02, "battery_remain_pct": 9900.0}
{"t_rx_ms": 1776459900670, "run_id": "20260417_124507", "seq": 1623, "pitch_deg": 10.5457, "yaw_deg": -42.7718, "roll_deg": -66.2436, "lat_deg": 34.0407096, "lon_deg": -117.8154699, "altitude_rel_ft": 0.2723, "ground_speed_ft_s": 0.1312, "vel_north_m_s": 0.04, "vel_east_m_s": 0.0, "vel_down_m_s": -0.02, "battery_remain_pct": 9900.0}
{"t_rx_ms": 1776459900875, "run_id": "20260417_124507", "seq": 1624, "pitch_deg": 10.5457, "yaw_deg": -42.7718, "roll_deg": -66.2436, "lat_deg": 34.0407096, "lon_deg": -117.8154699, "altitude_rel_ft": 0.2723, "ground_speed_ft_s": 0.1312, "vel_north_m_s": 0.04, "vel_east_m_s": 0.0, "vel_down_m_s": -0.02, "battery_remain_pct": 9900.0}
{"t_rx_ms": 1776459901076, "run_id": "20260417_124507", "seq": 1625, "pitch_deg": 14.0929, "yaw_deg": -42.1003, "roll_deg": -59.2838, "lat_deg": 34.0407098, "lon_deg": -117.8154699, "altitude_rel_ft": 0.3806, "ground_speed_ft_s": 0.1673, "vel_north_m_s": 0.05, "vel_east_m_s": 0.01, "vel_down_m_s": -0.05, "battery_remain_pct": 9900.0}
{"t_rx_ms": 1776459901282, "run_id": "20260417_124507", "seq": 1626, "pitch_deg": 14.0929, "yaw_deg": -42.1003, "roll_deg": -59.2838, "lat_deg": 34.0407098, "lon_deg": -117.8154699, "altitude_rel_ft": 0.3806, "ground_speed_ft_s": 0.1673, "vel_north_m_s": 0.05, "vel_east_m_s": 0.01, "vel_down_m_s": -0.05, "battery_remain_pct": 9900.0}
{"t_rx_ms": 1776459901483, "run_id": "20260417_124507", "seq": 1627, "pitch_deg": 14.0929, "yaw_deg": -42.1003, "roll_deg": -59.2838, "lat_deg": 34.0407098, "lon_deg": -117.8154699, "altitude_rel_ft": 0.3806, "ground_speed_ft_s": 0.1673, "vel_north_m_s": 0.05, "vel_east_m_s": 0.01, "vel_down_m_s": -0.05, "battery_remain_pct": 9900.0}
{"t_rx_ms": 1776459901684, "run_id": "20260417_124507", "seq": 1628, "pitch_deg": 14.0929, "yaw_deg": -42.1003, "roll_deg": -59.2838, "lat_deg": 34.0407098, "lon_deg": -117.8154699, "altitude_rel_ft": 0.3806, "ground_speed_ft_s": 0.1673, "vel_north_m_s": 0.05, "vel_east_m_s": 0.01, "vel_down_m_s": -0.05, "battery_remain_pct": 9900.0}
{"t_rx_ms": 1776459901885, "run_id": "20260417_124507", "seq": 1629, "pitch_deg": 14.0929, "yaw_deg": -42.1003, "roll_deg": -59.2838, "lat_deg": 34.0407098, "lon_deg": -117.8154699, "altitude_rel_ft": 0.3806, "ground_speed_ft_s": 0.1673, "vel_north_m_s": 0.05, "vel_east_m_s": 0.01, "vel_down_m_s": -0.05, "battery_remain_pct": 9900.0}
{"t_rx_ms": 1776459902091, "run_id": "20260417_124507", "seq": 1630, "pitch_deg": 14.2129, "yaw_deg": -41.9143, "roll_deg": -62.1225, "lat_deg": 34.0407097, "lon_deg": -117.8154699, "altitude_rel_ft": 0.4856, "ground_speed_ft_s": 0.0656, "vel_north_m_s": 0.02, "vel_east_m_s": 0.0, "vel_down_m_s": -0.02, "battery_remain_pct": 9900.0}
{"t_rx_ms": 1776459902292, "run_id": "20260417_124507", "seq": 1631, "pitch_deg": 14.2129, "yaw_deg": -41.9143, "roll_deg": -62.1225, "lat_deg": 34.0407097, "lon_deg": -117.8154699, "altitude_rel_ft": 0.4856, "ground_speed_ft_s": 0.0656, "vel_north_m_s": 0.02, "vel_east_m_s": 0.0, "vel_down_m_s": -0.02, "battery_remain_pct": 9900.0}
{"t_rx_ms": 1776459902497, "run_id": "20260417_124507", "seq": 1632, "pitch_deg": 14.2129, "yaw_deg": -41.9143, "roll_deg": -62.1225, "lat_deg": 34.0407097, "lon_deg": -117.8154699, "altitude_rel_ft": 0.4856, "ground_speed_ft_s": 0.0656, "vel_north_m_s": 0.02, "vel_east_m_s": 0.0, "vel_down_m_s": -0.02, "battery_remain_pct": 9900.0}
{"t_rx_ms": 1776459902697, "run_id": "20260417_124507", "seq": 1633, "pitch_deg": 14.2129, "yaw_deg": -41.9143, "roll_deg": -62.1225, "lat_deg": 34.0407097, "lon_deg": -117.8154699, "altitude_rel_ft": 0.4856, "ground_speed_ft_s": 0.0656, "vel_north_m_s": 0.02, "vel_east_m_s": 0.0, "vel_down_m_s": -0.02, "battery_remain_pct": 9900.0}
{"t_rx_ms": 1776459902898, "run_id": "20260417_124507", "seq": 1634, "pitch_deg": 14.2129, "yaw_deg": -41.9143, "roll_deg": -62.1225, "lat_deg": 34.0407097, "lon_deg": -117.8154699, "altitude_rel_ft": 0.4856, "ground_speed_ft_s": 0.0656, "vel_north_m_s": 0.02, "vel_east_m_s": 0.0, "vel_down_m_s": -0.02, "battery_remain_pct": 9900.0}
{"t_rx_ms": 1776459903099, "run_id": "20260417_124507", "seq": 1635, "pitch_deg": 13.9413, "yaw_deg": -42.2074, "roll_deg": -63.1137, "lat_deg": 34.0407097, "lon_deg": -117.8154699, "altitude_rel_ft": 0.2165, "ground_speed_ft_s": 0.0, "vel_north_m_s": 0.0, "vel_east_m_s": 0.0, "vel_down_m_s": -0.02, "battery_remain_pct": 9900.0}
{"t_rx_ms": 1776459903301, "run_id": "20260417_124507", "seq": 1636, "pitch_deg": 13.9413, "yaw_deg": -42.2074, "roll_deg": -63.1137, "lat_deg": 34.0407097, "lon_deg": -117.8154699, "altitude_rel_ft": 0.2165, "ground_speed_ft_s": 0.0, "vel_north_m_s": 0.0, "vel_east_m_s": 0.0, "vel_down_m_s": -0.02, "battery_remain_pct": 9900.0}
{"t_rx_ms": 1776459903502, "run_id": "20260417_124507", "seq": 1637, "pitch_deg": 13.9413, "yaw_deg": -42.2074, "roll_deg": -63.1137, "lat_deg": 34.0407097, "lon_deg": -117.8154699, "altitude_rel_ft": 0.2165, "ground_speed_ft_s": 0.0, "vel_north_m_s": 0.0, "vel_east_m_s": 0.0, "vel_down_m_s": -0.02, "battery_remain_pct": 9900.0}
{"t_rx_ms": 1776459903705, "run_id": "20260417_124507", "seq": 1638, "pitch_deg": 13.9413, "yaw_deg": -42.2074, "roll_deg": -63.1137, "lat_deg": 34.0407097, "lon_deg": -117.8154699, "altitude_rel_ft": 0.2165, "ground_speed_ft_s": 0.0, "vel_north_m_s": 0.0, "vel_east_m_s": 0.0, "vel_down_m_s": -0.02, "battery_remain_pct": 9900.0}
{"t_rx_ms": 1776459903914, "run_id": "20260417_124507", "seq": 1639, "pitch_deg": 13.9413, "yaw_deg": -42.2074, "roll_deg": -63.1137, "lat_deg": 34.0407097, "lon_deg": -117.8154699, "altitude_rel_ft": 0.2165, "ground_speed_ft_s": 0.0, "vel_north_m_s": 0.0, "vel_east_m_s": 0.0, "vel_down_m_s": -0.02, "battery_remain_pct": 9900.0}
{"t_rx_ms": 1776459904118, "run_id": "20260417_124507", "seq": 1640, "pitch_deg": 13.8272, "yaw_deg": -42.2888, "roll_deg": -63.8095, "lat_deg": 34.0407096, "lon_deg": -117.8154699, "altitude_rel_ft": 0.164, "ground_speed_ft_s": 0.0328, "vel_north_m_s": 0.0, "vel_east_m_s": 0.01, "vel_down_m_s": -0.03, "battery_remain_pct": 9900.0}
{"t_rx_ms": 1776459904319, "run_id": "20260417_124507", "seq": 1641, "pitch_deg": 13.8272, "yaw_deg": -42.2888, "roll_deg": -63.8095, "lat_deg": 34.0407096, "lon_deg": -117.8154699, "altitude_rel_ft": 0.164, "ground_speed_ft_s": 0.0328, "vel_north_m_s": 0.0, "vel_east_m_s": 0.01, "vel_down_m_s": -0.03, "battery_remain_pct": 9900.0}
{"t_rx_ms": 1776459904525, "run_id": "20260417_124507", "seq": 1642, "pitch_deg": 13.8272, "yaw_deg": -42.2888, "roll_deg": -63.8095, "lat_deg": 34.0407096, "lon_deg": -117.8154699, "altitude_rel_ft": 0.164, "ground_speed_ft_s": 0.0328, "vel_north_m_s": 0.0, "vel_east_m_s": 0.01, "vel_down_m_s": -0.03, "battery_remain_pct": 9900.0}
{"t_rx_ms": 1776459904726, "run_id": "20260417_124507", "seq": 1643, "pitch_deg": 13.8272, "yaw_deg": -42.2888, "roll_deg": -63.8095, "lat_deg": 34.0407096, "lon_deg": -117.8154699, "altitude_rel_ft": 0.164, "ground_speed_ft_s": 0.0328, "vel_north_m_s": 0.0, "vel_east_m_s": 0.01, "vel_down_m_s": -0.03, "battery_remain_pct": 9900.0}
{"t_rx_ms": 1776459904927, "run_id": "20260417_124507", "seq": 1644, "pitch_deg": 13.8272, "yaw_deg": -42.2888, "roll_deg": -63.8095, "lat_deg": 34.0407096, "lon_deg": -117.8154699, "altitude_rel_ft": 0.164, "ground_speed_ft_s": 0.0328, "vel_north_m_s": 0.0, "vel_east_m_s": 0.01, "vel_down_m_s": -0.03, "battery_remain_pct": 9900.0}
{"t_rx_ms": 1776459905131, "run_id": "20260417_124507", "seq": 1645, "pitch_deg": 13.9228, "yaw_deg": -42.1941, "roll_deg": -63.8024, "lat_deg": 34.0407095, "lon_deg": -117.81546979999999, "altitude_rel_ft": 0.2756, "ground_speed_ft_s": 0.0464, "vel_north_m_s": -0.01, "vel_east_m_s": 0.01, "vel_down_m_s": -0.03, "battery_remain_pct": 9900.0}
{"t_rx_ms": 1776459905331, "run_id": "20260417_124507", "seq": 1646, "pitch_deg": 13.9228, "yaw_deg": -42.1941, "roll_deg": -63.8024, "lat_deg": 34.0407095, "lon_deg": -117.81546979999999, "altitude_rel_ft": 0.2756, "ground_speed_ft_s": 0.0464, "vel_north_m_s": -0.01, "vel_east_m_s": 0.01, "vel_down_m_s": -0.03, "battery_remain_pct": 9900.0}
{"t_rx_ms": 1776459905533, "run_id": "20260417_124507", "seq": 1647, "pitch_deg": 13.9228, "yaw_deg": -42.1941, "roll_deg": -63.8024, "lat_deg": 34.0407095, "lon_deg": -117.81546979999999, "altitude_rel_ft": 0.2756, "ground_speed_ft_s": 0.0464, "vel_north_m_s": -0.01, "vel_east_m_s": 0.01, "vel_down_m_s": -0.03, "battery_remain_pct": 9900.0}
{"t_rx_ms": 1776459905734, "run_id": "20260417_124507", "seq": 1648, "pitch_deg": 13.9228, "yaw_deg": -42.1941, "roll_deg": -63.8024, "lat_deg": 34.0407095, "lon_deg": -117.81546979999999, "altitude_rel_ft": 0.2756, "ground_speed_ft_s": 0.0464, "vel_north_m_s": -0.01, "vel_east_m_s": 0.01, "vel_down_m_s": -0.03, "battery_remain_pct": 9900.0}
{"t_rx_ms": 1776459905935, "run_id": "20260417_124507", "seq": 1649, "pitch_deg": 13.9228, "yaw_deg": -42.1941, "roll_deg": -63.8024, "lat_deg": 34.0407095, "lon_deg": -117.81546979999999, "altitude_rel_ft": 0.2756, "ground_speed_ft_s": 0.0464, "vel_north_m_s": -0.01, "vel_east_m_s": 0.01, "vel_down_m_s": -0.03, "battery_remain_pct": 9900.0}
{"t_rx_ms": 1776459906136, "run_id": "20260417_124507", "seq": 1650, "pitch_deg": 13.8328, "yaw_deg": -42.3014, "roll_deg": -63.9469, "lat_deg": 34.0407094, "lon_deg": -117.8154697, "altitude_rel_ft": 0.4003, "ground_speed_ft_s": 0.0464, "vel_north_m_s": -0.01, "vel_east_m_s": 0.01, "vel_down_m_s": -0.03, "battery_remain_pct": 9900.0}
{"t_rx_ms": 1776459906338, "run_id": "20260417_124507", "seq": 1651, "pitch_deg": 13.8328, "yaw_deg": -42.3014, "roll_deg": -63.9469, "lat_deg": 34.0407094, "lon_deg": -117.8154697, "altitude_rel_ft": 0.4003, "ground_speed_ft_s": 0.0464, "vel_north_m_s": -0.01, "vel_east_m_s": 0.01, "vel_down_m_s": -0.03, "battery_remain_pct": 9900.0}
{"t_rx_ms": 1776459906541, "run_id": "20260417_124507", "seq": 1652, "pitch_deg": 13.8328, "yaw_deg": -42.3014, "roll_deg": -63.9469, "lat_deg": 34.0407094, "lon_deg": -117.8154697, "altitude_rel_ft": 0.4003, "ground_speed_ft_s": 0.0464, "vel_north_m_s": -0.01, "vel_east_m_s": 0.01, "vel_down_m_s": -0.03, "battery_remain_pct": 9900.0}
{"t_rx_ms": 1776459906751, "run_id": "20260417_124507", "seq": 1653, "pitch_deg": 13.8328, "yaw_deg": -42.3014, "roll_deg": -63.9469, "lat_deg": 34.0407094, "lon_deg": -117.8154697, "altitude_rel_ft": 0.4003, "ground_speed_ft_s": 0.0464, "vel_north_m_s": -0.01, "vel_east_m_s": 0.01, "vel_down_m_s": -0.03, "battery_remain_pct": 9900.0}
{"t_rx_ms": 1776459906964, "run_id": "20260417_124507", "seq": 1654, "pitch_deg": 13.8328, "yaw_deg": -42.3014, "roll_deg": -63.9469, "lat_deg": 34.0407094, "lon_deg": -117.8154697, "altitude_rel_ft": 0.4003, "ground_speed_ft_s": 0.0464, "vel_north_m_s": -0.01, "vel_east_m_s": 0.01, "vel_down_m_s": -0.03, "battery_remain_pct": 9900.0}
{"t_rx_ms": 1776459907168, "run_id": "20260417_124507", "seq": 1655, "pitch_deg": 13.6631, "yaw_deg": -42.2072, "roll_deg": -64.5854, "lat_deg": 34.0407094, "lon_deg": -117.81546979999999, "altitude_rel_ft": 0.4626, "ground_speed_ft_s": 0.0328, "vel_north_m_s": -0.01, "vel_east_m_s": 0.0, "vel_down_m_s": -0.03, "battery_remain_pct": 9900.0}
{"t_rx_ms": 1776459907371, "run_id": "20260417_124507", "seq": 1656, "pitch_deg": 13.6631, "yaw_deg": -42.2072, "roll_deg": -64.5854, "lat_deg": 34.0407094, "lon_deg": -117.81546979999999, "altitude_rel_ft": 0.4626, "ground_speed_ft_s": 0.0328, "vel_north_m_s": -0.01, "vel_east_m_s": 0.0, "vel_down_m_s": -0.03, "battery_remain_pct": 9900.0}
{"t_rx_ms": 1776459907569, "run_id": "20260417_124507", "seq": 1657, "pitch_deg": 13.6631, "yaw_deg": -42.2072, "roll_deg": -64.5854, "lat_deg": 34.0407094, "lon_deg": -117.81546979999999, "altitude_rel_ft": 0.4626, "ground_speed_ft_s": 0.0328, "vel_north_m_s": -0.01, "vel_east_m_s": 0.0, "vel_down_m_s": -0.03, "battery_remain_pct": 9900.0}
{"t_rx_ms": 1776459907772, "run_id": "20260417_124507", "seq": 1658, "pitch_deg": 13.6631, "yaw_deg": -42.2072, "roll_deg": -64.5854, "lat_deg": 34.0407094, "lon_deg": -117.81546979999999, "altitude_rel_ft": 0.4626, "ground_speed_ft_s": 0.0328, "vel_north_m_s": -0.01, "vel_east_m_s": 0.0, "vel_down_m_s": -0.03, "battery_remain_pct": 9900.0}
{"t_rx_ms": 1776459907973, "run_id": "20260417_124507", "seq": 1659, "pitch_deg": 13.6631, "yaw_deg": -42.2072, "roll_deg": -64.5854, "lat_deg": 34.0407094, "lon_deg": -117.81546979999999, "altitude_rel_ft": 0.4626, "ground_speed_ft_s": 0.0328, "vel_north_m_s": -0.01, "vel_east_m_s": 0.0, "vel_down_m_s": -0.03, "battery_remain_pct": 9900.0}
{"t_rx_ms": 1776459908176, "run_id": "20260417_124507", "seq": 1660, "pitch_deg": 14.0956, "yaw_deg": -42.4283, "roll_deg": -63.6616, "lat_deg": 34.0407095, "lon_deg": -117.81546999999999, "altitude_rel_ft": 0.5381, "ground_speed_ft_s": 0.1467, "vel_north_m_s": -0.02, "vel_east_m_s": -0.04, "vel_down_m_s": -0.02, "battery_remain_pct": 9900.0}
{"t_rx_ms": 1776459908378, "run_id": "20260417_124507", "seq": 1661, "pitch_deg": 14.0956, "yaw_deg": -42.4283, "roll_deg": -63.6616, "lat_deg": 34.0407095, "lon_deg": -117.81546999999999, "altitude_rel_ft": 0.5381, "ground_speed_ft_s": 0.1467, "vel_north_m_s": -0.02, "vel_east_m_s": -0.04, "vel_down_m_s": -0.02, "battery_remain_pct": 9900.0}
{"t_rx_ms": 1776459908587, "run_id": "20260417_124507", "seq": 1662, "pitch_deg": 14.0956, "yaw_deg": -42.4283, "roll_deg": -63.6616, "lat_deg": 34.0407095, "lon_deg": -117.81546999999999, "altitude_rel_ft": 0.5381, "ground_speed_ft_s": 0.1467, "vel_north_m_s": -0.02, "vel_east_m_s": -0.04, "vel_down_m_s": -0.02, "battery_remain_pct": 9900.0}
{"t_rx_ms": 1776459908789, "run_id": "20260417_124507", "seq": 1663, "pitch_deg": 14.0956, "yaw_deg": -42.4283, "roll_deg": -63.6616, "lat_deg": 34.0407095, "lon_deg": -117.81546999999999, "altitude_rel_ft": 0.5381, "ground_speed_ft_s": 0.1467, "vel_north_m_s": -0.02, "vel_east_m_s": -0.04, "vel_down_m_s": -0.02, "battery_remain_pct": 9900.0}
{"t_rx_ms": 1776459908993, "run_id": "20260417_124507", "seq": 1664, "pitch_deg": 14.0956, "yaw_deg": -42.4283, "roll_deg": -63.6616, "lat_deg": 34.0407095, "lon_deg": -117.81546999999999, "altitude_rel_ft": 0.5381, "ground_speed_ft_s": 0.1467, "vel_north_m_s": -0.02, "vel_east_m_s": -0.04, "vel_down_m_s": -0.02, "battery_remain_pct": 9900.0}
{"t_rx_ms": 1776459909194, "run_id": "20260417_124507", "seq": 1665, "pitch_deg": 16.6853, "yaw_deg": -43.3526, "roll_deg": -58.3574, "lat_deg": 34.0407097, "lon_deg": -117.8154701, "altitude_rel_ft": 0.2297, "ground_speed_ft_s": 0.0, "vel_north_m_s": 0.0, "vel_east_m_s": 0.0, "vel_down_m_s": -0.02, "battery_remain_pct": 9900.0}
{"t_rx_ms": 1776459909398, "run_id": "20260417_124507", "seq": 1666, "pitch_deg": 16.6853, "yaw_deg": -43.3526, "roll_deg": -58.3574, "lat_deg": 34.0407097, "lon_deg": -117.8154701, "altitude_rel_ft": 0.2297, "ground_speed_ft_s": 0.0, "vel_north_m_s": 0.0, "vel_east_m_s": 0.0, "vel_down_m_s": -0.02, "battery_remain_pct": 9900.0}
{"t_rx_ms": 1776459909600, "run_id": "20260417_124507", "seq": 1667, "pitch_deg": 16.6853, "yaw_deg": -43.3526, "roll_deg": -58.3574, "lat_deg": 34.0407097, "lon_deg": -117.8154701, "altitude_rel_ft": 0.2297, "ground_speed_ft_s": 0.0, "vel_north_m_s": 0.0, "vel_east_m_s": 0.0, "vel_down_m_s": -0.02, "battery_remain_pct": 9900.0}
{"t_rx_ms": 1776459909802, "run_id": "20260417_124507", "seq": 1668, "pitch_deg": 16.6853, "yaw_deg": -43.3526, "roll_deg": -58.3574, "lat_deg": 34.0407097, "lon_deg": -117.8154701, "altitude_rel_ft": 0.2297, "ground_speed_ft_s": 0.0, "vel_north_m_s": 0.0, "vel_east_m_s": 0.0, "vel_down_m_s": -0.02, "battery_remain_pct": 9900.0}
{"t_rx_ms": 1776459910005, "run_id": "20260417_124507", "seq": 1669, "pitch_deg": 16.6853, "yaw_deg": -43.3526, "roll_deg": -58.3574, "lat_deg": 34.0407097, "lon_deg": -117.8154701, "altitude_rel_ft": 0.2297, "ground_speed_ft_s": 0.0, "vel_north_m_s": 0.0, "vel_east_m_s": 0.0, "vel_down_m_s": -0.02, "battery_remain_pct": 9900.0}
{"t_rx_ms": 1776459910206, "run_id": "20260417_124507", "seq": 1670, "pitch_deg": 16.684, "yaw_deg": -43.4247, "roll_deg": -58.47, "lat_deg": 34.040709899999996, "lon_deg": -117.8154703, "altitude_rel_ft": 0.1608, "ground_speed_ft_s": 0.0328, "vel_north_m_s": 0.0, "vel_east_m_s": -0.01, "vel_down_m_s": -0.04, "battery_remain_pct": 9900.0}
{"t_rx_ms": 1776459910408, "run_id": "20260417_124507", "seq": 1671, "pitch_deg": 16.684, "yaw_deg": -43.4247, "roll_deg": -58.47, "lat_deg": 34.040709899999996, "lon_deg": -117.8154703, "altitude_rel_ft": 0.1608, "ground_speed_ft_s": 0.0328, "vel_north_m_s": 0.0, "vel_east_m_s": -0.01, "vel_down_m_s": -0.04, "battery_remain_pct": 9900.0}
{"t_rx_ms": 1776459910609, "run_id": "20260417_124507", "seq": 1672, "pitch_deg": 16.684, "yaw_deg": -43.4247, "roll_deg": -58.47, "lat_deg": 34.040709899999996, "lon_deg": -117.8154703, "altitude_rel_ft": 0.1608, "ground_speed_ft_s": 0.0328, "vel_north_m_s": 0.0, "vel_east_m_s": -0.01, "vel_down_m_s": -0.04, "battery_remain_pct": 9900.0}
{"t_rx_ms": 1776459910809, "run_id": "20260417_124507", "seq": 1673, "pitch_deg": 16.684, "yaw_deg": -43.4247, "roll_deg": -58.47, "lat_deg": 34.040709899999996, "lon_deg": -117.8154703, "altitude_rel_ft": 0.1608, "ground_speed_ft_s": 0.0328, "vel_north_m_s": 0.0, "vel_east_m_s": -0.01, "vel_down_m_s": -0.04, "battery_remain_pct": 9900.0}
{"t_rx_ms": 1776459911010, "run_id": "20260417_124507", "seq": 1674, "pitch_deg": 16.684, "yaw_deg": -43.4247, "roll_deg": -58.47, "lat_deg": 34.040709899999996, "lon_deg": -117.8154703, "altitude_rel_ft": 0.1608, "ground_speed_ft_s": 0.0328, "vel_north_m_s": 0.0, "vel_east_m_s": -0.01, "vel_down_m_s": -0.04, "battery_remain_pct": 9900.0}
{"t_rx_ms": 1776459911211, "run_id": "20260417_124507", "seq": 1675, "pitch_deg": 16.7255, "yaw_deg": -43.5248, "roll_deg": -58.6489, "lat_deg": 34.0407101, "lon_deg": -117.8154704, "altitude_rel_ft": 0.2526, "ground_speed_ft_s": 0.0328, "vel_north_m_s": 0.0, "vel_east_m_s": -0.01, "vel_down_m_s": -0.03, "battery_remain_pct": 9900.0}
{"t_rx_ms": 1776459911412, "run_id": "20260417_124507", "seq": 1676, "pitch_deg": 16.7255, "yaw_deg": -43.5248, "roll_deg": -58.6489, "lat_deg": 34.0407101, "lon_deg": -117.8154704, "altitude_rel_ft": 0.2526, "ground_speed_ft_s": 0.0328, "vel_north_m_s": 0.0, "vel_east_m_s": -0.01, "vel_down_m_s": -0.03, "battery_remain_pct": 9900.0}
{"t_rx_ms": 1776459911613, "run_id": "20260417_124507", "seq": 1677, "pitch_deg": 16.7255, "yaw_deg": -43.5248, "roll_deg": -58.6489, "lat_deg": 34.0407101, "lon_deg": -117.8154704, "altitude_rel_ft": 0.2526, "ground_speed_ft_s": 0.0328, "vel_north_m_s": 0.0, "vel_east_m_s": -0.01, "vel_down_m_s": -0.03, "battery_remain_pct": 9900.0}
{"t_rx_ms": 1776459911815, "run_id": "20260417_124507", "seq": 1678, "pitch_deg": 16.7255, "yaw_deg": -43.5248, "roll_deg": -58.6489, "lat_deg": 34.0407101, "lon_deg": -117.8154704, "altitude_rel_ft": 0.2526, "ground_speed_ft_s": 0.0328, "vel_north_m_s": 0.0, "vel_east_m_s": -0.01, "vel_down_m_s": -0.03, "battery_remain_pct": 9900.0}
{"t_rx_ms": 1776459912015, "run_id": "20260417_124507", "seq": 1679, "pitch_deg": 16.7255, "yaw_deg": -43.5248, "roll_deg": -58.6489, "lat_deg": 34.0407101, "lon_deg": -117.8154704, "altitude_rel_ft": 0.2526, "ground_speed_ft_s": 0.0328, "vel_north_m_s": 0.0, "vel_east_m_s": -0.01, "vel_down_m_s": -0.03, "battery_remain_pct": 9900.0}
{"t_rx_ms": 1776459912218, "run_id": "20260417_124507", "seq": 1680, "pitch_deg": 16.707, "yaw_deg": -43.7291, "roll_deg": -58.8316, "lat_deg": 34.0407102, "lon_deg": -117.81547049999999, "altitude_rel_ft": 0.3576, "ground_speed_ft_s": 0.0328, "vel_north_m_s": 0.0, "vel_east_m_s": -0.01, "vel_down_m_s": -0.04, "battery_remain_pct": 9900.0}
{"t_rx_ms": 1776459912422, "run_id": "20260417_124507", "seq": 1681, "pitch_deg": 16.707, "yaw_deg": -43.7291, "roll_deg": -58.8316, "lat_deg": 34.0407102, "lon_deg": -117.81547049999999, "altitude_rel_ft": 0.3576, "ground_speed_ft_s": 0.0328, "vel_north_m_s": 0.0, "vel_east_m_s": -0.01, "vel_down_m_s": -0.04, "battery_remain_pct": 9900.0}
{"t_rx_ms": 1776459912626, "run_id": "20260417_124507", "seq": 1682, "pitch_deg": 16.707, "yaw_deg": -43.7291, "roll_deg": -58.8316, "lat_deg": 34.0407102, "lon_deg": -117.81547049999999, "altitude_rel_ft": 0.3576, "ground_speed_ft_s": 0.0328, "vel_north_m_s": 0.0, "vel_east_m_s": -0.01, "vel_down_m_s": -0.04, "battery_remain_pct": 9900.0}
{"t_rx_ms": 1776459912829, "run_id": "20260417_124507", "seq": 1683, "pitch_deg": 16.707, "yaw_deg": -43.7291, "roll_deg": -58.8316, "lat_deg": 34.0407102, "lon_deg": -117.81547049999999, "altitude_rel_ft": 0.3576, "ground_speed_ft_s": 0.0328, "vel_north_m_s": 0.0, "vel_east_m_s": -0.01, "vel_down_m_s": -0.04, "battery_remain_pct": 9900.0}
{"t_rx_ms": 1776459913031, "run_id": "20260417_124507", "seq": 1684, "pitch_deg": 16.7156, "yaw_deg": -44.0055, "roll_deg": -58.82, "lat_deg": 34.0407102, "lon_deg": -117.81547049999999, "altitude_rel_ft": 0.4757, "ground_speed_ft_s": 0.0328, "vel_north_m_s": 0.0, "vel_east_m_s": -0.01, "vel_down_m_s": -0.04, "battery_remain_pct": 9900.0}
{"t_rx_ms": 1776459913232, "run_id": "20260417_124507", "seq": 1685, "pitch_deg": 16.7156, "yaw_deg": -44.0055, "roll_deg": -58.82, "lat_deg": 34.0407102, "lon_deg": -117.81547049999999, "altitude_rel_ft": 0.4757, "ground_speed_ft_s": 0.0328, "vel_north_m_s": 0.0, "vel_east_m_s": -0.01, "vel_down_m_s": -0.04, "battery_remain_pct": 9900.0}
{"t_rx_ms": 1776459913433, "run_id": "20260417_124507", "seq": 1686, "pitch_deg": 16.7156, "yaw_deg": -44.0055, "roll_deg": -58.82, "lat_deg": 34.0407102, "lon_deg": -117.81547049999999, "altitude_rel_ft": 0.4757, "ground_speed_ft_s": 0.0328, "vel_north_m_s": 0.0, "vel_east_m_s": -0.01, "vel_down_m_s": -0.04, "battery_remain_pct": 9900.0}
{"t_rx_ms": 1776459913634, "run_id": "20260417_124507", "seq": 1687, "pitch_deg": 16.7156, "yaw_deg": -44.0055, "roll_deg": -58.82, "lat_deg": 34.0407102, "lon_deg": -117.81547049999999, "altitude_rel_ft": 0.4757, "ground_speed_ft_s": 0.0328, "vel_north_m_s": 0.0, "vel_east_m_s": -0.01, "vel_down_m_s": -0.04, "battery_remain_pct": 9900.0}
{"t_rx_ms": 1776459913838, "run_id": "20260417_124507", "seq": 1688, "pitch_deg": 16.7156, "yaw_deg": -44.0055, "roll_deg": -58.82, "lat_deg": 34.0407102, "lon_deg": -117.81547049999999, "altitude_rel_ft": 0.4757, "ground_speed_ft_s": 0.0328, "vel_north_m_s": 0.0, "vel_east_m_s": -0.01, "vel_down_m_s": -0.04, "battery_remain_pct": 9900.0}
{"t_rx_ms": 1776459914041, "run_id": "20260417_124507", "seq": 1689, "pitch_deg": 16.7532, "yaw_deg": -44.1628, "roll_deg": -58.8878, "lat_deg": 34.0407102, "lon_deg": -117.81547049999999, "altitude_rel_ft": 0.5741, "ground_speed_ft_s": 0.0328, "vel_north_m_s": -0.01, "vel_east_m_s": 0.0, "vel_down_m_s": -0.04, "battery_remain_pct": 9900.0}
{"t_rx_ms": 1776459914244, "run_id": "20260417_124507", "seq": 1690, "pitch_deg": 16.7532, "yaw_deg": -44.1628, "roll_deg": -58.8878, "lat_deg": 34.0407102, "lon_deg": -117.81547049999999, "altitude_rel_ft": 0.5741, "ground_speed_ft_s": 0.0328, "vel_north_m_s": -0.01, "vel_east_m_s": 0.0, "vel_down_m_s": -0.04, "battery_remain_pct": 9900.0}
{"t_rx_ms": 1776459914446, "run_id": "20260417_124507", "seq": 1691, "pitch_deg": 16.7532, "yaw_deg": -44.1628, "roll_deg": -58.8878, "lat_deg": 34.0407102, "lon_deg": -117.81547049999999, "altitude_rel_ft": 0.5741, "ground_speed_ft_s": 0.0328, "vel_north_m_s": -0.01, "vel_east_m_s": 0.0, "vel_down_m_s": -0.04, "battery_remain_pct": 9900.0}
{"t_rx_ms": 1776459914648, "run_id": "20260417_124507", "seq": 1692, "pitch_deg": 16.7532, "yaw_deg": -44.1628, "roll_deg": -58.8878, "lat_deg": 34.0407102, "lon_deg": -117.81547049999999, "altitude_rel_ft": 0.5741, "ground_speed_ft_s": 0.0328, "vel_north_m_s": -0.01, "vel_east_m_s": 0.0, "vel_down_m_s": -0.04, "battery_remain_pct": 9900.0}
{"t_rx_ms": 1776459914848, "run_id": "20260417_124507", "seq": 1693, "pitch_deg": 16.7532, "yaw_deg": -44.1628, "roll_deg": -58.8878, "lat_deg": 34.0407102, "lon_deg": -117.81547049999999, "altitude_rel_ft": 0.5741, "ground_speed_ft_s": 0.0328, "vel_north_m_s": -0.01, "vel_east_m_s": 0.0, "vel_down_m_s": -0.04, "battery_remain_pct": 9900.0}
{"t_rx_ms": 1776459915048, "run_id": "20260417_124507", "seq": 1694, "pitch_deg": 16.7532, "yaw_deg": -44.1628, "roll_deg": -58.8878, "lat_deg": 34.0407102, "lon_deg": -117.81547049999999, "altitude_rel_ft": 0.5741, "ground_speed_ft_s": 0.0328, "vel_north_m_s": -0.01, "vel_east_m_s": 0.0, "vel_down_m_s": -0.04, "battery_remain_pct": 9900.0}
{"t_rx_ms": 1776459915249, "run_id": "20260417_124507", "seq": 1695, "pitch_deg": 16.7663, "yaw_deg": -44.2545, "roll_deg": -58.9918, "lat_deg": 34.04071, "lon_deg": -117.8154704, "altitude_rel_ft": 0.2001, "ground_speed_ft_s": 0.0656, "vel_north_m_s": -0.02, "vel_east_m_s": 0.0, "vel_down_m_s": -0.04, "battery_remain_pct": 9900.0}
{"t_rx_ms": 1776459915451, "run_id": "20260417_124507", "seq": 1696, "pitch_deg": 16.7663, "yaw_deg": -44.2545, "roll_deg": -58.9918, "lat_deg": 34.04071, "lon_deg": -117.8154704, "altitude_rel_ft": 0.2001, "ground_speed_ft_s": 0.0656, "vel_north_m_s": -0.02, "vel_east_m_s": 0.0, "vel_down_m_s": -0.04, "battery_remain_pct": 9900.0}
{"t_rx_ms": 1776459915651, "run_id": "20260417_124507", "seq": 1697, "pitch_deg": 16.7663, "yaw_deg": -44.2545, "roll_deg": -58.9918, "lat_deg": 34.04071, "lon_deg": -117.8154704, "altitude_rel_ft": 0.2001, "ground_speed_ft_s": 0.0656, "vel_north_m_s": -0.02, "vel_east_m_s": 0.0, "vel_down_m_s": -0.04, "battery_remain_pct": 9900.0}
{"t_rx_ms": 1776459915852, "run_id": "20260417_124507", "seq": 1698, "pitch_deg": 16.7663, "yaw_deg": -44.2545, "roll_deg": -58.9918, "lat_deg": 34.04071, "lon_deg": -117.8154704, "altitude_rel_ft": 0.2001, "ground_speed_ft_s": 0.0656, "vel_north_m_s": -0.02, "vel_east_m_s": 0.0, "vel_down_m_s": -0.04, "battery_remain_pct": 9900.0}
{"t_rx_ms": 1776459916053, "run_id": "20260417_124507", "seq": 1699, "pitch_deg": 16.7095, "yaw_deg": -44.4937, "roll_deg": -59.2555, "lat_deg": 34.040709899999996, "lon_deg": -117.8154703, "altitude_rel_ft": -0.0033, "ground_speed_ft_s": 0.1037, "vel_north_m_s": -0.03, "vel_east_m_s": 0.01, "vel_down_m_s": -0.03, "battery_remain_pct": 9900.0}
{"t_rx_ms": 1776459916254, "run_id": "20260417_124507", "seq": 1700, "pitch_deg": 16.7095, "yaw_deg": -44.4937, "roll_deg": -59.2555, "lat_deg": 34.040709899999996, "lon_deg": -117.8154703, "altitude_rel_ft": -0.0033, "ground_speed_ft_s": 0.1037, "vel_north_m_s": -0.03, "vel_east_m_s": 0.01, "vel_down_m_s": -0.03, "battery_remain_pct": 9900.0}
{"t_rx_ms": 1776459916455, "run_id": "20260417_124507", "seq": 1701, "pitch_deg": 16.7095, "yaw_deg": -44.4937, "roll_deg": -59.2555, "lat_deg": 34.040709899999996, "lon_deg": -117.8154703, "altitude_rel_ft": -0.0033, "ground_speed_ft_s": 0.1037, "vel_north_m_s": -0.03, "vel_east_m_s": 0.01, "vel_down_m_s": -0.03, "battery_remain_pct": 9900.0}
{"t_rx_ms": 1776459916655, "run_id": "20260417_124507", "seq": 1702, "pitch_deg": 16.7095, "yaw_deg": -44.4937, "roll_deg": -59.2555, "lat_deg": 34.040709899999996, "lon_deg": -117.8154703, "altitude_rel_ft": -0.0033, "ground_speed_ft_s": 0.1037, "vel_north_m_s": -0.03, "vel_east_m_s": 0.01, "vel_down_m_s": -0.03, "battery_remain_pct": 9900.0}
{"t_rx_ms": 1776459916857, "run_id": "20260417_124507", "seq": 1703, "pitch_deg": 16.7095, "yaw_deg": -44.4937, "roll_deg": -59.2555, "lat_deg": 34.040709899999996, "lon_deg": -117.8154703, "altitude_rel_ft": -0.0033, "ground_speed_ft_s": 0.1037, "vel_north_m_s": -0.03, "vel_east_m_s": 0.01, "vel_down_m_s": -0.03, "battery_remain_pct": 9900.0}
{"t_rx_ms": 1776459917058, "run_id": "20260417_124507", "seq": 1704, "pitch_deg": 16.7201, "yaw_deg": -44.5792, "roll_deg": -59.3329, "lat_deg": 34.0407097, "lon_deg": -117.8154701, "altitude_rel_ft": 0.0328, "ground_speed_ft_s": 0.1037, "vel_north_m_s": -0.03, "vel_east_m_s": 0.01, "vel_down_m_s": -0.03, "battery_remain_pct": 9900.0}
{"t_rx_ms": 1776459917258, "run_id": "20260417_124507", "seq": 1705, "pitch_deg": 16.7201, "yaw_deg": -44.5792, "roll_deg": -59.3329, "lat_deg": 34.0407097, "lon_deg": -117.8154701, "altitude_rel_ft": 0.0328, "ground_speed_ft_s": 0.1037, "vel_north_m_s": -0.03, "vel_east_m_s": 0.01, "vel_down_m_s": -0.03, "battery_remain_pct": 9900.0}
{"t_rx_ms": 1776459917462, "run_id": "20260417_124507", "seq": 1706, "pitch_deg": 16.7201, "yaw_deg": -44.5792, "roll_deg": -59.3329, "lat_deg": 34.0407097, "lon_deg": -117.8154701, "altitude_rel_ft": 0.0328, "ground_speed_ft_s": 0.1037, "vel_north_m_s": -0.03, "vel_east_m_s": 0.01, "vel_down_m_s": -0.03, "battery_remain_pct": 9900.0}
{"t_rx_ms": 1776459917663, "run_id": "20260417_124507", "seq": 1707, "pitch_deg": 16.7201, "yaw_deg": -44.5792, "roll_deg": -59.3329, "lat_deg": 34.0407097, "lon_deg": -117.8154701, "altitude_rel_ft": 0.0328, "ground_speed_ft_s": 0.1037, "vel_north_m_s": -0.03, "vel_east_m_s": 0.01, "vel_down_m_s": -0.03, "battery_remain_pct": 9900.0}
{"t_rx_ms": 1776459917871, "run_id": "20260417_124507", "seq": 1708, "pitch_deg": 16.7201, "yaw_deg": -44.5792, "roll_deg": -59.3329, "lat_deg": 34.0407097, "lon_deg": -117.8154701, "altitude_rel_ft": 0.0328, "ground_speed_ft_s": 0.1037, "vel_north_m_s": -0.03, "vel_east_m_s": 0.01, "vel_down_m_s": -0.03, "battery_remain_pct": 9900.0}
{"t_rx_ms": 1776459918072, "run_id": "20260417_124507", "seq": 1709, "pitch_deg": 16.5409, "yaw_deg": -44.623, "roll_deg": -59.947, "lat_deg": 34.0407097, "lon_deg": -117.81546999999999, "altitude_rel_ft": 0.0689, "ground_speed_ft_s": 0.1037, "vel_north_m_s": -0.03, "vel_east_m_s": 0.01, "vel_down_m_s": -0.03, "battery_remain_pct": 9900.0}
{"t_rx_ms": 1776459918273, "run_id": "20260417_124507", "seq": 1710, "pitch_deg": 16.5409, "yaw_deg": -44.623, "roll_deg": -59.947, "lat_deg": 34.0407097, "lon_deg": -117.81546999999999, "altitude_rel_ft": 0.0689, "ground_speed_ft_s": 0.1037, "vel_north_m_s": -0.03, "vel_east_m_s": 0.01, "vel_down_m_s": -0.03, "battery_remain_pct": 9900.0}
{"t_rx_ms": 1776459918474, "run_id": "20260417_124507", "seq": 1711, "pitch_deg": 16.5409, "yaw_deg": -44.623, "roll_deg": -59.947, "lat_deg": 34.0407097, "lon_deg": -117.81546999999999, "altitude_rel_ft": 0.0689, "ground_speed_ft_s": 0.1037, "vel_north_m_s": -0.03, "vel_east_m_s": 0.01, "vel_down_m_s": -0.03, "battery_remain_pct": 9900.0}
{"t_rx_ms": 1776459918675, "run_id": "20260417_124507", "seq": 1712, "pitch_deg": 16.5409, "yaw_deg": -44.623, "roll_deg": -59.947, "lat_deg": 34.0407097, "lon_deg": -117.81546999999999, "altitude_rel_ft": 0.0689, "ground_speed_ft_s": 0.1037, "vel_north_m_s": -0.03, "vel_east_m_s": 0.01, "vel_down_m_s": -0.03, "battery_remain_pct": 9900.0}
{"t_rx_ms": 1776459918877, "run_id": "20260417_124507", "seq": 1713, "pitch_deg": 16.5409, "yaw_deg": -44.623, "roll_deg": -59.947, "lat_deg": 34.0407097, "lon_deg": -117.81546999999999, "altitude_rel_ft": 0.0689, "ground_speed_ft_s": 0.1037, "vel_north_m_s": -0.03, "vel_east_m_s": 0.01, "vel_down_m_s": -0.03, "battery_remain_pct": 9900.0}
{"t_rx_ms": 1776459919078, "run_id": "20260417_124507", "seq": 1714, "pitch_deg": 16.5329, "yaw_deg": -44.945, "roll_deg": -60.0507, "lat_deg": 34.0407097, "lon_deg": -117.81546979999999, "altitude_rel_ft": 0.0722, "ground_speed_ft_s": 0.0734, "vel_north_m_s": -0.02, "vel_east_m_s": 0.01, "vel_down_m_s": -0.03, "battery_remain_pct": 9900.0}
{"t_rx_ms": 1776459919282, "run_id": "20260417_124507", "seq": 1715, "pitch_deg": 16.5329, "yaw_deg": -44.945, "roll_deg": -60.0507, "lat_deg": 34.0407097, "lon_deg": -117.81546979999999, "altitude_rel_ft": 0.0722, "ground_speed_ft_s": 0.0734, "vel_north_m_s": -0.02, "vel_east_m_s": 0.01, "vel_down_m_s": -0.03, "battery_remain_pct": 9900.0}
{"t_rx_ms": 1776459919484, "run_id": "20260417_124507", "seq": 1716, "pitch_deg": 16.5329, "yaw_deg": -44.945, "roll_deg": -60.0507, "lat_deg": 34.0407097, "lon_deg": -117.81546979999999, "altitude_rel_ft": 0.0722, "ground_speed_ft_s": 0.0734, "vel_north_m_s": -0.02, "vel_east_m_s": 0.01, "vel_down_m_s": -0.03, "battery_remain_pct": 9900.0}
{"t_rx_ms": 1776459919685, "run_id": "20260417_124507", "seq": 1717, "pitch_deg": 16.5329, "yaw_deg": -44.945, "roll_deg": -60.0507, "lat_deg": 34.0407097, "lon_deg": -117.81546979999999, "altitude_rel_ft": 0.0722, "ground_speed_ft_s": 0.0734, "vel_north_m_s": -0.02, "vel_east_m_s": 0.01, "vel_down_m_s": -0.03, "battery_remain_pct": 9900.0}
{"t_rx_ms": 1776459919888, "run_id": "20260417_124507", "seq": 1718, "pitch_deg": 16.5329, "yaw_deg": -44.945, "roll_deg": -60.0507, "lat_deg": 34.0407097, "lon_deg": -117.81546979999999, "altitude_rel_ft": 0.0722, "ground_speed_ft_s": 0.0734, "vel_north_m_s": -0.02, "vel_east_m_s": 0.01, "vel_down_m_s": -0.03, "battery_remain_pct": 9900.0}
{"t_rx_ms": 1776459920091, "run_id": "20260417_124507", "seq": 1719, "pitch_deg": 16.4893, "yaw_deg": -45.0109, "roll_deg": -59.7489, "lat_deg": 34.0407097, "lon_deg": -117.81546979999999, "altitude_rel_ft": 0.0427, "ground_speed_ft_s": 0.0464, "vel_north_m_s": -0.01, "vel_east_m_s": 0.01, "vel_down_m_s": -0.02, "battery_remain_pct": 9900.0}
{"t_rx_ms": 1776459920290, "run_id": "20260417_124507", "seq": 1720, "pitch_deg": 16.4893, "yaw_deg": -45.0109, "roll_deg": -59.7489, "lat_deg": 34.0407097, "lon_deg": -117.81546979999999, "altitude_rel_ft": 0.0427, "ground_speed_ft_s": 0.0464, "vel_north_m_s": -0.01, "vel_east_m_s": 0.01, "vel_down_m_s": -0.02, "battery_remain_pct": 9900.0}
{"t_rx_ms": 1776459920492, "run_id": "20260417_124507", "seq": 1721, "pitch_deg": 16.4893, "yaw_deg": -45.0109, "roll_deg": -59.7489, "lat_deg": 34.0407097, "lon_deg": -117.81546979999999, "altitude_rel_ft": 0.0427, "ground_speed_ft_s": 0.0464, "vel_north_m_s": -0.01, "vel_east_m_s": 0.01, "vel_down_m_s": -0.02, "battery_remain_pct": 9900.0}
{"t_rx_ms": 1776459920695, "run_id": "20260417_124507", "seq": 1722, "pitch_deg": 16.4893, "yaw_deg": -45.0109, "roll_deg": -59.7489, "lat_deg": 34.0407097, "lon_deg": -117.81546979999999, "altitude_rel_ft": 0.0427, "ground_speed_ft_s": 0.0464, "vel_north_m_s": -0.01, "vel_east_m_s": 0.01, "vel_down_m_s": -0.02, "battery_remain_pct": 9900.0}
{"t_rx_ms": 1776459920896, "run_id": "20260417_124507", "seq": 1723, "pitch_deg": 16.4893, "yaw_deg": -45.0109, "roll_deg": -59.7489, "lat_deg": 34.0407097, "lon_deg": -117.81546979999999, "altitude_rel_ft": 0.0427, "ground_speed_ft_s": 0.0464, "vel_north_m_s": -0.01, "vel_east_m_s": 0.01, "vel_down_m_s": -0.02, "battery_remain_pct": 9900.0}
{"t_rx_ms": 1776459921097, "run_id": "20260417_124507", "seq": 1724, "pitch_deg": 16.4703, "yaw_deg": -45.288, "roll_deg": -59.8731, "lat_deg": 34.040709899999996, "lon_deg": -117.8154697, "altitude_rel_ft": 0.0131, "ground_speed_ft_s": 0.0328, "vel_north_m_s": 0.0, "vel_east_m_s": 0.01, "vel_down_m_s": -0.02, "battery_remain_pct": 9900.0}
{"t_rx_ms": 1776459921299, "run_id": "20260417_124507", "seq": 1725, "pitch_deg": 16.4703, "yaw_deg": -45.288, "roll_deg": -59.8731, "lat_deg": 34.040709899999996, "lon_deg": -117.8154697, "altitude_rel_ft": 0.0131, "ground_speed_ft_s": 0.0328, "vel_north_m_s": 0.0, "vel_east_m_s": 0.01, "vel_down_m_s": -0.02, "battery_remain_pct": 9900.0}
{"t_rx_ms": 1776459921500, "run_id": "20260417_124507", "seq": 1726, "pitch_deg": 16.4703, "yaw_deg": -45.288, "roll_deg": -59.8731, "lat_deg": 34.040709899999996, "lon_deg": -117.8154697, "altitude_rel_ft": 0.0131, "ground_speed_ft_s": 0.0328, "vel_north_m_s": 0.0, "vel_east_m_s": 0.01, "vel_down_m_s": -0.02, "battery_remain_pct": 9900.0}
{"t_rx_ms": 1776459921702, "run_id": "20260417_124507", "seq": 1727, "pitch_deg": 16.4703, "yaw_deg": -45.288, "roll_deg": -59.8731, "lat_deg": 34.040709899999996, "lon_deg": -117.8154697, "altitude_rel_ft": 0.0131, "ground_speed_ft_s": 0.0328, "vel_north_m_s": 0.0, "vel_east_m_s": 0.01, "vel_down_m_s": -0.02, "battery_remain_pct": 9900.0}
{"t_rx_ms": 1776459921914, "run_id": "20260417_124507", "seq": 1728, "pitch_deg": 16.4703, "yaw_deg": -45.288, "roll_deg": -59.8731, "lat_deg": 34.040709899999996, "lon_deg": -117.8154697, "altitude_rel_ft": 0.0131, "ground_speed_ft_s": 0.0328, "vel_north_m_s": 0.0, "vel_east_m_s": 0.01, "vel_down_m_s": -0.02, "battery_remain_pct": 9900.0}
{"t_rx_ms": 1776459922107, "run_id": "20260417_124507", "seq": 1729, "pitch_deg": 16.3674, "yaw_deg": -45.3344, "roll_deg": -60.1121, "lat_deg": 34.0407102, "lon_deg": -117.81546979999999, "altitude_rel_ft": 0.0098, "ground_speed_ft_s": 0.0328, "vel_north_m_s": 0.01, "vel_east_m_s": 0.0, "vel_down_m_s": -0.02, "battery_remain_pct": 9900.0}
{"t_rx_ms": 1776459922308, "run_id": "20260417_124507", "seq": 1730, "pitch_deg": 16.3674, "yaw_deg": -45.3344, "roll_deg": -60.1121, "lat_deg": 34.0407102, "lon_deg": -117.81546979999999, "altitude_rel_ft": 0.0098, "ground_speed_ft_s": 0.0328, "vel_north_m_s": 0.01, "vel_east_m_s": 0.0, "vel_down_m_s": -0.02, "battery_remain_pct": 9900.0}
{"t_rx_ms": 1776459922510, "run_id": "20260417_124507", "seq": 1731, "pitch_deg": 16.3674, "yaw_deg": -45.3344, "roll_deg": -60.1121, "lat_deg": 34.0407102, "lon_deg": -117.81546979999999, "altitude_rel_ft": 0.0098, "ground_speed_ft_s": 0.0328, "vel_north_m_s": 0.01, "vel_east_m_s": 0.0, "vel_down_m_s": -0.02, "battery_remain_pct": 9900.0}
{"t_rx_ms": 1776459922711, "run_id": "20260417_124507", "seq": 1732, "pitch_deg": 16.3674, "yaw_deg": -45.3344, "roll_deg": -60.1121, "lat_deg": 34.0407102, "lon_deg": -117.81546979999999, "altitude_rel_ft": 0.0098, "ground_speed_ft_s": 0.0328, "vel_north_m_s": 0.01, "vel_east_m_s": 0.0, "vel_down_m_s": -0.02, "battery_remain_pct": 9900.0}
{"t_rx_ms": 1776459922917, "run_id": "20260417_124507", "seq": 1733, "pitch_deg": 16.3674, "yaw_deg": -45.3344, "roll_deg": -60.1121, "lat_deg": 34.0407102, "lon_deg": -117.81546979999999, "altitude_rel_ft": 0.0098, "ground_speed_ft_s": 0.0328, "vel_north_m_s": 0.01, "vel_east_m_s": 0.0, "vel_down_m_s": -0.02, "battery_remain_pct": 9900.0}
{"t_rx_ms": 1776459923118, "run_id": "20260417_124507", "seq": 1734, "pitch_deg": 16.2676, "yaw_deg": -45.4912, "roll_deg": -60.3394, "lat_deg": 34.040710499999996, "lon_deg": -117.81546979999999, "altitude_rel_ft": 0.0755, "ground_speed_ft_s": 0.0328, "vel_north_m_s": 0.01, "vel_east_m_s": 0.0, "vel_down_m_s": -0.02, "battery_remain_pct": 9900.0}
{"t_rx_ms": 1776459923336, "run_id": "20260417_124507", "seq": 1735, "pitch_deg": 16.2676, "yaw_deg": -45.4912, "roll_deg": -60.3394, "lat_deg": 34.040710499999996, "lon_deg": -117.81546979999999, "altitude_rel_ft": 0.0755, "ground_speed_ft_s": 0.0328, "vel_north_m_s": 0.01, "vel_east_m_s": 0.0, "vel_down_m_s": -0.02, "battery_remain_pct": 9900.0}
{"t_rx_ms": 1776459923537, "run_id": "20260417_124507", "seq": 1736, "pitch_deg": 16.2676, "yaw_deg": -45.4912, "roll_deg": -60.3394, "lat_deg": 34.040710499999996, "lon_deg": -117.81546979999999, "altitude_rel_ft": 0.0755, "ground_speed_ft_s": 0.0328, "vel_north_m_s": 0.01, "vel_east_m_s": 0.0, "vel_down_m_s": -0.02, "battery_remain_pct": 9900.0}
{"t_rx_ms": 1776459923738, "run_id": "20260417_124507", "seq": 1737, "pitch_deg": 16.2676, "yaw_deg": -45.4912, "roll_deg": -60.3394, "lat_deg": 34.040710499999996, "lon_deg": -117.81546979999999, "altitude_rel_ft": 0.0755, "ground_speed_ft_s": 0.0328, "vel_north_m_s": 0.01, "vel_east_m_s": 0.0, "vel_down_m_s": -0.02, "battery_remain_pct": 9900.0}
{"t_rx_ms": 1776459923939, "run_id": "20260417_124507", "seq": 1738, "pitch_deg": 16.2676, "yaw_deg": -45.4912, "roll_deg": -60.3394, "lat_deg": 34.040710499999996, "lon_deg": -117.81546979999999, "altitude_rel_ft": 0.0755, "ground_speed_ft_s": 0.0328, "vel_north_m_s": 0.01, "vel_east_m_s": 0.0, "vel_down_m_s": -0.02, "battery_remain_pct": 9900.0}
{"t_rx_ms": 1776459924140, "run_id": "20260417_124507", "seq": 1739, "pitch_deg": 16.2292, "yaw_deg": -45.55, "roll_deg": -60.4959, "lat_deg": 34.0407107, "lon_deg": -117.8154701, "altitude_rel_ft": 0.0722, "ground_speed_ft_s": 0.0656, "vel_north_m_s": 0.02, "vel_east_m_s": 0.0, "vel_down_m_s": -0.02, "battery_remain_pct": 9900.0}
{"t_rx_ms": 1776459924344, "run_id": "20260417_124507", "seq": 1740, "pitch_deg": 16.2292, "yaw_deg": -45.55, "roll_deg": -60.4959, "lat_deg": 34.0407107, "lon_deg": -117.8154701, "altitude_rel_ft": 0.0722, "ground_speed_ft_s": 0.0656, "vel_north_m_s": 0.02, "vel_east_m_s": 0.0, "vel_down_m_s": -0.02, "battery_remain_pct": 9900.0}
{"t_rx_ms": 1776459924543, "run_id": "20260417_124507", "seq": 1741, "pitch_deg": 16.2292, "yaw_deg": -45.55, "roll_deg": -60.4959, "lat_deg": 34.0407107, "lon_deg": -117.8154701, "altitude_rel_ft": 0.0722, "ground_speed_ft_s": 0.0656, "vel_north_m_s": 0.02, "vel_east_m_s": 0.0, "vel_down_m_s": -0.02, "battery_remain_pct": 9900.0}
{"t_rx_ms": 1776459924744, "run_id": "20260417_124507", "seq": 1742, "pitch_deg": 16.2292, "yaw_deg": -45.55, "roll_deg": -60.4959, "lat_deg": 34.0407107, "lon_deg": -117.8154701, "altitude_rel_ft": 0.0722, "ground_speed_ft_s": 0.0656, "vel_north_m_s": 0.02, "vel_east_m_s": 0.0, "vel_down_m_s": -0.02, "battery_remain_pct": 9900.0}
{"t_rx_ms": 1776459924945, "run_id": "20260417_124507", "seq": 1743, "pitch_deg": 16.2292, "yaw_deg": -45.55, "roll_deg": -60.4959, "lat_deg": 34.0407107, "lon_deg": -117.8154701, "altitude_rel_ft": 0.0722, "ground_speed_ft_s": 0.0656, "vel_north_m_s": 0.02, "vel_east_m_s": 0.0, "vel_down_m_s": -0.02, "battery_remain_pct": 9900.0}
{"t_rx_ms": 1776459925148, "run_id": "20260417_124507", "seq": 1744, "pitch_deg": 16.192, "yaw_deg": -45.7185, "roll_deg": -60.5565, "lat_deg": 34.0407109, "lon_deg": -117.8154703, "altitude_rel_ft": 0.2034, "ground_speed_ft_s": 0.0734, "vel_north_m_s": 0.02, "vel_east_m_s": -0.01, "vel_down_m_s": -0.02, "battery_remain_pct": 9900.0}
{"t_rx_ms": 1776459925352, "run_id": "20260417_124507", "seq": 1745, "pitch_deg": 16.192, "yaw_deg": -45.7185, "roll_deg": -60.5565, "lat_deg": 34.0407109, "lon_deg": -117.8154703, "altitude_rel_ft": 0.2034, "ground_speed_ft_s": 0.0734, "vel_north_m_s": 0.02, "vel_east_m_s": -0.01, "vel_down_m_s": -0.02, "battery_remain_pct": 9900.0}
{"t_rx_ms": 1776459925574, "run_id": "20260417_124507", "seq": 1746, "pitch_deg": 16.192, "yaw_deg": -45.7185, "roll_deg": -60.5565, "lat_deg": 34.0407109, "lon_deg": -117.8154703, "altitude_rel_ft": 0.2034, "ground_speed_ft_s": 0.0734, "vel_north_m_s": 0.02, "vel_east_m_s": -0.01, "vel_down_m_s": -0.02, "battery_remain_pct": 9900.0}
{"t_rx_ms": 1776459925777, "run_id": "20260417_124507", "seq": 1747, "pitch_deg": 16.192, "yaw_deg": -45.7185, "roll_deg": -60.5565, "lat_deg": 34.0407109, "lon_deg": -117.8154703, "altitude_rel_ft": 0.2034, "ground_speed_ft_s": 0.0734, "vel_north_m_s": 0.02, "vel_east_m_s": -0.01, "vel_down_m_s": -0.02, "battery_remain_pct": 9900.0}
{"t_rx_ms": 1776459925978, "run_id": "20260417_124507", "seq": 1748, "pitch_deg": 16.192, "yaw_deg": -45.7185, "roll_deg": -60.5565, "lat_deg": 34.0407109, "lon_deg": -117.8154703, "altitude_rel_ft": 0.2034, "ground_speed_ft_s": 0.0734, "vel_north_m_s": 0.02, "vel_east_m_s": -0.01, "vel_down_m_s": -0.02, "battery_remain_pct": 9900.0}
{"t_rx_ms": 1776459926182, "run_id": "20260417_124507", "seq": 1749, "pitch_deg": 16.1894, "yaw_deg": -45.7744, "roll_deg": -60.5887, "lat_deg": 34.0407109, "lon_deg": -117.81547049999999, "altitude_rel_ft": 0.1804, "ground_speed_ft_s": 0.0464, "vel_north_m_s": 0.01, "vel_east_m_s": -0.01, "vel_down_m_s": -0.02, "battery_remain_pct": 9900.0}
{"t_rx_ms": 1776459926382, "run_id": "20260417_124507", "seq": 1750, "pitch_deg": 16.1894, "yaw_deg": -45.7744, "roll_deg": -60.5887, "lat_deg": 34.0407109, "lon_deg": -117.81547049999999, "altitude_rel_ft": 0.1804, "ground_speed_ft_s": 0.0464, "vel_north_m_s": 0.01, "vel_east_m_s": -0.01, "vel_down_m_s": -0.02, "battery_remain_pct": 9900.0}
{"t_rx_ms": 1776459926586, "run_id": "20260417_124507", "seq": 1751, "pitch_deg": 16.1894, "yaw_deg": -45.7744, "roll_deg": -60.5887, "lat_deg": 34.0407109, "lon_deg": -117.81547049999999, "altitude_rel_ft": 0.1804, "ground_speed_ft_s": 0.0464, "vel_north_m_s": 0.01, "vel_east_m_s": -0.01, "vel_down_m_s": -0.02, "battery_remain_pct": 9900.0}
{"t_rx_ms": 1776459926787, "run_id": "20260417_124507", "seq": 1752, "pitch_deg": 16.1894, "yaw_deg": -45.7744, "roll_deg": -60.5887, "lat_deg": 34.0407109, "lon_deg": -117.81547049999999, "altitude_rel_ft": 0.1804, "ground_speed_ft_s": 0.0464, "vel_north_m_s": 0.01, "vel_east_m_s": -0.01, "vel_down_m_s": -0.02, "battery_remain_pct": 9900.0}
{"t_rx_ms": 1776459926988, "run_id": "20260417_124507", "seq": 1753, "pitch_deg": 16.1894, "yaw_deg": -45.7744, "roll_deg": -60.5887, "lat_deg": 34.0407109, "lon_deg": -117.81547049999999, "altitude_rel_ft": 0.1804, "ground_speed_ft_s": 0.0464, "vel_north_m_s": 0.01, "vel_east_m_s": -0.01, "vel_down_m_s": -0.02, "battery_remain_pct": 9900.0}
{"t_rx_ms": 1776459927190, "run_id": "20260417_124507", "seq": 1754, "pitch_deg": 16.1635, "yaw_deg": -45.8538, "roll_deg": -60.6374, "lat_deg": 34.0407109, "lon_deg": -117.81547069999999, "altitude_rel_ft": 0.0525, "ground_speed_ft_s": 0.0464, "vel_north_m_s": 0.01, "vel_east_m_s": -0.01, "vel_down_m_s": -0.01, "battery_remain_pct": 9900.0}
{"t_rx_ms": 1776459927392, "run_id": "20260417_124507", "seq": 1755, "pitch_deg": 16.1635, "yaw_deg": -45.8538, "roll_deg": -60.6374, "lat_deg": 34.0407109, "lon_deg": -117.81547069999999, "altitude_rel_ft": 0.0525, "ground_speed_ft_s": 0.0464, "vel_north_m_s": 0.01, "vel_east_m_s": -0.01, "vel_down_m_s": -0.01, "battery_remain_pct": 9900.0}
{"t_rx_ms": 1776459927592, "run_id": "20260417_124507", "seq": 1756, "pitch_deg": 16.1635, "yaw_deg": -45.8538, "roll_deg": -60.6374, "lat_deg": 34.0407109, "lon_deg": -117.81547069999999, "altitude_rel_ft": 0.0525, "ground_speed_ft_s": 0.0464, "vel_north_m_s": 0.01, "vel_east_m_s": -0.01, "vel_down_m_s": -0.01, "battery_remain_pct": 9900.0}
{"t_rx_ms": 1776459927794, "run_id": "20260417_124507", "seq": 1757, "pitch_deg": 16.1635, "yaw_deg": -45.8538, "roll_deg": -60.6374, "lat_deg": 34.0407109, "lon_deg": -117.81547069999999, "altitude_rel_ft": 0.0525, "ground_speed_ft_s": 0.0464, "vel_north_m_s": 0.01, "vel_east_m_s": -0.01, "vel_down_m_s": -0.01, "battery_remain_pct": 9900.0}
{"t_rx_ms": 1776459927995, "run_id": "20260417_124507", "seq": 1758, "pitch_deg": 16.1635, "yaw_deg": -45.8538, "roll_deg": -60.6374, "lat_deg": 34.0407109, "lon_deg": -117.81547069999999, "altitude_rel_ft": 0.0525, "ground_speed_ft_s": 0.0464, "vel_north_m_s": 0.01, "vel_east_m_s": -0.01, "vel_down_m_s": -0.01, "battery_remain_pct": 9900.0}
{"t_rx_ms": 1776459928196, "run_id": "20260417_124507", "seq": 1759, "pitch_deg": 16.1759, "yaw_deg": -45.8854, "roll_deg": -60.6447, "lat_deg": 34.0407108, "lon_deg": -117.8154708, "altitude_rel_ft": -0.0361, "ground_speed_ft_s": 0.0328, "vel_north_m_s": 0.0, "vel_east_m_s": -0.01, "vel_down_m_s": -0.01, "battery_remain_pct": 9900.0}
{"t_rx_ms": 1776459928398, "run_id": "20260417_124507", "seq": 1760, "pitch_deg": 16.1759, "yaw_deg": -45.8854, "roll_deg": -60.6447, "lat_deg": 34.0407108, "lon_deg": -117.8154708, "altitude_rel_ft": -0.0361, "ground_speed_ft_s": 0.0328, "vel_north_m_s": 0.0, "vel_east_m_s": -0.01, "vel_down_m_s": -0.01, "battery_remain_pct": 9900.0}
{"t_rx_ms": 1776459928600, "run_id": "20260417_124507", "seq": 1761, "pitch_deg": 16.1759, "yaw_deg": -45.8854, "roll_deg": -60.6447, "lat_deg": 34.0407108, "lon_deg": -117.8154708, "altitude_rel_ft": -0.0361, "ground_speed_ft_s": 0.0328, "vel_north_m_s": 0.0, "vel_east_m_s": -0.01, "vel_down_m_s": -0.01, "battery_remain_pct": 9900.0}
{"t_rx_ms": 1776459928803, "run_id": "20260417_124507", "seq": 1762, "pitch_deg": 16.1759, "yaw_deg": -45.8854, "roll_deg": -60.6447, "lat_deg": 34.0407108, "lon_deg": -117.8154708, "altitude_rel_ft": -0.0361, "ground_speed_ft_s": 0.0328, "vel_north_m_s": 0.0, "vel_east_m_s": -0.01, "vel_down_m_s": -0.01, "battery_remain_pct": 9900.0}
