{"t_rx_ms": 1773435020626, "run_id": "20260313_130557", "seq": 522, "pitch_deg": 5.8068, "yaw_deg": 31.1598, "roll_deg": 1.3631, "lat_deg": 34.0431406, "lon_deg": -117.815878, "altitude_rel_ft": -0.105, "ground_speed_ft_s": 0.1312, "vel_north_m_s": -0.04, "vel_east_m_s": 0.0, "vel_down_m_s": -0.09, "battery_remain_pct": 9900.0}
{"t_rx_ms": 1773435020825, "run_id": "20260313_130557", "seq": 523, "pitch_deg": 5.8068, "yaw_deg": 31.1598, "roll_deg": 1.3631, "lat_deg": 34.0431406, "lon_deg": -117.815878, "altitude_rel_ft": -0.105, "ground_speed_ft_s": 0.1312, "vel_north_m_s": -0.04, "vel_east_m_s": 0.0, "vel_down_m_s": -0.09, "battery_remain_pct": 9900.0}
{"t_rx_ms": 1773435021027, "run_id": "20260313_130557", "seq": 524, "pitch_deg": 5.7677, "yaw_deg": 31.1764, "roll_deg": 1.3477, "lat_deg": 34.0431405, "lon_deg": -117.81587809999999, "altitude_rel_ft": 0.1804, "ground_speed_ft_s": 0.0, "vel_north_m_s": 0.0, "vel_east_m_s": 0.0, "vel_down_m_s": 0.02, "battery_remain_pct": 9900.0}
{"t_rx_ms": 1773435021227, "run_id": "20260313_130557", "seq": 525, "pitch_deg": 5.7677, "yaw_deg": 31.1764, "roll_deg": 1.3477, "lat_deg": 34.0431405, "lon_deg": -117.81587809999999, "altitude_rel_ft": 0.1804, "ground_speed_ft_s": 0.0, "vel_north_m_s": 0.0, "vel_east_m_s": 0.0, "vel_down_m_s": 0.02, "battery_remain_pct": 9900.0}
{"t_rx_ms": 1773435021428, "run_id": "20260313_130557", "seq": 526, "pitch_deg": 5.7677, "yaw_deg": 31.1764, "roll_deg": 1.3477, "lat_deg": 34.0431405, "lon_deg": -117.81587809999999, "altitude_rel_ft": 0.1804, "ground_speed_ft_s": 0.0, "vel_north_m_s": 0.0, "vel_east_m_s": 0.0, "vel_down_m_s": 0.02, "battery_remain_pct": 9900.0}
{"t_rx_ms": 1773435021629, "run_id": "20260313_130557", "seq": 527, "pitch_deg": 5.7677, "yaw_deg": 31.1764, "roll_deg": 1.3477, "lat_deg": 34.0431405, "lon_deg": -117.81587809999999, "altitude_rel_ft": 0.1804, "ground_speed_ft_s": 0.0, "vel_north_m_s": 0.0, "vel_east_m_s": 0.0, "vel_down_m_s": 0.02, "battery_remain_pct": 9900.0}
{"t_rx_ms": 1773435021831, "run_id": "20260313_130557", "seq": 528, "pitch_deg": 5.7677, "yaw_deg": 31.1764, "roll_deg": 1.3477, "lat_deg": 34.0431405, "lon_deg": -117.81587809999999, "altitude_rel_ft": 0.1804, "ground_speed_ft_s": 0.0, "vel_north_m_s": 0.0, "vel_east_m_s": 0.0, "vel_down_m_s": 0.02, "battery_remain_pct": 9900.0}
{"t_rx_ms": 1773435022032, "run_id": "20260313_130557", "seq": 529, "pitch_deg": 5.6309, "yaw_deg": 31.1391, "roll_deg": 1.0834, "lat_deg": 34.0431409, "lon_deg": -117.8158778, "altitude_rel_ft": 0.1706, "ground_speed_ft_s": 0.3668, "vel_north_m_s": 0.1, "vel_east_m_s": 0.05, "vel_down_m_s": 0.03, "battery_remain_pct": 9900.0}
{"t_rx_ms": 1773435022232, "run_id": "20260313_130557", "seq": 530, "pitch_deg": 5.6309, "yaw_deg": 31.1391, "roll_deg": 1.0834, "lat_deg": 34.0431409, "lon_deg": -117.8158778, "altitude_rel_ft": 0.1706, "ground_speed_ft_s": 0.3668, "vel_north_m_s": 0.1, "vel_east_m_s": 0.05, "vel_down_m_s": 0.03, "battery_remain_pct": 9900.0}
{"t_rx_ms": 1773435022434, "run_id": "20260313_130557", "seq": 531, "pitch_deg": 5.6309, "yaw_deg": 31.1391, "roll_deg": 1.0834, "lat_deg": 34.0431409, "lon_deg": -117.8158778, "altitude_rel_ft": 0.1706, "ground_speed_ft_s": 0.3668, "vel_north_m_s": 0.1, "vel_east_m_s": 0.05, "vel_down_m_s": 0.03, "battery_remain_pct": 9900.0}
{"t_rx_ms": 1773435022639, "run_id": "20260313_130557", "seq": 532, "pitch_deg": 5.6309, "yaw_deg": 31.1391, "roll_deg": 1.0834, "lat_deg": 34.0431409, "lon_deg": -117.8158778, "altitude_rel_ft": 0.1706, "ground_speed_ft_s": 0.3668, "vel_north_m_s": 0.1, "vel_east_m_s": 0.05, "vel_down_m_s": 0.03, "battery_remain_pct": 9900.0}
{"t_rx_ms": 1773435022839, "run_id": "20260313_130557", "seq": 533, "pitch_deg": 5.6309, "yaw_deg": 31.1391, "roll_deg": 1.0834, "lat_deg": 34.0431409, "lon_deg": -117.8158778, "altitude_rel_ft": 0.1706, "ground_speed_ft_s": 0.3668, "vel_north_m_s": 0.1, "vel_east_m_s": 0.05, "vel_down_m_s": 0.03, "battery_remain_pct": 9900.0}
{"t_rx_ms": 1773435023043, "run_id": "20260313_130557", "seq": 534, "pitch_deg": 2.6817, "yaw_deg": 31.7801, "roll_deg": -0.6153, "lat_deg": 34.0431451, "lon_deg": -117.81587479999999, "altitude_rel_ft": 0.5184, "ground_speed_ft_s": 2.0877, "vel_north_m_s": 0.55, "vel_east_m_s": 0.32, "vel_down_m_s": -0.04, "battery_remain_pct": 9900.0}
{"t_rx_ms": 1773435023243, "run_id": "20260313_130557", "seq": 535, "pitch_deg": 2.6817, "yaw_deg": 31.7801, "roll_deg": -0.6153, "lat_deg": 34.0431451, "lon_deg": -117.81587479999999, "altitude_rel_ft": 0.5184, "ground_speed_ft_s": 2.0877, "vel_north_m_s": 0.55, "vel_east_m_s": 0.32, "vel_down_m_s": -0.04, "battery_remain_pct": 9900.0}
{"t_rx_ms": 1773435023447, "run_id": "20260313_130557", "seq": 536, "pitch_deg": 2.6817, "yaw_deg": 31.7801, "roll_deg": -0.6153, "lat_deg": 34.0431451, "lon_deg": -117.81587479999999, "altitude_rel_ft": 0.5184, "ground_speed_ft_s": 2.0877, "vel_north_m_s": 0.55, "vel_east_m_s": 0.32, "vel_down_m_s": -0.04, "battery_remain_pct": 9900.0}
{"t_rx_ms": 1773435023648, "run_id": "20260313_130557", "seq": 537, "pitch_deg": 2.6817, "yaw_deg": 31.7801, "roll_deg": -0.6153, "lat_deg": 34.0431451, "lon_deg": -117.81587479999999, "altitude_rel_ft": 0.5184, "ground_speed_ft_s": 2.0877, "vel_north_m_s": 0.55, "vel_east_m_s": 0.32, "vel_down_m_s": -0.04, "battery_remain_pct": 9900.0}
{"t_rx_ms": 1773435023848, "run_id": "20260313_130557", "seq": 538, "pitch_deg": 2.6817, "yaw_deg": 31.7801, "roll_deg": -0.6153, "lat_deg": 34.0431451, "lon_deg": -117.81587479999999, "altitude_rel_ft": 0.5184, "ground_speed_ft_s": 2.0877, "vel_north_m_s": 0.55, "vel_east_m_s": 0.32, "vel_down_m_s": -0.04, "battery_remain_pct": 9900.0}
{"t_rx_ms": 1773435024049, "run_id": "20260313_130557", "seq": 539, "pitch_deg": 1.708, "yaw_deg": 32.16, "roll_deg": -0.5852, "lat_deg": 34.0431545, "lon_deg": -117.81586759999999, "altitude_rel_ft": 0.6365, "ground_speed_ft_s": 4.6681, "vel_north_m_s": 1.19, "vel_east_m_s": 0.78, "vel_down_m_s": -0.05, "battery_remain_pct": 9900.0}
{"t_rx_ms": 1773435024250, "run_id": "20260313_130557", "seq": 540, "pitch_deg": 1.708, "yaw_deg": 32.16, "roll_deg": -0.5852, "lat_deg": 34.0431545, "lon_deg": -117.81586759999999, "altitude_rel_ft": 0.6365, "ground_speed_ft_s": 4.6681, "vel_north_m_s": 1.19, "vel_east_m_s": 0.78, "vel_down_m_s": -0.05, "battery_remain_pct": 9900.0}
{"t_rx_ms": 1773435024451, "run_id": "20260313_130557", "seq": 541, "pitch_deg": 1.708, "yaw_deg": 32.16, "roll_deg": -0.5852, "lat_deg": 34.0431545, "lon_deg": -117.81586759999999, "altitude_rel_ft": 0.6365, "ground_speed_ft_s": 4.6681, "vel_north_m_s": 1.19, "vel_east_m_s": 0.78, "vel_down_m_s": -0.05, "battery_remain_pct": 9900.0}
{"t_rx_ms": 1773435024656, "run_id": "20260313_130557", "seq": 542, "pitch_deg": 1.708, "yaw_deg": 32.16, "roll_deg": -0.5852, "lat_deg": 34.0431545, "lon_deg": -117.81586759999999, "altitude_rel_ft": 0.6365, "ground_speed_ft_s": 4.6681, "vel_north_m_s": 1.19, "vel_east_m_s": 0.78, "vel_down_m_s": -0.05, "battery_remain_pct": 9900.0}
{"t_rx_ms": 1773435024858, "run_id": "20260313_130557", "seq": 543, "pitch_deg": 1.708, "yaw_deg": 32.16, "roll_deg": -0.5852, "lat_deg": 34.0431545, "lon_deg": -117.81586759999999, "altitude_rel_ft": 0.6365, "ground_speed_ft_s": 4.6681, "vel_north_m_s": 1.19, "vel_east_m_s": 0.78, "vel_down_m_s": -0.05, "battery_remain_pct": 9900.0}
{"t_rx_ms": 1773435025057, "run_id": "20260313_130557", "seq": 544, "pitch_deg": 0.7942, "yaw_deg": 32.6246, "roll_deg": -2.5443, "lat_deg": 34.043169, "lon_deg": -117.8158562, "altitude_rel_ft": 0.5381, "ground_speed_ft_s": 6.4788, "vel_north_m_s": 1.64, "vel_east_m_s": 1.1, "vel_down_m_s": 0.0, "battery_remain_pct": 9900.0}
{"t_rx_ms": 1773435025259, "run_id": "20260313_130557", "seq": 545, "pitch_deg": 0.7942, "yaw_deg": 32.6246, "roll_deg": -2.5443, "lat_deg": 34.043169, "lon_deg": -117.8158562, "altitude_rel_ft": 0.5381, "ground_speed_ft_s": 6.4788, "vel_north_m_s": 1.64, "vel_east_m_s": 1.1, "vel_down_m_s": 0.0, "battery_remain_pct": 9900.0}
{"t_rx_ms": 1773435025462, "run_id": "20260313_130557", "seq": 546, "pitch_deg": 0.7942, "yaw_deg": 32.6246, "roll_deg": -2.5443, "lat_deg": 34.043169, "lon_deg": -117.8158562, "altitude_rel_ft": 0.5381, "ground_speed_ft_s": 6.4788, "vel_north_m_s": 1.64, "vel_east_m_s": 1.1, "vel_down_m_s": 0.0, "battery_remain_pct": 9900.0}
{"t_rx_ms": 1773435025662, "run_id": "20260313_130557", "seq": 547, "pitch_deg": 0.7942, "yaw_deg": 32.6246, "roll_deg": -2.5443, "lat_deg": 34.043169, "lon_deg": -117.8158562, "altitude_rel_ft": 0.5381, "ground_speed_ft_s": 6.4788, "vel_north_m_s": 1.64, "vel_east_m_s": 1.1, "vel_down_m_s": 0.0, "battery_remain_pct": 9900.0}
{"t_rx_ms": 1773435025863, "run_id": "20260313_130557", "seq": 548, "pitch_deg": 0.7942, "yaw_deg": 32.6246, "roll_deg": -2.5443, "lat_deg": 34.043169, "lon_deg": -117.8158562, "altitude_rel_ft": 0.5381, "ground_speed_ft_s": 6.4788, "vel_north_m_s": 1.64, "vel_east_m_s": 1.1, "vel_down_m_s": 0.0, "battery_remain_pct": 9900.0}
{"t_rx_ms": 1773435026065, "run_id": "20260313_130557", "seq": 549, "pitch_deg": 0.6134, "yaw_deg": 33.2834, "roll_deg": -1.925, "lat_deg": 34.043186399999996, "lon_deg": -117.8158426, "altitude_rel_ft": 0.7021, "ground_speed_ft_s": 8.0439, "vel_north_m_s": 2.04, "vel_east_m_s": 1.36, "vel_down_m_s": -0.07, "battery_remain_pct": 9900.0}
{"t_rx_ms": 1773435026268, "run_id": "20260313_130557", "seq": 550, "pitch_deg": 0.6134, "yaw_deg": 33.2834, "roll_deg": -1.925, "lat_deg": 34.043186399999996, "lon_deg": -117.8158426, "altitude_rel_ft": 0.7021, "ground_speed_ft_s": 8.0439, "vel_north_m_s": 2.04, "vel_east_m_s": 1.36, "vel_down_m_s": -0.07, "battery_remain_pct": 9900.0}
{"t_rx_ms": 1773435026468, "run_id": "20260313_130557", "seq": 551, "pitch_deg": 0.6134, "yaw_deg": 33.2834, "roll_deg": -1.925, "lat_deg": 34.043186399999996, "lon_deg": -117.8158426, "altitude_rel_ft": 0.7021, "ground_speed_ft_s": 8.0439, "vel_north_m_s": 2.04, "vel_east_m_s": 1.36, "vel_down_m_s": -0.07, "battery_remain_pct": 9900.0}
{"t_rx_ms": 1773435026669, "run_id": "20260313_130557", "seq": 552, "pitch_deg": 0.6134, "yaw_deg": 33.2834, "roll_deg": -1.925, "lat_deg": 34.043186399999996, "lon_deg": -117.8158426, "altitude_rel_ft": 0.7021, "ground_speed_ft_s": 8.0439, "vel_north_m_s": 2.04, "vel_east_m_s": 1.36, "vel_down_m_s": -0.07, "battery_remain_pct": 9900.0}
{"t_rx_ms": 1773435026870, "run_id": "20260313_130557", "seq": 553, "pitch_deg": 0.6134, "yaw_deg": 33.2834, "roll_deg": -1.925, "lat_deg": 34.043186399999996, "lon_deg": -117.8158426, "altitude_rel_ft": 0.7021, "ground_speed_ft_s": 8.0439, "vel_north_m_s": 2.04, "vel_east_m_s": 1.36, "vel_down_m_s": -0.07, "battery_remain_pct": 9900.0}
{"t_rx_ms": 1773435027070, "run_id": "20260313_130557", "seq": 554, "pitch_deg": 1.4118, "yaw_deg": 33.0042, "roll_deg": -3.2883, "lat_deg": 34.0432084, "lon_deg": -117.81582549999999, "altitude_rel_ft": 0.9055, "ground_speed_ft_s": 9.8919, "vel_north_m_s": 2.53, "vel_east_m_s": 1.64, "vel_down_m_s": -0.1, "battery_remain_pct": 9900.0}
{"t_rx_ms": 1773435027271, "run_id": "20260313_130557", "seq": 555, "pitch_deg": 1.4118, "yaw_deg": 33.0042, "roll_deg": -3.2883, "lat_deg": 34.0432084, "lon_deg": -117.81582549999999, "altitude_rel_ft": 0.9055, "ground_speed_ft_s": 9.8919, "vel_north_m_s": 2.53, "vel_east_m_s": 1.64, "vel_down_m_s": -0.1, "battery_remain_pct": 9900.0}
{"t_rx_ms": 1773435027474, "run_id": "20260313_130557", "seq": 556, "pitch_deg": 1.4118, "yaw_deg": 33.0042, "roll_deg": -3.2883, "lat_deg": 34.0432084, "lon_deg": -117.81582549999999, "altitude_rel_ft": 0.9055, "ground_speed_ft_s": 9.8919, "vel_north_m_s": 2.53, "vel_east_m_s": 1.64, "vel_down_m_s": -0.1, "battery_remain_pct": 9900.0}
{"t_rx_ms": 1773435027674, "run_id": "20260313_130557", "seq": 557, "pitch_deg": 1.4118, "yaw_deg": 33.0042, "roll_deg": -3.2883, "lat_deg": 34.0432084, "lon_deg": -117.81582549999999, "altitude_rel_ft": 0.9055, "ground_speed_ft_s": 9.8919, "vel_north_m_s": 2.53, "vel_east_m_s": 1.64, "vel_down_m_s": -0.1, "battery_remain_pct": 9900.0}
{"t_rx_ms": 1773435027883, "run_id": "20260313_130557", "seq": 558, "pitch_deg": 1.4118, "yaw_deg": 33.0042, "roll_deg": -3.2883, "lat_deg": 34.0432084, "lon_deg": -117.81582549999999, "altitude_rel_ft": 0.9055, "ground_speed_ft_s": 9.8919, "vel_north_m_s": 2.53, "vel_east_m_s": 1.64, "vel_down_m_s": -0.1, "battery_remain_pct": 9900.0}
{"t_rx_ms": 1773435028084, "run_id": "20260313_130557", "seq": 559, "pitch_deg": 1.0421, "yaw_deg": 33.189, "roll_deg": -2.6329, "lat_deg": 34.0432337, "lon_deg": -117.81580579999999, "altitude_rel_ft": 0.8465, "ground_speed_ft_s": 11.2504, "vel_north_m_s": 2.9, "vel_east_m_s": 1.83, "vel_down_m_s": -0.04, "battery_remain_pct": 9900.0}
{"t_rx_ms": 1773435028285, "run_id": "20260313_130557", "seq": 560, "pitch_deg": 1.0421, "yaw_deg": 33.189, "roll_deg": -2.6329, "lat_deg": 34.0432337, "lon_deg": -117.81580579999999, "altitude_rel_ft": 0.8465, "ground_speed_ft_s": 11.2504, "vel_north_m_s": 2.9, "vel_east_m_s": 1.83, "vel_down_m_s": -0.04, "battery_remain_pct": 9900.0}
{"t_rx_ms": 1773435028487, "run_id": "20260313_130557", "seq": 561, "pitch_deg": 1.0421, "yaw_deg": 33.189, "roll_deg": -2.6329, "lat_deg": 34.0432337, "lon_deg": -117.81580579999999, "altitude_rel_ft": 0.8465, "ground_speed_ft_s": 11.2504, "vel_north_m_s": 2.9, "vel_east_m_s": 1.83, "vel_down_m_s": -0.04, "battery_remain_pct": 9900.0}
{"t_rx_ms": 1773435028687, "run_id": "20260313_130557", "seq": 562, "pitch_deg": 1.0421, "yaw_deg": 33.189, "roll_deg": -2.6329, "lat_deg": 34.0432337, "lon_deg": -117.81580579999999, "altitude_rel_ft": 0.8465, "ground_speed_ft_s": 11.2504, "vel_north_m_s": 2.9, "vel_east_m_s": 1.83, "vel_down_m_s": -0.04, "battery_remain_pct": 9900.0}
{"t_rx_ms": 1773435028888, "run_id": "20260313_130557", "seq": 563, "pitch_deg": 1.0421, "yaw_deg": 33.189, "roll_deg": -2.6329, "lat_deg": 34.0432337, "lon_deg": -117.81580579999999, "altitude_rel_ft": 0.8465, "ground_speed_ft_s": 11.2504, "vel_north_m_s": 2.9, "vel_east_m_s": 1.83, "vel_down_m_s": -0.04, "battery_remain_pct": 9900.0}
{"t_rx_ms": 1773435029089, "run_id": "20260313_130557", "seq": 564, "pitch_deg": 2.4744, "yaw_deg": 33.1022, "roll_deg": -0.9177, "lat_deg": 34.0432589, "lon_deg": -117.81578549999999, "altitude_rel_ft": 1.601, "ground_speed_ft_s": 11.2838, "vel_north_m_s": 2.88, "vel_east_m_s": 1.88, "vel_down_m_s": -0.03, "battery_remain_pct": 9900.0}
{"t_rx_ms": 1773435029290, "run_id": "20260313_130557", "seq": 565, "pitch_deg": 2.4744, "yaw_deg": 33.1022, "roll_deg": -0.9177, "lat_deg": 34.0432589, "lon_deg": -117.81578549999999, "altitude_rel_ft": 1.601, "ground_speed_ft_s": 11.2838, "vel_north_m_s": 2.88, "vel_east_m_s": 1.88, "vel_down_m_s": -0.03, "battery_remain_pct": 9900.0}
{"t_rx_ms": 1773435029490, "run_id": "20260313_130557", "seq": 566, "pitch_deg": 2.4744, "yaw_deg": 33.1022, "roll_deg": -0.9177, "lat_deg": 34.0432589, "lon_deg": -117.81578549999999, "altitude_rel_ft": 1.601, "ground_speed_ft_s": 11.2838, "vel_north_m_s": 2.88, "vel_east_m_s": 1.88, "vel_down_m_s": -0.03, "battery_remain_pct": 9900.0}
{"t_rx_ms": 1773435029694, "run_id": "20260313_130557", "seq": 567, "pitch_deg": 2.4744, "yaw_deg": 33.1022, "roll_deg": -0.9177, "lat_deg": 34.0432589, "lon_deg": -117.81578549999999, "altitude_rel_ft": 1.601, "ground_speed_ft_s": 11.2838, "vel_north_m_s": 2.88, "vel_east_m_s": 1.88, "vel_down_m_s": -0.03, "battery_remain_pct": 9900.0}
{"t_rx_ms": 1773435029897, "run_id": "20260313_130557", "seq": 568, "pitch_deg": 2.4744, "yaw_deg": 33.1022, "roll_deg": -0.9177, "lat_deg": 34.0432589, "lon_deg": -117.81578549999999, "altitude_rel_ft": 1.601, "ground_speed_ft_s": 11.2838, "vel_north_m_s": 2.88, "vel_east_m_s": 1.88, "vel_down_m_s": -0.03, "battery_remain_pct": 9900.0}
{"t_rx_ms": 1773435030099, "run_id": "20260313_130557", "seq": 569, "pitch_deg": 2.5347, "yaw_deg": 32.9745, "roll_deg": -1.0621, "lat_deg": 34.0432852, "lon_deg": -117.815765, "altitude_rel_ft": 1.3091, "ground_speed_ft_s": 11.6758, "vel_north_m_s": 2.99, "vel_east_m_s": 1.93, "vel_down_m_s": -0.07, "battery_remain_pct": 9900.0}
{"t_rx_ms": 1773435030300, "run_id": "20260313_130557", "seq": 570, "pitch_deg": 2.5347, "yaw_deg": 32.9745, "roll_deg": -1.0621, "lat_deg": 34.0432852, "lon_deg": -117.815765, "altitude_rel_ft": 1.3091, "ground_speed_ft_s": 11.6758, "vel_north_m_s": 2.99, "vel_east_m_s": 1.93, "vel_down_m_s": -0.07, "battery_remain_pct": 9900.0}
{"t_rx_ms": 1773435030501, "run_id": "20260313_130557", "seq": 571, "pitch_deg": 2.5347, "yaw_deg": 32.9745, "roll_deg": -1.0621, "lat_deg": 34.0432852, "lon_deg": -117.815765, "altitude_rel_ft": 1.3091, "ground_speed_ft_s": 11.6758, "vel_north_m_s": 2.99, "vel_east_m_s": 1.93, "vel_down_m_s": -0.07, "battery_remain_pct": 9900.0}
{"t_rx_ms": 1773435030703, "run_id": "20260313_130557", "seq": 572, "pitch_deg": 2.5347, "yaw_deg": 32.9745, "roll_deg": -1.0621, "lat_deg": 34.0432852, "lon_deg": -117.815765, "altitude_rel_ft": 1.3091, "ground_speed_ft_s": 11.6758, "vel_north_m_s": 2.99, "vel_east_m_s": 1.93, "vel_down_m_s": -0.07, "battery_remain_pct": 9900.0}
{"t_rx_ms": 1773435030904, "run_id": "20260313_130557", "seq": 573, "pitch_deg": 2.5347, "yaw_deg": 32.9745, "roll_deg": -1.0621, "lat_deg": 34.0432852, "lon_deg": -117.815765, "altitude_rel_ft": 1.3091, "ground_speed_ft_s": 11.6758, "vel_north_m_s": 2.99, "vel_east_m_s": 1.93, "vel_down_m_s": -0.07, "battery_remain_pct": 9900.0}
{"t_rx_ms": 1773435031106, "run_id": "20260313_130557", "seq": 574, "pitch_deg": 2.4678, "yaw_deg": 32.9695, "roll_deg": -1.2082, "lat_deg": 34.0433124, "lon_deg": -117.81574339999999, "altitude_rel_ft": 0.4035, "ground_speed_ft_s": 11.6566, "vel_north_m_s": 2.97, "vel_east_m_s": 1.95, "vel_down_m_s": -0.01, "battery_remain_pct": 9900.0}
{"t_rx_ms": 1773435031306, "run_id": "20260313_130557", "seq": 575, "pitch_deg": 2.4678, "yaw_deg": 32.9695, "roll_deg": -1.2082, "lat_deg": 34.0433124, "lon_deg": -117.81574339999999, "altitude_rel_ft": 0.4035, "ground_speed_ft_s": 11.6566, "vel_north_m_s": 2.97, "vel_east_m_s": 1.95, "vel_down_m_s": -0.01, "battery_remain_pct": 9900.0}
{"t_rx_ms": 1773435031507, "run_id": "20260313_130557", "seq": 576, "pitch_deg": 2.4678, "yaw_deg": 32.9695, "roll_deg": -1.2082, "lat_deg": 34.0433124, "lon_deg": -117.81574339999999, "altitude_rel_ft": 0.4035, "ground_speed_ft_s": 11.6566, "vel_north_m_s": 2.97, "vel_east_m_s": 1.95, "vel_down_m_s": -0.01, "battery_remain_pct": 9900.0}
{"t_rx_ms": 1773435031707, "run_id": "20260313_130557", "seq": 577, "pitch_deg": 2.4678, "yaw_deg": 32.9695, "roll_deg": -1.2082, "lat_deg": 34.0433124, "lon_deg": -117.81574339999999, "altitude_rel_ft": 0.4035, "ground_speed_ft_s": 11.6566, "vel_north_m_s": 2.97, "vel_east_m_s": 1.95, "vel_down_m_s": -0.01, "battery_remain_pct": 9900.0}
{"t_rx_ms": 1773435031911, "run_id": "20260313_130557", "seq": 578, "pitch_deg": 2.9618, "yaw_deg": 32.636, "roll_deg": -2.2077, "lat_deg": 34.0433387, "lon_deg": -117.8157232, "altitude_rel_ft": -0.1444, "ground_speed_ft_s": 11.306, "vel_north_m_s": 2.92, "vel_east_m_s": 1.83, "vel_down_m_s": 0.01, "battery_remain_pct": 9900.0}
{"t_rx_ms": 1773435032114, "run_id": "20260313_130557", "seq": 579, "pitch_deg": 2.9618, "yaw_deg": 32.636, "roll_deg": -2.2077, "lat_deg": 34.0433387, "lon_deg": -117.8157232, "altitude_rel_ft": -0.1444, "ground_speed_ft_s": 11.306, "vel_north_m_s": 2.92, "vel_east_m_s": 1.83, "vel_down_m_s": 0.01, "battery_remain_pct": 9900.0}
{"t_rx_ms": 1773435032315, "run_id": "20260313_130557", "seq": 580, "pitch_deg": 2.9618, "yaw_deg": 32.636, "roll_deg": -2.2077, "lat_deg": 34.0433387, "lon_deg": -117.8157232, "altitude_rel_ft": -0.1444, "ground_speed_ft_s": 11.306, "vel_north_m_s": 2.92, "vel_east_m_s": 1.83, "vel_down_m_s": 0.01, "battery_remain_pct": 9900.0}
{"t_rx_ms": 1773435032516, "run_id": "20260313_130557", "seq": 581, "pitch_deg": 2.9618, "yaw_deg": 32.636, "roll_deg": -2.2077, "lat_deg": 34.0433387, "lon_deg": -117.8157232, "altitude_rel_ft": -0.1444, "ground_speed_ft_s": 11.306, "vel_north_m_s": 2.92, "vel_east_m_s": 1.83, "vel_down_m_s": 0.01, "battery_remain_pct": 9900.0}
{"t_rx_ms": 1773435032716, "run_id": "20260313_130557", "seq": 582, "pitch_deg": 2.9618, "yaw_deg": 32.636, "roll_deg": -2.2077, "lat_deg": 34.0433387, "lon_deg": -117.8157232, "altitude_rel_ft": -0.1444, "ground_speed_ft_s": 11.306, "vel_north_m_s": 2.92, "vel_east_m_s": 1.83, "vel_down_m_s": 0.01, "battery_remain_pct": 9900.0}
{"t_rx_ms": 1773435032917, "run_id": "20260313_130557", "seq": 583, "pitch_deg": 4.0965, "yaw_deg": 32.3198, "roll_deg": -1.5543, "lat_deg": 34.043365099999995, "lon_deg": -117.8157026, "altitude_rel_ft": -0.0164, "ground_speed_ft_s": 11.3486, "vel_north_m_s": 2.91, "vel_east_m_s": 1.87, "vel_down_m_s": -0.04, "battery_remain_pct": 9900.0}
{"t_rx_ms": 1773435033117, "run_id": "20260313_130557", "seq": 584, "pitch_deg": 4.0965, "yaw_deg": 32.3198, "roll_deg": -1.5543, "lat_deg": 34.043365099999995, "lon_deg": -117.8157026, "altitude_rel_ft": -0.0164, "ground_speed_ft_s": 11.3486, "vel_north_m_s": 2.91, "vel_east_m_s": 1.87, "vel_down_m_s": -0.04, "battery_remain_pct": 9900.0}
{"t_rx_ms": 1773435033318, "run_id": "20260313_130557", "seq": 585, "pitch_deg": 4.0965, "yaw_deg": 32.3198, "roll_deg": -1.5543, "lat_deg": 34.043365099999995, "lon_deg": -117.8157026, "altitude_rel_ft": -0.0164, "ground_speed_ft_s": 11.3486, "vel_north_m_s": 2.91, "vel_east_m_s": 1.87, "vel_down_m_s": -0.04, "battery_remain_pct": 9900.0}
{"t_rx_ms": 1773435033520, "run_id": "20260313_130557", "seq": 586, "pitch_deg": 4.0965, "yaw_deg": 32.3198, "roll_deg": -1.5543, "lat_deg": 34.043365099999995, "lon_deg": -117.8157026, "altitude_rel_ft": -0.0164, "ground_speed_ft_s": 11.3486, "vel_north_m_s": 2.91, "vel_east_m_s": 1.87, "vel_down_m_s": -0.04, "battery_remain_pct": 9900.0}
{"t_rx_ms": 1773435033720, "run_id": "20260313_130557", "seq": 587, "pitch_deg": 4.0965, "yaw_deg": 32.3198, "roll_deg": -1.5543, "lat_deg": 34.043365099999995, "lon_deg": -117.8157026, "altitude_rel_ft": -0.0164, "ground_speed_ft_s": 11.3486, "vel_north_m_s": 2.91, "vel_east_m_s": 1.87, "vel_down_m_s": -0.04, "battery_remain_pct": 9900.0}
{"t_rx_ms": 1773435033921, "run_id": "20260313_130557", "seq": 588, "pitch_deg": 3.1633, "yaw_deg": 32.0669, "roll_deg": -2.2152, "lat_deg": 34.0433909, "lon_deg": -117.8156829, "altitude_rel_ft": 0.0361, "ground_speed_ft_s": 11.1358, "vel_north_m_s": 2.89, "vel_east_m_s": 1.78, "vel_down_m_s": -0.02, "battery_remain_pct": 9900.0}
{"t_rx_ms": 1773435034122, "run_id": "20260313_130557", "seq": 589, "pitch_deg": 3.1633, "yaw_deg": 32.0669, "roll_deg": -2.2152, "lat_deg": 34.0433909, "lon_deg": -117.8156829, "altitude_rel_ft": 0.0361, "ground_speed_ft_s": 11.1358, "vel_north_m_s": 2.89, "vel_east_m_s": 1.78, "vel_down_m_s": -0.02, "battery_remain_pct": 9900.0}
{"t_rx_ms": 1773435034323, "run_id": "20260313_130557", "seq": 590, "pitch_deg": 3.1633, "yaw_deg": 32.0669, "roll_deg": -2.2152, "lat_deg": 34.0433909, "lon_deg": -117.8156829, "altitude_rel_ft": 0.0361, "ground_speed_ft_s": 11.1358, "vel_north_m_s": 2.89, "vel_east_m_s": 1.78, "vel_down_m_s": -0.02, "battery_remain_pct": 9900.0}
{"t_rx_ms": 1773435034524, "run_id": "20260313_130557", "seq": 591, "pitch_deg": 3.1633, "yaw_deg": 32.0669, "roll_deg": -2.2152, "lat_deg": 34.0433909, "lon_deg": -117.8156829, "altitude_rel_ft": 0.0361, "ground_speed_ft_s": 11.1358, "vel_north_m_s": 2.89, "vel_east_m_s": 1.78, "vel_down_m_s": -0.02, "battery_remain_pct": 9900.0}
{"t_rx_ms": 1773435034724, "run_id": "20260313_130557", "seq": 592, "pitch_deg": 3.1633, "yaw_deg": 32.0669, "roll_deg": -2.2152, "lat_deg": 34.0433909, "lon_deg": -117.8156829, "altitude_rel_ft": 0.0361, "ground_speed_ft_s": 11.1358, "vel_north_m_s": 2.89, "vel_east_m_s": 1.78, "vel_down_m_s": -0.02, "battery_remain_pct": 9900.0}
{"t_rx_ms": 1773435034926, "run_id": "20260313_130557", "seq": 593, "pitch_deg": 2.6508, "yaw_deg": 31.6095, "roll_deg": -3.8809, "lat_deg": 34.0434179, "lon_deg": -117.81566319999999, "altitude_rel_ft": 0.0459, "ground_speed_ft_s": 11.6832, "vel_north_m_s": 3.09, "vel_east_m_s": 1.77, "vel_down_m_s": 0.0, "battery_remain_pct": 9900.0}
{"t_rx_ms": 1773435035127, "run_id": "20260313_130557", "seq": 594, "pitch_deg": 2.6508, "yaw_deg": 31.6095, "roll_deg": -3.8809, "lat_deg": 34.0434179, "lon_deg": -117.81566319999999, "altitude_rel_ft": 0.0459, "ground_speed_ft_s": 11.6832, "vel_north_m_s": 3.09, "vel_east_m_s": 1.77, "vel_down_m_s": 0.0, "battery_remain_pct": 9900.0}
{"t_rx_ms": 1773435035328, "run_id": "20260313_130557", "seq": 595, "pitch_deg": 2.6508, "yaw_deg": 31.6095, "roll_deg": -3.8809, "lat_deg": 34.0434179, "lon_deg": -117.81566319999999, "altitude_rel_ft": 0.0459, "ground_speed_ft_s": 11.6832, "vel_north_m_s": 3.09, "vel_east_m_s": 1.77, "vel_down_m_s": 0.0, "battery_remain_pct": 9900.0}
{"t_rx_ms": 1773435035528, "run_id": "20260313_130557", "seq": 596, "pitch_deg": 2.6508, "yaw_deg": 31.6095, "roll_deg": -3.8809, "lat_deg": 34.0434179, "lon_deg": -117.81566319999999, "altitude_rel_ft": 0.0459, "ground_speed_ft_s": 11.6832, "vel_north_m_s": 3.09, "vel_east_m_s": 1.77, "vel_down_m_s": 0.0, "battery_remain_pct": 9900.0}
{"t_rx_ms": 1773435035729, "run_id": "20260313_130557", "seq": 597, "pitch_deg": 2.6508, "yaw_deg": 31.6095, "roll_deg": -3.8809, "lat_deg": 34.0434179, "lon_deg": -117.81566319999999, "altitude_rel_ft": 0.0459, "ground_speed_ft_s": 11.6832, "vel_north_m_s": 3.09, "vel_east_m_s": 1.77, "vel_down_m_s": 0.0, "battery_remain_pct": 9900.0}
{"t_rx_ms": 1773435035931, "run_id": "20260313_130557", "seq": 598, "pitch_deg": 2.9586, "yaw_deg": 30.7373, "roll_deg": -4.6062, "lat_deg": 34.0434447, "lon_deg": -117.8156434, "altitude_rel_ft": 0.8661, "ground_speed_ft_s": 11.5012, "vel_north_m_s": 2.99, "vel_east_m_s": 1.83, "vel_down_m_s": 0.07, "battery_remain_pct": 9900.0}
{"t_rx_ms": 1773435036133, "run_id": "20260313_130557", "seq": 599, "pitch_deg": 2.9586, "yaw_deg": 30.7373, "roll_deg": -4.6062, "lat_deg": 34.0434447, "lon_deg": -117.8156434, "altitude_rel_ft": 0.8661, "ground_speed_ft_s": 11.5012, "vel_north_m_s": 2.99, "vel_east_m_s": 1.83, "vel_down_m_s": 0.07, "battery_remain_pct": 9900.0}
{"t_rx_ms": 1773435036333, "run_id": "20260313_130557", "seq": 600, "pitch_deg": 2.9586, "yaw_deg": 30.7373, "roll_deg": -4.6062, "lat_deg": 34.0434447, "lon_deg": -117.8156434, "altitude_rel_ft": 0.8661, "ground_speed_ft_s": 11.5012, "vel_north_m_s": 2.99, "vel_east_m_s": 1.83, "vel_down_m_s": 0.07, "battery_remain_pct": 9900.0}
{"t_rx_ms": 1773435036534, "run_id": "20260313_130557", "seq": 601, "pitch_deg": 2.9586, "yaw_deg": 30.7373, "roll_deg": -4.6062, "lat_deg": 34.0434447, "lon_deg": -117.8156434, "altitude_rel_ft": 0.8661, "ground_speed_ft_s": 11.5012, "vel_north_m_s": 2.99, "vel_east_m_s": 1.83, "vel_down_m_s": 0.07, "battery_remain_pct": 9900.0}
{"t_rx_ms": 1773435036734, "run_id": "20260313_130557", "seq": 602, "pitch_deg": 2.9586, "yaw_deg": 30.7373, "roll_deg": -4.6062, "lat_deg": 34.0434447, "lon_deg": -117.8156434, "altitude_rel_ft": 0.8661, "ground_speed_ft_s": 11.5012, "vel_north_m_s": 2.99, "vel_east_m_s": 1.83, "vel_down_m_s": 0.07, "battery_remain_pct": 9900.0}
{"t_rx_ms": 1773435036935, "run_id": "20260313_130557", "seq": 603, "pitch_deg": 2.5175, "yaw_deg": 31.2318, "roll_deg": -1.9392, "lat_deg": 34.0434722, "lon_deg": -117.8156233, "altitude_rel_ft": 0.0558, "ground_speed_ft_s": 11.7034, "vel_north_m_s": 3.0, "vel_east_m_s": 1.93, "vel_down_m_s": -0.02, "battery_remain_pct": 9900.0}
{"t_rx_ms": 1773435037136, "run_id": "20260313_130557", "seq": 604, "pitch_deg": 2.5175, "yaw_deg": 31.2318, "roll_deg": -1.9392, "lat_deg": 34.0434722, "lon_deg": -117.8156233, "altitude_rel_ft": 0.0558, "ground_speed_ft_s": 11.7034, "vel_north_m_s": 3.0, "vel_east_m_s": 1.93, "vel_down_m_s": -0.02, "battery_remain_pct": 9900.0}
{"t_rx_ms": 1773435037337, "run_id": "20260313_130557", "seq": 605, "pitch_deg": 2.5175, "yaw_deg": 31.2318, "roll_deg": -1.9392, "lat_deg": 34.0434722, "lon_deg": -117.8156233, "altitude_rel_ft": 0.0558, "ground_speed_ft_s": 11.7034, "vel_north_m_s": 3.0, "vel_east_m_s": 1.93, "vel_down_m_s": -0.02, "battery_remain_pct": 9900.0}
{"t_rx_ms": 1773435037538, "run_id": "20260313_130557", "seq": 606, "pitch_deg": 2.5175, "yaw_deg": 31.2318, "roll_deg": -1.9392, "lat_deg": 34.0434722, "lon_deg": -117.8156233, "altitude_rel_ft": 0.0558, "ground_speed_ft_s": 11.7034, "vel_north_m_s": 3.0, "vel_east_m_s": 1.93, "vel_down_m_s": -0.02, "battery_remain_pct": 9900.0}
{"t_rx_ms": 1773435037742, "run_id": "20260313_130557", "seq": 607, "pitch_deg": 2.5175, "yaw_deg": 31.2318, "roll_deg": -1.9392, "lat_deg": 34.0434722, "lon_deg": -117.8156233, "altitude_rel_ft": 0.0558, "ground_speed_ft_s": 11.7034, "vel_north_m_s": 3.0, "vel_east_m_s": 1.93, "vel_down_m_s": -0.02, "battery_remain_pct": 9900.0}
{"t_rx_ms": 1773435037945, "run_id": "20260313_130557", "seq": 608, "pitch_deg": 3.133, "yaw_deg": 31.9986, "roll_deg": -0.2445, "lat_deg": 34.043498899999996, "lon_deg": -117.8156037, "altitude_rel_ft": 0.0656, "ground_speed_ft_s": 11.4768, "vel_north_m_s": 2.95, "vel_east_m_s": 1.88, "vel_down_m_s": 0.09, "battery_remain_pct": 9900.0}
{"t_rx_ms": 1773435038146, "run_id": "20260313_130557", "seq": 609, "pitch_deg": 3.133, "yaw_deg": 31.9986, "roll_deg": -0.2445, "lat_deg": 34.043498899999996, "lon_deg": -117.8156037, "altitude_rel_ft": 0.0656, "ground_speed_ft_s": 11.4768, "vel_north_m_s": 2.95, "vel_east_m_s": 1.88, "vel_down_m_s": 0.09, "battery_remain_pct": 9900.0}
{"t_rx_ms": 1773435038346, "run_id": "20260313_130557", "seq": 610, "pitch_deg": 3.133, "yaw_deg": 31.9986, "roll_deg": -0.2445, "lat_deg": 34.043498899999996, "lon_deg": -117.8156037, "altitude_rel_ft": 0.0656, "ground_speed_ft_s": 11.4768, "vel_north_m_s": 2.95, "vel_east_m_s": 1.88, "vel_down_m_s": 0.09, "battery_remain_pct": 9900.0}
{"t_rx_ms": 1773435038547, "run_id": "20260313_130557", "seq": 611, "pitch_deg": 3.133, "yaw_deg": 31.9986, "roll_deg": -0.2445, "lat_deg": 34.043498899999996, "lon_deg": -117.8156037, "altitude_rel_ft": 0.0656, "ground_speed_ft_s": 11.4768, "vel_north_m_s": 2.95, "vel_east_m_s": 1.88, "vel_down_m_s": 0.09, "battery_remain_pct": 9900.0}
{"t_rx_ms": 1773435038751, "run_id": "20260313_130557", "seq": 612, "pitch_deg": 3.133, "yaw_deg": 31.9986, "roll_deg": -0.2445, "lat_deg": 34.043498899999996, "lon_deg": -117.8156037, "altitude_rel_ft": 0.0656, "ground_speed_ft_s": 11.4768, "vel_north_m_s": 2.95, "vel_east_m_s": 1.88, "vel_down_m_s": 0.09, "battery_remain_pct": 9900.0}
{"t_rx_ms": 1773435038951, "run_id": "20260313_130557", "seq": 613, "pitch_deg": 3.7187, "yaw_deg": 32.7532, "roll_deg": -1.7338, "lat_deg": 34.0435257, "lon_deg": -117.8155834, "altitude_rel_ft": -0.0656, "ground_speed_ft_s": 11.5743, "vel_north_m_s": 3.01, "vel_east_m_s": 1.84, "vel_down_m_s": 0.02, "battery_remain_pct": 9900.0}
{"t_rx_ms": 1773435039152, "run_id": "20260313_130557", "seq": 614, "pitch_deg": 3.7187, "yaw_deg": 32.7532, "roll_deg": -1.7338, "lat_deg": 34.0435257, "lon_deg": -117.8155834, "altitude_rel_ft": -0.0656, "ground_speed_ft_s": 11.5743, "vel_north_m_s": 3.01, "vel_east_m_s": 1.84, "vel_down_m_s": 0.02, "battery_remain_pct": 9900.0}
{"t_rx_ms": 1773435039354, "run_id": "20260313_130557", "seq": 615, "pitch_deg": 3.7187, "yaw_deg": 32.7532, "roll_deg": -1.7338, "lat_deg": 34.0435257, "lon_deg": -117.8155834, "altitude_rel_ft": -0.0656, "ground_speed_ft_s": 11.5743, "vel_north_m_s": 3.01, "vel_east_m_s": 1.84, "vel_down_m_s": 0.02, "battery_remain_pct": 9900.0}
{"t_rx_ms": 1773435039555, "run_id": "20260313_130557", "seq": 616, "pitch_deg": 3.7187, "yaw_deg": 32.7532, "roll_deg": -1.7338, "lat_deg": 34.0435257, "lon_deg": -117.8155834, "altitude_rel_ft": -0.0656, "ground_speed_ft_s": 11.5743, "vel_north_m_s": 3.01, "vel_east_m_s": 1.84, "vel_down_m_s": 0.02, "battery_remain_pct": 9900.0}
{"t_rx_ms": 1773435039755, "run_id": "20260313_130557", "seq": 617, "pitch_deg": 3.7187, "yaw_deg": 32.7532, "roll_deg": -1.7338, "lat_deg": 34.0435257, "lon_deg": -117.8155834, "altitude_rel_ft": -0.0656, "ground_speed_ft_s": 11.5743, "vel_north_m_s": 3.01, "vel_east_m_s": 1.84, "vel_down_m_s": 0.02, "battery_remain_pct": 9900.0}
{"t_rx_ms": 1773435039959, "run_id": "20260313_130557", "seq": 618, "pitch_deg": 4.3805, "yaw_deg": 33.597, "roll_deg": -2.0471, "lat_deg": 34.0435532, "lon_deg": -117.81556099999999, "altitude_rel_ft": 0.771, "ground_speed_ft_s": 12.2759, "vel_north_m_s": 3.09, "vel_east_m_s": 2.11, "vel_down_m_s": -0.06, "battery_remain_pct": 9900.0}
{"t_rx_ms": 1773435040159, "run_id": "20260313_130557", "seq": 619, "pitch_deg": 4.3805, "yaw_deg": 33.597, "roll_deg": -2.0471, "lat_deg": 34.0435532, "lon_deg": -117.81556099999999, "altitude_rel_ft": 0.771, "ground_speed_ft_s": 12.2759, "vel_north_m_s": 3.09, "vel_east_m_s": 2.11, "vel_down_m_s": -0.06, "battery_remain_pct": 9900.0}
{"t_rx_ms": 1773435040360, "run_id": "20260313_130557", "seq": 620, "pitch_deg": 4.3805, "yaw_deg": 33.597, "roll_deg": -2.0471, "lat_deg": 34.0435532, "lon_deg": -117.81556099999999, "altitude_rel_ft": 0.771, "ground_speed_ft_s": 12.2759, "vel_north_m_s": 3.09, "vel_east_m_s": 2.11, "vel_down_m_s": -0.06, "battery_remain_pct": 9900.0}
{"t_rx_ms": 1773435040560, "run_id": "20260313_130557", "seq": 621, "pitch_deg": 4.3805, "yaw_deg": 33.597, "roll_deg": -2.0471, "lat_deg": 34.0435532, "lon_deg": -117.81556099999999, "altitude_rel_ft": 0.771, "ground_speed_ft_s": 12.2759, "vel_north_m_s": 3.09, "vel_east_m_s": 2.11, "vel_down_m_s": -0.06, "battery_remain_pct": 9900.0}
{"t_rx_ms": 1773435040761, "run_id": "20260313_130557", "seq": 622, "pitch_deg": 4.3805, "yaw_deg": 33.597, "roll_deg": -2.0471, "lat_deg": 34.0435532, "lon_deg": -117.81556099999999, "altitude_rel_ft": 0.771, "ground_speed_ft_s": 12.2759, "vel_north_m_s": 3.09, "vel_east_m_s": 2.11, "vel_down_m_s": -0.06, "battery_remain_pct": 9900.0}
{"t_rx_ms": 1773435040963, "run_id": "20260313_130557", "seq": 623, "pitch_deg": 3.6651, "yaw_deg": 34.1476, "roll_deg": -1.5558, "lat_deg": 34.0435826, "lon_deg": -117.81553729999999, "altitude_rel_ft": 0.7021, "ground_speed_ft_s": 13.2052, "vel_north_m_s": 3.31, "vel_east_m_s": 2.29, "vel_down_m_s": -0.09, "battery_remain_pct": 9900.0}
{"t_rx_ms": 1773435041164, "run_id": "20260313_130557", "seq": 624, "pitch_deg": 3.6651, "yaw_deg": 34.1476, "roll_deg": -1.5558, "lat_deg": 34.0435826, "lon_deg": -117.81553729999999, "altitude_rel_ft": 0.7021, "ground_speed_ft_s": 13.2052, "vel_north_m_s": 3.31, "vel_east_m_s": 2.29, "vel_down_m_s": -0.09, "battery_remain_pct": 9900.0}
{"t_rx_ms": 1773435041367, "run_id": "20260313_130557", "seq": 625, "pitch_deg": 3.6651, "yaw_deg": 34.1476, "roll_deg": -1.5558, "lat_deg": 34.0435826, "lon_deg": -117.81553729999999, "altitude_rel_ft": 0.7021, "ground_speed_ft_s": 13.2052, "vel_north_m_s": 3.31, "vel_east_m_s": 2.29, "vel_down_m_s": -0.09, "battery_remain_pct": 9900.0}
{"t_rx_ms": 1773435041572, "run_id": "20260313_130557", "seq": 626, "pitch_deg": 3.6651, "yaw_deg": 34.1476, "roll_deg": -1.5558, "lat_deg": 34.0435826, "lon_deg": -117.81553729999999, "altitude_rel_ft": 0.7021, "ground_speed_ft_s": 13.2052, "vel_north_m_s": 3.31, "vel_east_m_s": 2.29, "vel_down_m_s": -0.09, "battery_remain_pct": 9900.0}
{"t_rx_ms": 1773435041772, "run_id": "20260313_130557", "seq": 627, "pitch_deg": 3.6651, "yaw_deg": 34.1476, "roll_deg": -1.5558, "lat_deg": 34.0435826, "lon_deg": -117.81553729999999, "altitude_rel_ft": 0.7021, "ground_speed_ft_s": 13.2052, "vel_north_m_s": 3.31, "vel_east_m_s": 2.29, "vel_down_m_s": -0.09, "battery_remain_pct": 9900.0}
{"t_rx_ms": 1773435041975, "run_id": "20260313_130557", "seq": 628, "pitch_deg": 2.384, "yaw_deg": 34.3761, "roll_deg": -1.6361, "lat_deg": 34.043614399999996, "lon_deg": -117.815512, "altitude_rel_ft": 0.2297, "ground_speed_ft_s": 13.9585, "vel_north_m_s": 3.54, "vel_east_m_s": 2.36, "vel_down_m_s": -0.18, "battery_remain_pct": 9900.0}
{"t_rx_ms": 1773435042176, "run_id": "20260313_130557", "seq": 629, "pitch_deg": 2.384, "yaw_deg": 34.3761, "roll_deg": -1.6361, "lat_deg": 34.043614399999996, "lon_deg": -117.815512, "altitude_rel_ft": 0.2297, "ground_speed_ft_s": 13.9585, "vel_north_m_s": 3.54, "vel_east_m_s": 2.36, "vel_down_m_s": -0.18, "battery_remain_pct": 9900.0}
{"t_rx_ms": 1773435042376, "run_id": "20260313_130557", "seq": 630, "pitch_deg": 2.384, "yaw_deg": 34.3761, "roll_deg": -1.6361, "lat_deg": 34.043614399999996, "lon_deg": -117.815512, "altitude_rel_ft": 0.2297, "ground_speed_ft_s": 13.9585, "vel_north_m_s": 3.54, "vel_east_m_s": 2.36, "vel_down_m_s": -0.18, "battery_remain_pct": 9900.0}
{"t_rx_ms": 1773435042582, "run_id": "20260313_130557", "seq": 631, "pitch_deg": 2.384, "yaw_deg": 34.3761, "roll_deg": -1.6361, "lat_deg": 34.043614399999996, "lon_deg": -117.815512, "altitude_rel_ft": 0.2297, "ground_speed_ft_s": 13.9585, "vel_north_m_s": 3.54, "vel_east_m_s": 2.36, "vel_down_m_s": -0.18, "battery_remain_pct": 9900.0}
{"t_rx_ms": 1773435042782, "run_id": "20260313_130557", "seq": 632, "pitch_deg": 2.384, "yaw_deg": 34.3761, "roll_deg": -1.6361, "lat_deg": 34.043614399999996, "lon_deg": -117.815512, "altitude_rel_ft": 0.2297, "ground_speed_ft_s": 13.9585, "vel_north_m_s": 3.54, "vel_east_m_s": 2.36, "vel_down_m_s": -0.18, "battery_remain_pct": 9900.0}
{"t_rx_ms": 1773435042983, "run_id": "20260313_130557", "seq": 633, "pitch_deg": 3.3868, "yaw_deg": 34.4643, "roll_deg": -1.9373, "lat_deg": 34.0436468, "lon_deg": -117.8154848, "altitude_rel_ft": 0.0656, "ground_speed_ft_s": 14.5409, "vel_north_m_s": 3.68, "vel_east_m_s": 2.47, "vel_down_m_s": -0.12, "battery_remain_pct": 9900.0}
{"t_rx_ms": 1773435043184, "run_id": "20260313_130557", "seq": 634, "pitch_deg": 3.3868, "yaw_deg": 34.4643, "roll_deg": -1.9373, "lat_deg": 34.0436468, "lon_deg": -117.8154848, "altitude_rel_ft": 0.0656, "ground_speed_ft_s": 14.5409, "vel_north_m_s": 3.68, "vel_east_m_s": 2.47, "vel_down_m_s": -0.12, "battery_remain_pct": 9900.0}
{"t_rx_ms": 1773435043384, "run_id": "20260313_130557", "seq": 635, "pitch_deg": 3.3868, "yaw_deg": 34.4643, "roll_deg": -1.9373, "lat_deg": 34.0436468, "lon_deg": -117.8154848, "altitude_rel_ft": 0.0656, "ground_speed_ft_s": 14.5409, "vel_north_m_s": 3.68, "vel_east_m_s": 2.47, "vel_down_m_s": -0.12, "battery_remain_pct": 9900.0}
{"t_rx_ms": 1773435043588, "run_id": "20260313_130557", "seq": 636, "pitch_deg": 3.3868, "yaw_deg": 34.4643, "roll_deg": -1.9373, "lat_deg": 34.0436468, "lon_deg": -117.8154848, "altitude_rel_ft": 0.0656, "ground_speed_ft_s": 14.5409, "vel_north_m_s": 3.68, "vel_east_m_s": 2.47, "vel_down_m_s": -0.12, "battery_remain_pct": 9900.0}
{"t_rx_ms": 1773435043789, "run_id": "20260313_130557", "seq": 637, "pitch_deg": 3.3868, "yaw_deg": 34.4643, "roll_deg": -1.9373, "lat_deg": 34.0436468, "lon_deg": -117.8154848, "altitude_rel_ft": 0.0656, "ground_speed_ft_s": 14.5409, "vel_north_m_s": 3.68, "vel_east_m_s": 2.47, "vel_down_m_s": -0.12, "battery_remain_pct": 9900.0}
{"t_rx_ms": 1773435043992, "run_id": "20260313_130557", "seq": 638, "pitch_deg": 4.1326, "yaw_deg": 35.0001, "roll_deg": -0.7806, "lat_deg": 34.043680099999996, "lon_deg": -117.8154565, "altitude_rel_ft": 0.3346, "ground_speed_ft_s": 14.9023, "vel_north_m_s": 3.66, "vel_east_m_s": 2.69, "vel_down_m_s": -0.07, "battery_remain_pct": 9900.0}
{"t_rx_ms": 1773435044192, "run_id": "20260313_130557", "seq": 639, "pitch_deg": 4.1326, "yaw_deg": 35.0001, "roll_deg": -0.7806, "lat_deg": 34.043680099999996, "lon_deg": -117.8154565, "altitude_rel_ft": 0.3346, "ground_speed_ft_s": 14.9023, "vel_north_m_s": 3.66, "vel_east_m_s": 2.69, "vel_down_m_s": -0.07, "battery_remain_pct": 9900.0}
{"t_rx_ms": 1773435044393, "run_id": "20260313_130557", "seq": 640, "pitch_deg": 4.1326, "yaw_deg": 35.0001, "roll_deg": -0.7806, "lat_deg": 34.043680099999996, "lon_deg": -117.8154565, "altitude_rel_ft": 0.3346, "ground_speed_ft_s": 14.9023, "vel_north_m_s": 3.66, "vel_east_m_s": 2.69, "vel_down_m_s": -0.07, "battery_remain_pct": 9900.0}
{"t_rx_ms": 1773435044593, "run_id": "20260313_130557", "seq": 641, "pitch_deg": 4.1326, "yaw_deg": 35.0001, "roll_deg": -0.7806, "lat_deg": 34.043680099999996, "lon_deg": -117.8154565, "altitude_rel_ft": 0.3346, "ground_speed_ft_s": 14.9023, "vel_north_m_s": 3.66, "vel_east_m_s": 2.69, "vel_down_m_s": -0.07, "battery_remain_pct": 9900.0}
{"t_rx_ms": 1773435044794, "run_id": "20260313_130557", "seq": 642, "pitch_deg": 4.1326, "yaw_deg": 35.0001, "roll_deg": -0.7806, "lat_deg": 34.043680099999996, "lon_deg": -117.8154565, "altitude_rel_ft": 0.3346, "ground_speed_ft_s": 14.9023, "vel_north_m_s": 3.66, "vel_east_m_s": 2.69, "vel_down_m_s": -0.07, "battery_remain_pct": 9900.0}
{"t_rx_ms": 1773435044994, "run_id": "20260313_130557", "seq": 643, "pitch_deg": 4.1436, "yaw_deg": 35.149, "roll_deg": 0.0845, "lat_deg": 34.0437121, "lon_deg": -117.81543029999999, "altitude_rel_ft": 1.1352, "ground_speed_ft_s": 13.8637, "vel_north_m_s": 3.45, "vel_east_m_s": 2.44, "vel_down_m_s": -0.08, "battery_remain_pct": 9900.0}
{"t_rx_ms": 1773435045197, "run_id": "20260313_130557", "seq": 644, "pitch_deg": 4.1436, "yaw_deg": 35.149, "roll_deg": 0.0845, "lat_deg": 34.0437121, "lon_deg": -117.81543029999999, "altitude_rel_ft": 1.1352, "ground_speed_ft_s": 13.8637, "vel_north_m_s": 3.45, "vel_east_m_s": 2.44, "vel_down_m_s": -0.08, "battery_remain_pct": 9900.0}
{"t_rx_ms": 1773435045398, "run_id": "20260313_130557", "seq": 645, "pitch_deg": 4.1436, "yaw_deg": 35.149, "roll_deg": 0.0845, "lat_deg": 34.0437121, "lon_deg": -117.81543029999999, "altitude_rel_ft": 1.1352, "ground_speed_ft_s": 13.8637, "vel_north_m_s": 3.45, "vel_east_m_s": 2.44, "vel_down_m_s": -0.08, "battery_remain_pct": 9900.0}
{"t_rx_ms": 1773435045598, "run_id": "20260313_130557", "seq": 646, "pitch_deg": 4.1436, "yaw_deg": 35.149, "roll_deg": 0.0845, "lat_deg": 34.0437121, "lon_deg": -117.81543029999999, "altitude_rel_ft": 1.1352, "ground_speed_ft_s": 13.8637, "vel_north_m_s": 3.45, "vel_east_m_s": 2.44, "vel_down_m_s": -0.08, "battery_remain_pct": 9900.0}
{"t_rx_ms": 1773435045799, "run_id": "20260313_130557", "seq": 647, "pitch_deg": 4.1436, "yaw_deg": 35.149, "roll_deg": 0.0845, "lat_deg": 34.0437121, "lon_deg": -117.81543029999999, "altitude_rel_ft": 1.1352, "ground_speed_ft_s": 13.8637, "vel_north_m_s": 3.45, "vel_east_m_s": 2.44, "vel_down_m_s": -0.08, "battery_remain_pct": 9900.0}
{"t_rx_ms": 1773435046001, "run_id": "20260313_130557", "seq": 648, "pitch_deg": 4.8827, "yaw_deg": 35.2252, "roll_deg": -2.2889, "lat_deg": 34.0437406, "lon_deg": -117.8154065, "altitude_rel_ft": 0.8661, "ground_speed_ft_s": 12.4499, "vel_north_m_s": 3.12, "vel_east_m_s": 2.16, "vel_down_m_s": -0.13, "battery_remain_pct": 9900.0}
{"t_rx_ms": 1773435046201, "run_id": "20260313_130557", "seq": 649, "pitch_deg": 4.8827, "yaw_deg": 35.2252, "roll_deg": -2.2889, "lat_deg": 34.0437406, "lon_deg": -117.8154065, "altitude_rel_ft": 0.8661, "ground_speed_ft_s": 12.4499, "vel_north_m_s": 3.12, "vel_east_m_s": 2.16, "vel_down_m_s": -0.13, "battery_remain_pct": 9900.0}
{"t_rx_ms": 1773435046402, "run_id": "20260313_130557", "seq": 650, "pitch_deg": 4.8827, "yaw_deg": 35.2252, "roll_deg": -2.2889, "lat_deg": 34.0437406, "lon_deg": -117.8154065, "altitude_rel_ft": 0.8661, "ground_speed_ft_s": 12.4499, "vel_north_m_s": 3.12, "vel_east_m_s": 2.16, "vel_down_m_s": -0.13, "battery_remain_pct": 9900.0}
{"t_rx_ms": 1773435046605, "run_id": "20260313_130557", "seq": 651, "pitch_deg": 4.8827, "yaw_deg": 35.2252, "roll_deg": -2.2889, "lat_deg": 34.0437406, "lon_deg": -117.8154065, "altitude_rel_ft": 0.8661, "ground_speed_ft_s": 12.4499, "vel_north_m_s": 3.12, "vel_east_m_s": 2.16, "vel_down_m_s": -0.13, "battery_remain_pct": 9900.0}
{"t_rx_ms": 1773435046808, "run_id": "20260313_130557", "seq": 652, "pitch_deg": 4.8827, "yaw_deg": 35.2252, "roll_deg": -2.2889, "lat_deg": 34.0437406, "lon_deg": -117.8154065, "altitude_rel_ft": 0.8661, "ground_speed_ft_s": 12.4499, "vel_north_m_s": 3.12, "vel_east_m_s": 2.16, "vel_down_m_s": -0.13, "battery_remain_pct": 9900.0}
{"t_rx_ms": 1773435047008, "run_id": "20260313_130557", "seq": 653, "pitch_deg": 4.4402, "yaw_deg": 35.4507, "roll_deg": 0.2518, "lat_deg": 34.0437684, "lon_deg": -117.81538289999999, "altitude_rel_ft": 0.5085, "ground_speed_ft_s": 12.494, "vel_north_m_s": 3.15, "vel_east_m_s": 2.14, "vel_down_m_s": 0.08, "battery_remain_pct": 9900.0}
{"t_rx_ms": 1773435047209, "run_id": "20260313_130557", "seq": 654, "pitch_deg": 4.4402, "yaw_deg": 35.4507, "roll_deg": 0.2518, "lat_deg": 34.0437684, "lon_deg": -117.81538289999999, "altitude_rel_ft": 0.5085, "ground_speed_ft_s": 12.494, "vel_north_m_s": 3.15, "vel_east_m_s": 2.14, "vel_down_m_s": 0.08, "battery_remain_pct": 9900.0}
{"t_rx_ms": 1773435047409, "run_id": "20260313_130557", "seq": 655, "pitch_deg": 4.4402, "yaw_deg": 35.4507, "roll_deg": 0.2518, "lat_deg": 34.0437684, "lon_deg": -117.81538289999999, "altitude_rel_ft": 0.5085, "ground_speed_ft_s": 12.494, "vel_north_m_s": 3.15, "vel_east_m_s": 2.14, "vel_down_m_s": 0.08, "battery_remain_pct": 9900.0}
{"t_rx_ms": 1773435047610, "run_id": "20260313_130557", "seq": 656, "pitch_deg": 4.4402, "yaw_deg": 35.4507, "roll_deg": 0.2518, "lat_deg": 34.0437684, "lon_deg": -117.81538289999999, "altitude_rel_ft": 0.5085, "ground_speed_ft_s": 12.494, "vel_north_m_s": 3.15, "vel_east_m_s": 2.14, "vel_down_m_s": 0.08, "battery_remain_pct": 9900.0}
{"t_rx_ms": 1773435047811, "run_id": "20260313_130557", "seq": 657, "pitch_deg": 4.4402, "yaw_deg": 35.4507, "roll_deg": 0.2518, "lat_deg": 34.0437684, "lon_deg": -117.81538289999999, "altitude_rel_ft": 0.5085, "ground_speed_ft_s": 12.494, "vel_north_m_s": 3.15, "vel_east_m_s": 2.14, "vel_down_m_s": 0.08, "battery_remain_pct": 9900.0}
{"t_rx_ms": 1773435048012, "run_id": "20260313_130557", "seq": 658, "pitch_deg": 6.0851, "yaw_deg": 36.3822, "roll_deg": 0.0616, "lat_deg": 34.0437941, "lon_deg": -117.8153591, "altitude_rel_ft": -0.2887, "ground_speed_ft_s": 11.4896, "vel_north_m_s": 2.81, "vel_east_m_s": 2.09, "vel_down_m_s": -0.05, "battery_remain_pct": 9900.0}
{"t_rx_ms": 1773435048212, "run_id": "20260313_130557", "seq": 659, "pitch_deg": 6.0851, "yaw_deg": 36.3822, "roll_deg": 0.0616, "lat_deg": 34.0437941, "lon_deg": -117.8153591, "altitude_rel_ft": -0.2887, "ground_speed_ft_s": 11.4896, "vel_north_m_s": 2.81, "vel_east_m_s": 2.09, "vel_down_m_s": -0.05, "battery_remain_pct": 9900.0}
{"t_rx_ms": 1773435048413, "run_id": "20260313_130557", "seq": 660, "pitch_deg": 6.0851, "yaw_deg": 36.3822, "roll_deg": 0.0616, "lat_deg": 34.0437941, "lon_deg": -117.8153591, "altitude_rel_ft": -0.2887, "ground_speed_ft_s": 11.4896, "vel_north_m_s": 2.81, "vel_east_m_s": 2.09, "vel_down_m_s": -0.05, "battery_remain_pct": 9900.0}
{"t_rx_ms": 1773435048614, "run_id": "20260313_130557", "seq": 661, "pitch_deg": 6.0851, "yaw_deg": 36.3822, "roll_deg": 0.0616, "lat_deg": 34.0437941, "lon_deg": -117.8153591, "altitude_rel_ft": -0.2887, "ground_speed_ft_s": 11.4896, "vel_north_m_s": 2.81, "vel_east_m_s": 2.09, "vel_down_m_s": -0.05, "battery_remain_pct": 9900.0}
{"t_rx_ms": 1773435048815, "run_id": "20260313_130557", "seq": 662, "pitch_deg": 6.0851, "yaw_deg": 36.3822, "roll_deg": 0.0616, "lat_deg": 34.0437941, "lon_deg": -117.8153591, "altitude_rel_ft": -0.2887, "ground_speed_ft_s": 11.4896, "vel_north_m_s": 2.81, "vel_east_m_s": 2.09, "vel_down_m_s": -0.05, "battery_remain_pct": 9900.0}
{"t_rx_ms": 1773435049019, "run_id": "20260313_130557", "seq": 663, "pitch_deg": 7.7434, "yaw_deg": 37.3566, "roll_deg": -0.8478, "lat_deg": 34.0438191, "lon_deg": -117.8153356, "altitude_rel_ft": -1.0696, "ground_speed_ft_s": 11.7438, "vel_north_m_s": 2.8, "vel_east_m_s": 2.23, "vel_down_m_s": -0.09, "battery_remain_pct": 9900.0}
{"t_rx_ms": 1773435049220, "run_id": "20260313_130557", "seq": 664, "pitch_deg": 7.7434, "yaw_deg": 37.3566, "roll_deg": -0.8478, "lat_deg": 34.0438191, "lon_deg": -117.8153356, "altitude_rel_ft": -1.0696, "ground_speed_ft_s": 11.7438, "vel_north_m_s": 2.8, "vel_east_m_s": 2.23, "vel_down_m_s": -0.09, "battery_remain_pct": 9900.0}
{"t_rx_ms": 1773435049421, "run_id": "20260313_130557", "seq": 665, "pitch_deg": 7.7434, "yaw_deg": 37.3566, "roll_deg": -0.8478, "lat_deg": 34.0438191, "lon_deg": -117.8153356, "altitude_rel_ft": -1.0696, "ground_speed_ft_s": 11.7438, "vel_north_m_s": 2.8, "vel_east_m_s": 2.23, "vel_down_m_s": -0.09, "battery_remain_pct": 9900.0}
{"t_rx_ms": 1773435049621, "run_id": "20260313_130557", "seq": 666, "pitch_deg": 7.7434, "yaw_deg": 37.3566, "roll_deg": -0.8478, "lat_deg": 34.0438191, "lon_deg": -117.8153356, "altitude_rel_ft": -1.0696, "ground_speed_ft_s": 11.7438, "vel_north_m_s": 2.8, "vel_east_m_s": 2.23, "vel_down_m_s": -0.09, "battery_remain_pct": 9900.0}
{"t_rx_ms": 1773435049822, "run_id": "20260313_130557", "seq": 667, "pitch_deg": 7.7434, "yaw_deg": 37.3566, "roll_deg": -0.8478, "lat_deg": 34.0438191, "lon_deg": -117.8153356, "altitude_rel_ft": -1.0696, "ground_speed_ft_s": 11.7438, "vel_north_m_s": 2.8, "vel_east_m_s": 2.23, "vel_down_m_s": -0.09, "battery_remain_pct": 9900.0}
{"t_rx_ms": 1773435050023, "run_id": "20260313_130557", "seq": 668, "pitch_deg": 6.1337, "yaw_deg": 38.2831, "roll_deg": -1.8987, "lat_deg": 34.0438445, "lon_deg": -117.8153117, "altitude_rel_ft": -0.5676, "ground_speed_ft_s": 11.8565, "vel_north_m_s": 2.82, "vel_east_m_s": 2.26, "vel_down_m_s": -0.02, "battery_remain_pct": 9900.0}
{"t_rx_ms": 1773435050225, "run_id": "20260313_130557", "seq": 669, "pitch_deg": 6.1337, "yaw_deg": 38.2831, "roll_deg": -1.8987, "lat_deg": 34.0438445, "lon_deg": -117.8153117, "altitude_rel_ft": -0.5676, "ground_speed_ft_s": 11.8565, "vel_north_m_s": 2.82, "vel_east_m_s": 2.26, "vel_down_m_s": -0.02, "battery_remain_pct": 9900.0}
{"t_rx_ms": 1773435050427, "run_id": "20260313_130557", "seq": 670, "pitch_deg": 6.1337, "yaw_deg": 38.2831, "roll_deg": -1.8987, "lat_deg": 34.0438445, "lon_deg": -117.8153117, "altitude_rel_ft": -0.5676, "ground_speed_ft_s": 11.8565, "vel_north_m_s": 2.82, "vel_east_m_s": 2.26, "vel_down_m_s": -0.02, "battery_remain_pct": 9900.0}
{"t_rx_ms": 1773435050627, "run_id": "20260313_130557", "seq": 671, "pitch_deg": 6.1337, "yaw_deg": 38.2831, "roll_deg": -1.8987, "lat_deg": 34.0438445, "lon_deg": -117.8153117, "altitude_rel_ft": -0.5676, "ground_speed_ft_s": 11.8565, "vel_north_m_s": 2.82, "vel_east_m_s": 2.26, "vel_down_m_s": -0.02, "battery_remain_pct": 9900.0}
{"t_rx_ms": 1773435050828, "run_id": "20260313_130557", "seq": 672, "pitch_deg": 6.1337, "yaw_deg": 38.2831, "roll_deg": -1.8987, "lat_deg": 34.0438445, "lon_deg": -117.8153117, "altitude_rel_ft": -0.5676, "ground_speed_ft_s": 11.8565, "vel_north_m_s": 2.82, "vel_east_m_s": 2.26, "vel_down_m_s": -0.02, "battery_remain_pct": 9900.0}
{"t_rx_ms": 1773435051028, "run_id": "20260313_130557", "seq": 673, "pitch_deg": 5.2097, "yaw_deg": 39.5383, "roll_deg": 0.0534, "lat_deg": 34.0438713, "lon_deg": -117.815286, "altitude_rel_ft": -0.981, "ground_speed_ft_s": 12.3536, "vel_north_m_s": 2.95, "vel_east_m_s": 2.34, "vel_down_m_s": 0.0, "battery_remain_pct": 9900.0}
{"t_rx_ms": 1773435051231, "run_id": "20260313_130557", "seq": 674, "pitch_deg": 5.2097, "yaw_deg": 39.5383, "roll_deg": 0.0534, "lat_deg": 34.0438713, "lon_deg": -117.815286, "altitude_rel_ft": -0.981, "ground_speed_ft_s": 12.3536, "vel_north_m_s": 2.95, "vel_east_m_s": 2.34, "vel_down_m_s": 0.0, "battery_remain_pct": 9900.0}
{"t_rx_ms": 1773435051431, "run_id": "20260313_130557", "seq": 675, "pitch_deg": 5.2097, "yaw_deg": 39.5383, "roll_deg": 0.0534, "lat_deg": 34.0438713, "lon_deg": -117.815286, "altitude_rel_ft": -0.981, "ground_speed_ft_s": 12.3536, "vel_north_m_s": 2.95, "vel_east_m_s": 2.34, "vel_down_m_s": 0.0, "battery_remain_pct": 9900.0}
{"t_rx_ms": 1773435051632, "run_id": "20260313_130557", "seq": 676, "pitch_deg": 5.2097, "yaw_deg": 39.5383, "roll_deg": 0.0534, "lat_deg": 34.0438713, "lon_deg": -117.815286, "altitude_rel_ft": -0.981, "ground_speed_ft_s": 12.3536, "vel_north_m_s": 2.95, "vel_east_m_s": 2.34, "vel_down_m_s": 0.0, "battery_remain_pct": 9900.0}
{"t_rx_ms": 1773435051836, "run_id": "20260313_130557", "seq": 677, "pitch_deg": 5.2097, "yaw_deg": 39.5383, "roll_deg": 0.0534, "lat_deg": 34.0438713, "lon_deg": -117.815286, "altitude_rel_ft": -0.981, "ground_speed_ft_s": 12.3536, "vel_north_m_s": 2.95, "vel_east_m_s": 2.34, "vel_down_m_s": 0.0, "battery_remain_pct": 9900.0}
{"t_rx_ms": 1773435052038, "run_id": "20260313_130557", "seq": 678, "pitch_deg": 6.6884, "yaw_deg": 41.4721, "roll_deg": 0.1609, "lat_deg": 34.0438968, "lon_deg": -117.815259, "altitude_rel_ft": -0.1903, "ground_speed_ft_s": 12.1517, "vel_north_m_s": 2.76, "vel_east_m_s": 2.47, "vel_down_m_s": -0.08, "battery_remain_pct": 9900.0}
{"t_rx_ms": 1773435052239, "run_id": "20260313_130557", "seq": 679, "pitch_deg": 6.6884, "yaw_deg": 41.4721, "roll_deg": 0.1609, "lat_deg": 34.0438968, "lon_deg": -117.815259, "altitude_rel_ft": -0.1903, "ground_speed_ft_s": 12.1517, "vel_north_m_s": 2.76, "vel_east_m_s": 2.47, "vel_down_m_s": -0.08, "battery_remain_pct": 9900.0}
{"t_rx_ms": 1773435052440, "run_id": "20260313_130557", "seq": 680, "pitch_deg": 6.6884, "yaw_deg": 41.4721, "roll_deg": 0.1609, "lat_deg": 34.0438968, "lon_deg": -117.815259, "altitude_rel_ft": -0.1903, "ground_speed_ft_s": 12.1517, "vel_north_m_s": 2.76, "vel_east_m_s": 2.47, "vel_down_m_s": -0.08, "battery_remain_pct": 9900.0}
{"t_rx_ms": 1773435052642, "run_id": "20260313_130557", "seq": 681, "pitch_deg": 6.6884, "yaw_deg": 41.4721, "roll_deg": 0.1609, "lat_deg": 34.0438968, "lon_deg": -117.815259, "altitude_rel_ft": -0.1903, "ground_speed_ft_s": 12.1517, "vel_north_m_s": 2.76, "vel_east_m_s": 2.47, "vel_down_m_s": -0.08, "battery_remain_pct": 9900.0}
{"t_rx_ms": 1773435052844, "run_id": "20260313_130557", "seq": 682, "pitch_deg": 6.6884, "yaw_deg": 41.4721, "roll_deg": 0.1609, "lat_deg": 34.0438968, "lon_deg": -117.815259, "altitude_rel_ft": -0.1903, "ground_speed_ft_s": 12.1517, "vel_north_m_s": 2.76, "vel_east_m_s": 2.47, "vel_down_m_s": -0.08, "battery_remain_pct": 9900.0}
{"t_rx_ms": 1773435053044, "run_id": "20260313_130557", "seq": 683, "pitch_deg": 5.991, "yaw_deg": 43.6643, "roll_deg": 0.4163, "lat_deg": 34.0439207, "lon_deg": -117.8152326, "altitude_rel_ft": -0.0262, "ground_speed_ft_s": 11.6743, "vel_north_m_s": 2.59, "vel_east_m_s": 2.44, "vel_down_m_s": -0.08, "battery_remain_pct": 9900.0}
{"t_rx_ms": 1773435053245, "run_id": "20260313_130557", "seq": 684, "pitch_deg": 5.991, "yaw_deg": 43.6643, "roll_deg": 0.4163, "lat_deg": 34.0439207, "lon_deg": -117.8152326, "altitude_rel_ft": -0.0262, "ground_speed_ft_s": 11.6743, "vel_north_m_s": 2.59, "vel_east_m_s": 2.44, "vel_down_m_s": -0.08, "battery_remain_pct": 9900.0}
{"t_rx_ms": 1773435053449, "run_id": "20260313_130557", "seq": 685, "pitch_deg": 5.991, "yaw_deg": 43.6643, "roll_deg": 0.4163, "lat_deg": 34.0439207, "lon_deg": -117.8152326, "altitude_rel_ft": -0.0262, "ground_speed_ft_s": 11.6743, "vel_north_m_s": 2.59, "vel_east_m_s": 2.44, "vel_down_m_s": -0.08, "battery_remain_pct": 9900.0}
{"t_rx_ms": 1773435053649, "run_id": "20260313_130557", "seq": 686, "pitch_deg": 5.991, "yaw_deg": 43.6643, "roll_deg": 0.4163, "lat_deg": 34.0439207, "lon_deg": -117.8152326, "altitude_rel_ft": -0.0262, "ground_speed_ft_s": 11.6743, "vel_north_m_s": 2.59, "vel_east_m_s": 2.44, "vel_down_m_s": -0.08, "battery_remain_pct": 9900.0}
{"t_rx_ms": 1773435053850, "run_id": "20260313_130557", "seq": 687, "pitch_deg": 5.991, "yaw_deg": 43.6643, "roll_deg": 0.4163, "lat_deg": 34.0439207, "lon_deg": -117.8152326, "altitude_rel_ft": -0.0262, "ground_speed_ft_s": 11.6743, "vel_north_m_s": 2.59, "vel_east_m_s": 2.44, "vel_down_m_s": -0.08, "battery_remain_pct": 9900.0}
{"t_rx_ms": 1773435054051, "run_id": "20260313_130557", "seq": 688, "pitch_deg": 5.0999, "yaw_deg": 46.2249, "roll_deg": 1.3533, "lat_deg": 34.043943899999995, "lon_deg": -117.81520499999999, "altitude_rel_ft": 0.1706, "ground_speed_ft_s": 11.833, "vel_north_m_s": 2.51, "vel_east_m_s": 2.59, "vel_down_m_s": 0.12, "battery_remain_pct": 9900.0}
{"t_rx_ms": 1773435054252, "run_id": "20260313_130557", "seq": 689, "pitch_deg": 5.0999, "yaw_deg": 46.2249, "roll_deg": 1.3533, "lat_deg": 34.043943899999995, "lon_deg": -117.81520499999999, "altitude_rel_ft": 0.1706, "ground_speed_ft_s": 11.833, "vel_north_m_s": 2.51, "vel_east_m_s": 2.59, "vel_down_m_s": 0.12, "battery_remain_pct": 9900.0}
{"t_rx_ms": 1773435054453, "run_id": "20260313_130557", "seq": 690, "pitch_deg": 5.0999, "yaw_deg": 46.2249, "roll_deg": 1.3533, "lat_deg": 34.043943899999995, "lon_deg": -117.81520499999999, "altitude_rel_ft": 0.1706, "ground_speed_ft_s": 11.833, "vel_north_m_s": 2.51, "vel_east_m_s": 2.59, "vel_down_m_s": 0.12, "battery_remain_pct": 9900.0}
{"t_rx_ms": 1773435054654, "run_id": "20260313_130557", "seq": 691, "pitch_deg": 5.0999, "yaw_deg": 46.2249, "roll_deg": 1.3533, "lat_deg": 34.043943899999995, "lon_deg": -117.81520499999999, "altitude_rel_ft": 0.1706, "ground_speed_ft_s": 11.833, "vel_north_m_s": 2.51, "vel_east_m_s": 2.59, "vel_down_m_s": 0.12, "battery_remain_pct": 9900.0}
{"t_rx_ms": 1773435054855, "run_id": "20260313_130557", "seq": 692, "pitch_deg": 5.0999, "yaw_deg": 46.2249, "roll_deg": 1.3533, "lat_deg": 34.043943899999995, "lon_deg": -117.81520499999999, "altitude_rel_ft": 0.1706, "ground_speed_ft_s": 11.833, "vel_north_m_s": 2.51, "vel_east_m_s": 2.59, "vel_down_m_s": 0.12, "battery_remain_pct": 9900.0}
{"t_rx_ms": 1773435055056, "run_id": "20260313_130557", "seq": 693, "pitch_deg": 6.5839, "yaw_deg": 48.3542, "roll_deg": -1.23, "lat_deg": 34.0439662, "lon_deg": -117.81517489999999, "altitude_rel_ft": 0.5282, "ground_speed_ft_s": 12.5618, "vel_north_m_s": 2.5, "vel_east_m_s": 2.9, "vel_down_m_s": 0.05, "battery_remain_pct": 9900.0}
{"t_rx_ms": 1773435055257, "run_id": "20260313_130557", "seq": 694, "pitch_deg": 6.5839, "yaw_deg": 48.3542, "roll_deg": -1.23, "lat_deg": 34.0439662, "lon_deg": -117.81517489999999, "altitude_rel_ft": 0.5282, "ground_speed_ft_s": 12.5618, "vel_north_m_s": 2.5, "vel_east_m_s": 2.9, "vel_down_m_s": 0.05, "battery_remain_pct": 9900.0}
{"t_rx_ms": 1773435055457, "run_id": "20260313_130557", "seq": 695, "pitch_deg": 6.5839, "yaw_deg": 48.3542, "roll_deg": -1.23, "lat_deg": 34.0439662, "lon_deg": -117.81517489999999, "altitude_rel_ft": 0.5282, "ground_speed_ft_s": 12.5618, "vel_north_m_s": 2.5, "vel_east_m_s": 2.9, "vel_down_m_s": 0.05, "battery_remain_pct": 9900.0}
{"t_rx_ms": 1773435055660, "run_id": "20260313_130557", "seq": 696, "pitch_deg": 6.5839, "yaw_deg": 48.3542, "roll_deg": -1.23, "lat_deg": 34.0439662, "lon_deg": -117.81517489999999, "altitude_rel_ft": 0.5282, "ground_speed_ft_s": 12.5618, "vel_north_m_s": 2.5, "vel_east_m_s": 2.9, "vel_down_m_s": 0.05, "battery_remain_pct": 9900.0}
{"t_rx_ms": 1773435055860, "run_id": "20260313_130557", "seq": 697, "pitch_deg": 6.5839, "yaw_deg": 48.3542, "roll_deg": -1.23, "lat_deg": 34.0439662, "lon_deg": -117.81517489999999, "altitude_rel_ft": 0.5282, "ground_speed_ft_s": 12.5618, "vel_north_m_s": 2.5, "vel_east_m_s": 2.9, "vel_down_m_s": 0.05, "battery_remain_pct": 9900.0}
{"t_rx_ms": 1773435056062, "run_id": "20260313_130557", "seq": 698, "pitch_deg": 4.2091, "yaw_deg": 50.7585, "roll_deg": -0.3363, "lat_deg": 34.043990099999995, "lon_deg": -117.8151415, "altitude_rel_ft": 0.7907, "ground_speed_ft_s": 13.7077, "vel_north_m_s": 2.71, "vel_east_m_s": 3.18, "vel_down_m_s": 0.0, "battery_remain_pct": 9900.0}
{"t_rx_ms": 1773435056262, "run_id": "20260313_130557", "seq": 699, "pitch_deg": 4.2091, "yaw_deg": 50.7585, "roll_deg": -0.3363, "lat_deg": 34.043990099999995, "lon_deg": -117.8151415, "altitude_rel_ft": 0.7907, "ground_speed_ft_s": 13.7077, "vel_north_m_s": 2.71, "vel_east_m_s": 3.18, "vel_down_m_s": 0.0, "battery_remain_pct": 9900.0}
