{"t_rx_ms": 1777336086279, "run_id": "20260427_172806", "seq": 0, "pitch_deg": null, "yaw_deg": null, "roll_deg": null, "lat_deg": null, "lon_deg": null, "altitude_rel_ft": null, "ground_speed_ft_s": null, "vel_north_m_s": null, "vel_east_m_s": null, "vel_down_m_s": null, "battery_remain_pct": null}
{"t_rx_ms": 1777336086480, "run_id": "20260427_172806", "seq": 1, "pitch_deg": -4.6851, "yaw_deg": 92.6944, "roll_deg": 0.2156, "lat_deg": 34.0105295, "lon_deg": -118.00742, "altitude_rel_ft": 305.21, "ground_speed_ft_s": 73.3549, "vel_north_m_s": -1.13, "vel_east_m_s": 22.33, "vel_down_m_s": 0.48, "battery_remain_pct": 4500.0}
{"t_rx_ms": 1777336086681, "run_id": "20260427_172806", "seq": 2, "pitch_deg": -4.8278, "yaw_deg": 92.7249, "roll_deg": 0.1316, "lat_deg": 34.0105295, "lon_deg": -118.00742, "altitude_rel_ft": 305.21, "ground_speed_ft_s": 73.3549, "vel_north_m_s": -1.13, "vel_east_m_s": 22.33, "vel_down_m_s": 0.48, "battery_remain_pct": 4500.0}
{"t_rx_ms": 1777336086881, "run_id": "20260427_172806", "seq": 3, "pitch_deg": -5.0669, "yaw_deg": 92.7883, "roll_deg": -0.0127, "lat_deg": 34.0105261, "lon_deg": -118.00733799999999, "altitude_rel_ft": 304.6719, "ground_speed_ft_s": 73.3221, "vel_north_m_s": -1.13, "vel_east_m_s": 22.32, "vel_down_m_s": 0.57, "battery_remain_pct": 4500.0}
{"t_rx_ms": 1777336087081, "run_id": "20260427_172806", "seq": 4, "pitch_deg": -5.1145, "yaw_deg": 92.779, "roll_deg": -0.0138, "lat_deg": 34.0105226, "lon_deg": -118.00725639999999, "altitude_rel_ft": 303.9731, "ground_speed_ft_s": 73.291, "vel_north_m_s": -1.14, "vel_east_m_s": 22.31, "vel_down_m_s": 0.66, "battery_remain_pct": 4500.0}
{"t_rx_ms": 1777336087282, "run_id": "20260427_172806", "seq": 5, "pitch_deg": -4.8022, "yaw_deg": 92.7726, "roll_deg": 0.0539, "lat_deg": 34.0105226, "lon_deg": -118.00725639999999, "altitude_rel_ft": 303.9731, "ground_speed_ft_s": 73.291, "vel_north_m_s": -1.14, "vel_east_m_s": 22.31, "vel_down_m_s": 0.66, "battery_remain_pct": 4500.0}
{"t_rx_ms": 1777336087483, "run_id": "20260427_172806", "seq": 6, "pitch_deg": -4.6666, "yaw_deg": 92.7284, "roll_deg": 0.123, "lat_deg": 34.0105193, "lon_deg": -118.00717949999999, "altitude_rel_ft": 303.3629, "ground_speed_ft_s": 73.2272, "vel_north_m_s": -1.15, "vel_east_m_s": 22.29, "vel_down_m_s": 0.51, "battery_remain_pct": 4500.0}
{"t_rx_ms": 1777336087684, "run_id": "20260427_172806", "seq": 7, "pitch_deg": -4.9893, "yaw_deg": 92.8338, "roll_deg": -0.0203, "lat_deg": 34.0105193, "lon_deg": -118.00717949999999, "altitude_rel_ft": 303.3629, "ground_speed_ft_s": 73.2272, "vel_north_m_s": -1.15, "vel_east_m_s": 22.29, "vel_down_m_s": 0.51, "battery_remain_pct": 4500.0}
{"t_rx_ms": 1777336087885, "run_id": "20260427_172806", "seq": 8, "pitch_deg": -5.1189, "yaw_deg": 92.8137, "roll_deg": -0.0653, "lat_deg": 34.0105158, "lon_deg": -118.0070971, "altitude_rel_ft": 302.7362, "ground_speed_ft_s": 73.2289, "vel_north_m_s": -1.16, "vel_east_m_s": 22.29, "vel_down_m_s": 0.62, "battery_remain_pct": 4500.0}
{"t_rx_ms": 1777336088086, "run_id": "20260427_172806", "seq": 9, "pitch_deg": -5.1578, "yaw_deg": 92.8103, "roll_deg": -0.1426, "lat_deg": 34.0105122, "lon_deg": -118.00701409999999, "altitude_rel_ft": 302.0013, "ground_speed_ft_s": 73.3927, "vel_north_m_s": -1.16, "vel_east_m_s": 22.34, "vel_down_m_s": 0.67, "battery_remain_pct": 4500.0}
{"t_rx_ms": 1777336088287, "run_id": "20260427_172806", "seq": 10, "pitch_deg": -4.8787, "yaw_deg": 92.7801, "roll_deg": -0.1066, "lat_deg": 34.0105122, "lon_deg": -118.00701409999999, "altitude_rel_ft": 302.0013, "ground_speed_ft_s": 73.3927, "vel_north_m_s": -1.16, "vel_east_m_s": 22.34, "vel_down_m_s": 0.67, "battery_remain_pct": 4500.0}
{"t_rx_ms": 1777336088487, "run_id": "20260427_172806", "seq": 11, "pitch_deg": -4.6779, "yaw_deg": 92.7364, "roll_deg": -0.0158, "lat_deg": 34.0105089, "lon_deg": -118.00693609999999, "altitude_rel_ft": 301.4009, "ground_speed_ft_s": 73.4565, "vel_north_m_s": -1.15, "vel_east_m_s": 22.36, "vel_down_m_s": 0.5, "battery_remain_pct": 4500.0}
{"t_rx_ms": 1777336088688, "run_id": "20260427_172806", "seq": 12, "pitch_deg": -4.6851, "yaw_deg": 92.7634, "roll_deg": 0.0701, "lat_deg": 34.0105089, "lon_deg": -118.00693609999999, "altitude_rel_ft": 301.4009, "ground_speed_ft_s": 73.4565, "vel_north_m_s": -1.15, "vel_east_m_s": 22.36, "vel_down_m_s": 0.5, "battery_remain_pct": 4500.0}
{"t_rx_ms": 1777336088888, "run_id": "20260427_172806", "seq": 13, "pitch_deg": -4.9624, "yaw_deg": 92.7625, "roll_deg": 0.1061, "lat_deg": 34.0105054, "lon_deg": -118.0068541, "altitude_rel_ft": 300.8858, "ground_speed_ft_s": 73.4238, "vel_north_m_s": -1.15, "vel_east_m_s": 22.35, "vel_down_m_s": 0.52, "battery_remain_pct": 4500.0}
{"t_rx_ms": 1777336089089, "run_id": "20260427_172806", "seq": 14, "pitch_deg": -5.03, "yaw_deg": 92.7467, "roll_deg": 0.0185, "lat_deg": 34.010501999999995, "lon_deg": -118.00677239999999, "altitude_rel_ft": 300.2461, "ground_speed_ft_s": 73.3582, "vel_north_m_s": -1.15, "vel_east_m_s": 22.33, "vel_down_m_s": 0.64, "battery_remain_pct": 4500.0}
{"t_rx_ms": 1777336089290, "run_id": "20260427_172806", "seq": 15, "pitch_deg": -4.9368, "yaw_deg": 92.7969, "roll_deg": -0.0111, "lat_deg": 34.010501999999995, "lon_deg": -118.00677239999999, "altitude_rel_ft": 300.2461, "ground_speed_ft_s": 73.3582, "vel_north_m_s": -1.15, "vel_east_m_s": 22.33, "vel_down_m_s": 0.64, "battery_remain_pct": 4500.0}
{"t_rx_ms": 1777336089491, "run_id": "20260427_172806", "seq": 16, "pitch_deg": -4.8756, "yaw_deg": 92.7727, "roll_deg": 0.025, "lat_deg": 34.0104987, "lon_deg": -118.00669549999999, "altitude_rel_ft": 299.6096, "ground_speed_ft_s": 73.2944, "vel_north_m_s": -1.16, "vel_east_m_s": 22.31, "vel_down_m_s": 0.61, "battery_remain_pct": 4500.0}
{"t_rx_ms": 1777336089691, "run_id": "20260427_172806", "seq": 17, "pitch_deg": -4.8477, "yaw_deg": 92.8193, "roll_deg": 0.0695, "lat_deg": 34.0104987, "lon_deg": -118.00669549999999, "altitude_rel_ft": 299.6096, "ground_speed_ft_s": 73.2944, "vel_north_m_s": -1.16, "vel_east_m_s": 22.31, "vel_down_m_s": 0.61, "battery_remain_pct": 4500.0}
{"t_rx_ms": 1777336089893, "run_id": "20260427_172806", "seq": 18, "pitch_deg": -4.951, "yaw_deg": 92.8183, "roll_deg": 0.0738, "lat_deg": 34.0104952, "lon_deg": -118.00661339999999, "altitude_rel_ft": 298.9731, "ground_speed_ft_s": 73.2289, "vel_north_m_s": -1.16, "vel_east_m_s": 22.29, "vel_down_m_s": 0.58, "battery_remain_pct": 4500.0}
{"t_rx_ms": 1777336090093, "run_id": "20260427_172806", "seq": 19, "pitch_deg": -5.1174, "yaw_deg": 92.7866, "roll_deg": -0.0083, "lat_deg": 34.0104916, "lon_deg": -118.0065307, "altitude_rel_ft": 298.2841, "ground_speed_ft_s": 73.3272, "vel_north_m_s": -1.16, "vel_east_m_s": 22.32, "vel_down_m_s": 0.67, "battery_remain_pct": 4500.0}
{"t_rx_ms": 1777336090294, "run_id": "20260427_172806", "seq": 20, "pitch_deg": -4.9734, "yaw_deg": 92.808, "roll_deg": -0.0034, "lat_deg": 34.0104916, "lon_deg": -118.0065307, "altitude_rel_ft": 298.2841, "ground_speed_ft_s": 73.3272, "vel_north_m_s": -1.16, "vel_east_m_s": 22.32, "vel_down_m_s": 0.67, "battery_remain_pct": 4500.0}
{"t_rx_ms": 1777336090496, "run_id": "20260427_172806", "seq": 21, "pitch_deg": -4.8771, "yaw_deg": 92.767, "roll_deg": -0.0418, "lat_deg": 34.0104883, "lon_deg": -118.0064524, "altitude_rel_ft": 297.6608, "ground_speed_ft_s": 73.4255, "vel_north_m_s": -1.16, "vel_east_m_s": 22.35, "vel_down_m_s": 0.57, "battery_remain_pct": 4500.0}
{"t_rx_ms": 1777336090696, "run_id": "20260427_172806", "seq": 22, "pitch_deg": -4.903, "yaw_deg": 92.7637, "roll_deg": -0.0112, "lat_deg": 34.0104883, "lon_deg": -118.0064524, "altitude_rel_ft": 297.6608, "ground_speed_ft_s": 73.4255, "vel_north_m_s": -1.16, "vel_east_m_s": 22.35, "vel_down_m_s": 0.57, "battery_remain_pct": 4500.0}
{"t_rx_ms": 1777336090897, "run_id": "20260427_172806", "seq": 23, "pitch_deg": -4.8683, "yaw_deg": 92.7774, "roll_deg": 0.0417, "lat_deg": 34.0104848, "lon_deg": -118.0063698, "altitude_rel_ft": 297.0735, "ground_speed_ft_s": 73.4549, "vel_north_m_s": -1.14, "vel_east_m_s": 22.36, "vel_down_m_s": 0.56, "battery_remain_pct": 4500.0}
{"t_rx_ms": 1777336091098, "run_id": "20260427_172806", "seq": 24, "pitch_deg": -4.8634, "yaw_deg": 92.7401, "roll_deg": 0.0744, "lat_deg": 34.010481299999995, "lon_deg": -118.00628789999999, "altitude_rel_ft": 296.4797, "ground_speed_ft_s": 73.3893, "vel_north_m_s": -1.14, "vel_east_m_s": 22.34, "vel_down_m_s": 0.58, "battery_remain_pct": 4500.0}
{"t_rx_ms": 1777336091298, "run_id": "20260427_172806", "seq": 25, "pitch_deg": -4.9764, "yaw_deg": 92.7409, "roll_deg": -0.0101, "lat_deg": 34.010481299999995, "lon_deg": -118.00628789999999, "altitude_rel_ft": 296.4797, "ground_speed_ft_s": 73.3893, "vel_north_m_s": -1.14, "vel_east_m_s": 22.34, "vel_down_m_s": 0.58, "battery_remain_pct": 4500.0}
{"t_rx_ms": 1777336091499, "run_id": "20260427_172806", "seq": 26, "pitch_deg": -5.037, "yaw_deg": 92.7629, "roll_deg": -0.0755, "lat_deg": 34.0104781, "lon_deg": -118.006211, "altitude_rel_ft": 295.8957, "ground_speed_ft_s": 73.2583, "vel_north_m_s": -1.14, "vel_east_m_s": 22.3, "vel_down_m_s": 0.62, "battery_remain_pct": 4500.0}
{"t_rx_ms": 1777336091700, "run_id": "20260427_172806", "seq": 27, "pitch_deg": -5.0196, "yaw_deg": 92.7543, "roll_deg": -0.0076, "lat_deg": 34.0104746, "lon_deg": -118.0061291, "altitude_rel_ft": 295.1936, "ground_speed_ft_s": 73.1927, "vel_north_m_s": -1.14, "vel_east_m_s": 22.28, "vel_down_m_s": 0.64, "battery_remain_pct": 4500.0}
{"t_rx_ms": 1777336091900, "run_id": "20260427_172806", "seq": 28, "pitch_deg": -4.973, "yaw_deg": 92.7247, "roll_deg": 0.044, "lat_deg": 34.0104746, "lon_deg": -118.0061291, "altitude_rel_ft": 295.1936, "ground_speed_ft_s": 73.1927, "vel_north_m_s": -1.14, "vel_east_m_s": 22.28, "vel_down_m_s": 0.64, "battery_remain_pct": 4400.0}
{"t_rx_ms": 1777336092101, "run_id": "20260427_172806", "seq": 29, "pitch_deg": -5.0363, "yaw_deg": 92.7724, "roll_deg": 0.1072, "lat_deg": 34.0104713, "lon_deg": -118.0060513, "altitude_rel_ft": 294.5538, "ground_speed_ft_s": 73.2894, "vel_north_m_s": -1.13, "vel_east_m_s": 22.31, "vel_down_m_s": 0.63, "battery_remain_pct": 4400.0}
{"t_rx_ms": 1777336092302, "run_id": "20260427_172806", "seq": 30, "pitch_deg": -5.0363, "yaw_deg": 92.7724, "roll_deg": 0.1072, "lat_deg": 34.0104713, "lon_deg": -118.0060513, "altitude_rel_ft": 294.5538, "ground_speed_ft_s": 73.2894, "vel_north_m_s": -1.13, "vel_east_m_s": 22.31, "vel_down_m_s": 0.63, "battery_remain_pct": 4400.0}
{"t_rx_ms": 1777336092503, "run_id": "20260427_172806", "seq": 31, "pitch_deg": -5.0083, "yaw_deg": 92.8059, "roll_deg": 0.0993, "lat_deg": 34.0104713, "lon_deg": -118.0060513, "altitude_rel_ft": 294.5538, "ground_speed_ft_s": 73.2894, "vel_north_m_s": -1.13, "vel_east_m_s": 22.31, "vel_down_m_s": 0.63, "battery_remain_pct": 4400.0}
{"t_rx_ms": 1777336092704, "run_id": "20260427_172806", "seq": 32, "pitch_deg": -4.9246, "yaw_deg": 92.8986, "roll_deg": 0.009, "lat_deg": 34.010464299999995, "lon_deg": -118.0058857, "altitude_rel_ft": 293.2185, "ground_speed_ft_s": 73.4582, "vel_north_m_s": -1.16, "vel_east_m_s": 22.36, "vel_down_m_s": 0.58, "battery_remain_pct": 4400.0}
{"t_rx_ms": 1777336092905, "run_id": "20260427_172806", "seq": 33, "pitch_deg": -4.9295, "yaw_deg": 92.8726, "roll_deg": 0.0162, "lat_deg": 34.010464299999995, "lon_deg": -118.0058857, "altitude_rel_ft": 293.2185, "ground_speed_ft_s": 73.4582, "vel_north_m_s": -1.16, "vel_east_m_s": 22.36, "vel_down_m_s": 0.58, "battery_remain_pct": 4400.0}
{"t_rx_ms": 1777336093105, "run_id": "20260427_172806", "seq": 34, "pitch_deg": -5.0217, "yaw_deg": 92.8223, "roll_deg": -0.0623, "lat_deg": 34.010461, "lon_deg": -118.0058086, "altitude_rel_ft": 292.6378, "ground_speed_ft_s": 73.3944, "vel_north_m_s": -1.17, "vel_east_m_s": 22.34, "vel_down_m_s": 0.61, "battery_remain_pct": 4400.0}
{"t_rx_ms": 1777336093305, "run_id": "20260427_172806", "seq": 35, "pitch_deg": -5.0156, "yaw_deg": 92.7866, "roll_deg": -0.0775, "lat_deg": 34.010461, "lon_deg": -118.0058086, "altitude_rel_ft": 292.6378, "ground_speed_ft_s": 73.3944, "vel_north_m_s": -1.17, "vel_east_m_s": 22.34, "vel_down_m_s": 0.61, "battery_remain_pct": 4400.0}
{"t_rx_ms": 1777336093508, "run_id": "20260427_172806", "seq": 36, "pitch_deg": -4.9623, "yaw_deg": 92.8432, "roll_deg": -0.1621, "lat_deg": 34.0104575, "lon_deg": -118.0057269, "altitude_rel_ft": 291.9488, "ground_speed_ft_s": 73.3255, "vel_north_m_s": -1.15, "vel_east_m_s": 22.32, "vel_down_m_s": 0.64, "battery_remain_pct": 4400.0}
{"t_rx_ms": 1777336093708, "run_id": "20260427_172806", "seq": 37, "pitch_deg": -4.9181, "yaw_deg": 92.8221, "roll_deg": -0.059, "lat_deg": 34.0104541, "lon_deg": -118.0056451, "altitude_rel_ft": 291.2533, "ground_speed_ft_s": 73.2599, "vel_north_m_s": -1.15, "vel_east_m_s": 22.3, "vel_down_m_s": 0.61, "battery_remain_pct": 4400.0}
{"t_rx_ms": 1777336093909, "run_id": "20260427_172806", "seq": 38, "pitch_deg": -4.9298, "yaw_deg": 92.8163, "roll_deg": 0.0352, "lat_deg": 34.0104541, "lon_deg": -118.0056451, "altitude_rel_ft": 291.2533, "ground_speed_ft_s": 73.2599, "vel_north_m_s": -1.15, "vel_east_m_s": 22.3, "vel_down_m_s": 0.61, "battery_remain_pct": 4400.0}
{"t_rx_ms": 1777336094110, "run_id": "20260427_172806", "seq": 39, "pitch_deg": -5.1242, "yaw_deg": 92.7677, "roll_deg": 0.0514, "lat_deg": 34.0104508, "lon_deg": -118.0055675, "altitude_rel_ft": 290.5873, "ground_speed_ft_s": 73.2599, "vel_north_m_s": -1.15, "vel_east_m_s": 22.3, "vel_down_m_s": 0.63, "battery_remain_pct": 4400.0}
{"t_rx_ms": 1777336094310, "run_id": "20260427_172806", "seq": 40, "pitch_deg": -5.2403, "yaw_deg": 92.8347, "roll_deg": 0.0411, "lat_deg": 34.0104508, "lon_deg": -118.0055675, "altitude_rel_ft": 290.5873, "ground_speed_ft_s": 73.2599, "vel_north_m_s": -1.15, "vel_east_m_s": 22.3, "vel_down_m_s": 0.63, "battery_remain_pct": 4400.0}
{"t_rx_ms": 1777336094512, "run_id": "20260427_172806", "seq": 41, "pitch_deg": -4.9371, "yaw_deg": 92.8328, "roll_deg": 0.0541, "lat_deg": 34.010447299999996, "lon_deg": -118.0054845, "altitude_rel_ft": 289.7999, "ground_speed_ft_s": 73.4238, "vel_north_m_s": -1.15, "vel_east_m_s": 22.35, "vel_down_m_s": 0.71, "battery_remain_pct": 4400.0}
{"t_rx_ms": 1777336094713, "run_id": "20260427_172806", "seq": 42, "pitch_deg": -4.673, "yaw_deg": 92.8222, "roll_deg": -0.0077, "lat_deg": 34.010443699999996, "lon_deg": -118.0054018, "altitude_rel_ft": 289.1306, "ground_speed_ft_s": 73.4893, "vel_north_m_s": -1.15, "vel_east_m_s": 22.37, "vel_down_m_s": 0.51, "battery_remain_pct": 4400.0}
{"t_rx_ms": 1777336094914, "run_id": "20260427_172806", "seq": 43, "pitch_deg": -4.5921, "yaw_deg": 92.802, "roll_deg": -0.0145, "lat_deg": 34.010443699999996, "lon_deg": -118.0054018, "altitude_rel_ft": 289.1306, "ground_speed_ft_s": 73.4893, "vel_north_m_s": -1.15, "vel_east_m_s": 22.37, "vel_down_m_s": 0.51, "battery_remain_pct": 4400.0}
{"t_rx_ms": 1777336095116, "run_id": "20260427_172806", "seq": 44, "pitch_deg": -4.886, "yaw_deg": 92.7541, "roll_deg": -0.0303, "lat_deg": 34.0104405, "lon_deg": -118.0053245, "altitude_rel_ft": 288.6385, "ground_speed_ft_s": 73.4204, "vel_north_m_s": -1.13, "vel_east_m_s": 22.35, "vel_down_m_s": 0.49, "battery_remain_pct": 4400.0}
{"t_rx_ms": 1777336095317, "run_id": "20260427_172806", "seq": 45, "pitch_deg": -5.1855, "yaw_deg": 92.6831, "roll_deg": -0.015, "lat_deg": 34.0104405, "lon_deg": -118.0053245, "altitude_rel_ft": 288.6385, "ground_speed_ft_s": 73.4204, "vel_north_m_s": -1.13, "vel_east_m_s": 22.35, "vel_down_m_s": 0.49, "battery_remain_pct": 4400.0}
{"t_rx_ms": 1777336095518, "run_id": "20260427_172806", "seq": 46, "pitch_deg": -5.0959, "yaw_deg": 92.6322, "roll_deg": 0.1157, "lat_deg": 34.0104371, "lon_deg": -118.00524259999999, "altitude_rel_ft": 287.9561, "ground_speed_ft_s": 73.35, "vel_north_m_s": -1.1, "vel_east_m_s": 22.33, "vel_down_m_s": 0.7, "battery_remain_pct": 4400.0}
{"t_rx_ms": 1777336095720, "run_id": "20260427_172806", "seq": 47, "pitch_deg": -4.8111, "yaw_deg": 92.6853, "roll_deg": 0.1663, "lat_deg": 34.0104338, "lon_deg": -118.0051606, "altitude_rel_ft": 287.2343, "ground_speed_ft_s": 73.3484, "vel_north_m_s": -1.09, "vel_east_m_s": 22.33, "vel_down_m_s": 0.59, "battery_remain_pct": 4400.0}
{"t_rx_ms": 1777336095921, "run_id": "20260427_172806", "seq": 48, "pitch_deg": -4.6697, "yaw_deg": 92.6894, "roll_deg": 0.2409, "lat_deg": 34.0104338, "lon_deg": -118.0051606, "altitude_rel_ft": 287.2343, "ground_speed_ft_s": 73.3484, "vel_north_m_s": -1.09, "vel_east_m_s": 22.33, "vel_down_m_s": 0.59, "battery_remain_pct": 4400.0}
{"t_rx_ms": 1777336096122, "run_id": "20260427_172806", "seq": 49, "pitch_deg": -4.8252, "yaw_deg": 92.672, "roll_deg": 0.2316, "lat_deg": 34.0104306, "lon_deg": -118.00508289999999, "altitude_rel_ft": 286.7257, "ground_speed_ft_s": 73.3172, "vel_north_m_s": -1.1, "vel_east_m_s": 22.32, "vel_down_m_s": 0.52, "battery_remain_pct": 4400.0}
{"t_rx_ms": 1777336096323, "run_id": "20260427_172806", "seq": 50, "pitch_deg": -5.1151, "yaw_deg": 92.7689, "roll_deg": 0.2077, "lat_deg": 34.0104306, "lon_deg": -118.00508289999999, "altitude_rel_ft": 286.7257, "ground_speed_ft_s": 73.3172, "vel_north_m_s": -1.1, "vel_east_m_s": 22.32, "vel_down_m_s": 0.52, "battery_remain_pct": 4400.0}
{"t_rx_ms": 1777336096524, "run_id": "20260427_172806", "seq": 51, "pitch_deg": -5.0785, "yaw_deg": 92.8066, "roll_deg": 0.1548, "lat_deg": 34.010427199999995, "lon_deg": -118.0049998, "altitude_rel_ft": 286.0729, "ground_speed_ft_s": 73.4171, "vel_north_m_s": -1.11, "vel_east_m_s": 22.35, "vel_down_m_s": 0.66, "battery_remain_pct": 4400.0}
{"t_rx_ms": 1777336096726, "run_id": "20260427_172806", "seq": 52, "pitch_deg": -4.8234, "yaw_deg": 92.7816, "roll_deg": 0.182, "lat_deg": 34.0104238, "lon_deg": -118.0049166, "altitude_rel_ft": 285.3872, "ground_speed_ft_s": 73.5171, "vel_north_m_s": -1.12, "vel_east_m_s": 22.38, "vel_down_m_s": 0.55, "battery_remain_pct": 4400.0}
{"t_rx_ms": 1777336096927, "run_id": "20260427_172806", "seq": 53, "pitch_deg": -4.8295, "yaw_deg": 92.7125, "roll_deg": 0.1065, "lat_deg": 34.0104238, "lon_deg": -118.0049166, "altitude_rel_ft": 285.3872, "ground_speed_ft_s": 73.5171, "vel_north_m_s": -1.12, "vel_east_m_s": 22.38, "vel_down_m_s": 0.55, "battery_remain_pct": 4400.0}
{"t_rx_ms": 1777336097127, "run_id": "20260427_172806", "seq": 54, "pitch_deg": -4.9654, "yaw_deg": 92.7437, "roll_deg": 0.0754, "lat_deg": 34.010420499999995, "lon_deg": -118.00483919999999, "altitude_rel_ft": 284.836, "ground_speed_ft_s": 73.4499, "vel_north_m_s": -1.11, "vel_east_m_s": 22.36, "vel_down_m_s": 0.56, "battery_remain_pct": 4400.0}
{"t_rx_ms": 1777336097328, "run_id": "20260427_172806", "seq": 55, "pitch_deg": -5.0584, "yaw_deg": 92.7624, "roll_deg": 0.0728, "lat_deg": 34.010420499999995, "lon_deg": -118.00483919999999, "altitude_rel_ft": 284.836, "ground_speed_ft_s": 73.4499, "vel_north_m_s": -1.11, "vel_east_m_s": 22.36, "vel_down_m_s": 0.56, "battery_remain_pct": 4400.0}
{"t_rx_ms": 1777336097529, "run_id": "20260427_172806", "seq": 56, "pitch_deg": -4.9089, "yaw_deg": 92.7489, "roll_deg": 0.152, "lat_deg": 34.0104172, "lon_deg": -118.0047573, "altitude_rel_ft": 284.1798, "ground_speed_ft_s": 73.3844, "vel_north_m_s": -1.11, "vel_east_m_s": 22.34, "vel_down_m_s": 0.63, "battery_remain_pct": 4400.0}
{"t_rx_ms": 1777336097729, "run_id": "20260427_172806", "seq": 57, "pitch_deg": -4.7781, "yaw_deg": 92.7224, "roll_deg": 0.2104, "lat_deg": 34.010413799999995, "lon_deg": -118.00467549999999, "altitude_rel_ft": 283.5368, "ground_speed_ft_s": 73.2861, "vel_north_m_s": -1.11, "vel_east_m_s": 22.31, "vel_down_m_s": 0.55, "battery_remain_pct": 4400.0}
{"t_rx_ms": 1777336097930, "run_id": "20260427_172806", "seq": 58, "pitch_deg": -4.808, "yaw_deg": 92.7081, "roll_deg": 0.1945, "lat_deg": 34.010413799999995, "lon_deg": -118.00467549999999, "altitude_rel_ft": 283.5368, "ground_speed_ft_s": 73.2861, "vel_north_m_s": -1.11, "vel_east_m_s": 22.31, "vel_down_m_s": 0.55, "battery_remain_pct": 4400.0}
{"t_rx_ms": 1777336098131, "run_id": "20260427_172806", "seq": 59, "pitch_deg": -5.1274, "yaw_deg": 92.7216, "roll_deg": 0.1996, "lat_deg": 34.0104106, "lon_deg": -118.0045981, "altitude_rel_ft": 282.9823, "ground_speed_ft_s": 73.2517, "vel_north_m_s": -1.1, "vel_east_m_s": 22.3, "vel_down_m_s": 0.61, "battery_remain_pct": 4400.0}
{"t_rx_ms": 1777336098333, "run_id": "20260427_172806", "seq": 60, "pitch_deg": -5.2764, "yaw_deg": 92.6789, "roll_deg": 0.1452, "lat_deg": 34.0104106, "lon_deg": -118.0045981, "altitude_rel_ft": 282.9823, "ground_speed_ft_s": 73.2517, "vel_north_m_s": -1.1, "vel_east_m_s": 22.3, "vel_down_m_s": 0.61, "battery_remain_pct": 4400.0}
{"t_rx_ms": 1777336098534, "run_id": "20260427_172806", "seq": 61, "pitch_deg": -5.0509, "yaw_deg": 92.7426, "roll_deg": 0.0379, "lat_deg": 34.010407199999996, "lon_deg": -118.0045152, "altitude_rel_ft": 282.2244, "ground_speed_ft_s": 73.35, "vel_north_m_s": -1.1, "vel_east_m_s": 22.33, "vel_down_m_s": 0.71, "battery_remain_pct": 4400.0}
{"t_rx_ms": 1777336098734, "run_id": "20260427_172806", "seq": 62, "pitch_deg": -4.7334, "yaw_deg": 92.7695, "roll_deg": 0.1555, "lat_deg": 34.010404099999995, "lon_deg": -118.00443709999999, "altitude_rel_ft": 281.5683, "ground_speed_ft_s": 73.4483, "vel_north_m_s": -1.1, "vel_east_m_s": 22.36, "vel_down_m_s": 0.53, "battery_remain_pct": 4400.0}
{"t_rx_ms": 1777336098935, "run_id": "20260427_172806", "seq": 63, "pitch_deg": -4.7272, "yaw_deg": 92.7664, "roll_deg": 0.1966, "lat_deg": 34.010404099999995, "lon_deg": -118.00443709999999, "altitude_rel_ft": 281.5683, "ground_speed_ft_s": 73.4483, "vel_north_m_s": -1.1, "vel_east_m_s": 22.36, "vel_down_m_s": 0.53, "battery_remain_pct": 4400.0}
{"t_rx_ms": 1777336099137, "run_id": "20260427_172806", "seq": 64, "pitch_deg": -5.1017, "yaw_deg": 92.729, "roll_deg": 0.2856, "lat_deg": 34.0104008, "lon_deg": -118.0043549, "altitude_rel_ft": 281.0433, "ground_speed_ft_s": 73.4155, "vel_north_m_s": -1.1, "vel_east_m_s": 22.35, "vel_down_m_s": 0.54, "battery_remain_pct": 4400.0}
{"t_rx_ms": 1777336099338, "run_id": "20260427_172806", "seq": 65, "pitch_deg": -5.3376, "yaw_deg": 92.7613, "roll_deg": 0.329, "lat_deg": 34.0104008, "lon_deg": -118.0043549, "altitude_rel_ft": 281.0433, "ground_speed_ft_s": 73.4155, "vel_north_m_s": -1.1, "vel_east_m_s": 22.35, "vel_down_m_s": 0.54, "battery_remain_pct": 4400.0}
{"t_rx_ms": 1777336099542, "run_id": "20260427_172806", "seq": 66, "pitch_deg": -5.2027, "yaw_deg": 92.7571, "roll_deg": 0.2204, "lat_deg": 34.010397399999995, "lon_deg": -118.0042732, "altitude_rel_ft": 280.3084, "ground_speed_ft_s": 73.3828, "vel_north_m_s": -1.1, "vel_east_m_s": 22.34, "vel_down_m_s": 0.75, "battery_remain_pct": 4400.0}
{"t_rx_ms": 1777336099742, "run_id": "20260427_172806", "seq": 67, "pitch_deg": -4.7815, "yaw_deg": 92.7371, "roll_deg": 0.1038, "lat_deg": 34.0103943, "lon_deg": -118.0041962, "altitude_rel_ft": 279.5899, "ground_speed_ft_s": 73.35, "vel_north_m_s": -1.1, "vel_east_m_s": 22.33, "vel_down_m_s": 0.59, "battery_remain_pct": 4400.0}
{"t_rx_ms": 1777336099944, "run_id": "20260427_172806", "seq": 68, "pitch_deg": -4.7631, "yaw_deg": 92.7355, "roll_deg": 0.1583, "lat_deg": 34.0103943, "lon_deg": -118.0041962, "altitude_rel_ft": 279.5899, "ground_speed_ft_s": 73.35, "vel_north_m_s": -1.1, "vel_east_m_s": 22.33, "vel_down_m_s": 0.59, "battery_remain_pct": 4400.0}
{"t_rx_ms": 1777336100145, "run_id": "20260427_172806", "seq": 69, "pitch_deg": -4.9891, "yaw_deg": 92.7795, "roll_deg": 0.2075, "lat_deg": 34.010391, "lon_deg": -118.00411419999999, "altitude_rel_ft": 278.9862, "ground_speed_ft_s": 73.2845, "vel_north_m_s": -1.1, "vel_east_m_s": 22.31, "vel_down_m_s": 0.57, "battery_remain_pct": 4400.0}
{"t_rx_ms": 1777336100345, "run_id": "20260427_172806", "seq": 70, "pitch_deg": -5.1914, "yaw_deg": 92.8549, "roll_deg": 0.2257, "lat_deg": 34.010391, "lon_deg": -118.00411419999999, "altitude_rel_ft": 278.9862, "ground_speed_ft_s": 73.2845, "vel_north_m_s": -1.1, "vel_east_m_s": 22.31, "vel_down_m_s": 0.57, "battery_remain_pct": 4400.0}
{"t_rx_ms": 1777336100545, "run_id": "20260427_172806", "seq": 71, "pitch_deg": -5.0541, "yaw_deg": 92.8624, "roll_deg": 0.1939, "lat_deg": 34.0103876, "lon_deg": -118.0040315, "altitude_rel_ft": 278.2841, "ground_speed_ft_s": 73.386, "vel_north_m_s": -1.12, "vel_east_m_s": 22.34, "vel_down_m_s": 0.71, "battery_remain_pct": 4400.0}
{"t_rx_ms": 1777336100747, "run_id": "20260427_172806", "seq": 72, "pitch_deg": -4.7101, "yaw_deg": 92.8156, "roll_deg": 0.1209, "lat_deg": 34.0103843, "lon_deg": -118.00395329999999, "altitude_rel_ft": 277.6345, "ground_speed_ft_s": 73.5204, "vel_north_m_s": -1.14, "vel_east_m_s": 22.38, "vel_down_m_s": 0.53, "battery_remain_pct": 4400.0}
{"t_rx_ms": 1777336100947, "run_id": "20260427_172806", "seq": 73, "pitch_deg": -4.7927, "yaw_deg": 92.8114, "roll_deg": 0.0213, "lat_deg": 34.0103843, "lon_deg": -118.00395329999999, "altitude_rel_ft": 277.6345, "ground_speed_ft_s": 73.5204, "vel_north_m_s": -1.14, "vel_east_m_s": 22.38, "vel_down_m_s": 0.53, "battery_remain_pct": 4400.0}
{"t_rx_ms": 1777336101148, "run_id": "20260427_172806", "seq": 74, "pitch_deg": -4.995, "yaw_deg": 92.9014, "roll_deg": 0.0067, "lat_deg": 34.0103808, "lon_deg": -118.00387029999999, "altitude_rel_ft": 277.1162, "ground_speed_ft_s": 73.5499, "vel_north_m_s": -1.12, "vel_east_m_s": 22.39, "vel_down_m_s": 0.55, "battery_remain_pct": 4400.0}
{"t_rx_ms": 1777336101348, "run_id": "20260427_172806", "seq": 75, "pitch_deg": -5.0771, "yaw_deg": 92.8801, "roll_deg": 0.144, "lat_deg": 34.0103808, "lon_deg": -118.00387029999999, "altitude_rel_ft": 277.1162, "ground_speed_ft_s": 73.5499, "vel_north_m_s": -1.12, "vel_east_m_s": 22.39, "vel_down_m_s": 0.55, "battery_remain_pct": 4400.0}
{"t_rx_ms": 1777336101549, "run_id": "20260427_172806", "seq": 76, "pitch_deg": -5.0568, "yaw_deg": 92.8538, "roll_deg": 0.2179, "lat_deg": 34.010377399999996, "lon_deg": -118.00378819999999, "altitude_rel_ft": 276.4764, "ground_speed_ft_s": 73.486, "vel_north_m_s": -1.13, "vel_east_m_s": 22.37, "vel_down_m_s": 0.64, "battery_remain_pct": 4400.0}
{"t_rx_ms": 1777336101749, "run_id": "20260427_172806", "seq": 77, "pitch_deg": -5.0378, "yaw_deg": 92.8914, "roll_deg": 0.1751, "lat_deg": 34.0103742, "lon_deg": -118.00371109999999, "altitude_rel_ft": 275.8301, "ground_speed_ft_s": 73.3893, "vel_north_m_s": -1.14, "vel_east_m_s": 22.34, "vel_down_m_s": 0.65, "battery_remain_pct": 4400.0}
{"t_rx_ms": 1777336101950, "run_id": "20260427_172806", "seq": 78, "pitch_deg": -4.9438, "yaw_deg": 92.9046, "roll_deg": 0.0924, "lat_deg": 34.0103742, "lon_deg": -118.00371109999999, "altitude_rel_ft": 275.8301, "ground_speed_ft_s": 73.3893, "vel_north_m_s": -1.14, "vel_east_m_s": 22.34, "vel_down_m_s": 0.65, "battery_remain_pct": 4400.0}
{"t_rx_ms": 1777336102151, "run_id": "20260427_172806", "seq": 79, "pitch_deg": -4.9223, "yaw_deg": 92.8912, "roll_deg": 0.1452, "lat_deg": 34.0103708, "lon_deg": -118.0036293, "altitude_rel_ft": 275.1542, "ground_speed_ft_s": 73.3238, "vel_north_m_s": -1.14, "vel_east_m_s": 22.32, "vel_down_m_s": 0.6, "battery_remain_pct": 4400.0}
{"t_rx_ms": 1777336102352, "run_id": "20260427_172806", "seq": 80, "pitch_deg": -4.9714, "yaw_deg": 92.891, "roll_deg": 0.0657, "lat_deg": 34.0103708, "lon_deg": -118.0036293, "altitude_rel_ft": 275.1542, "ground_speed_ft_s": 73.3238, "vel_north_m_s": -1.14, "vel_east_m_s": 22.32, "vel_down_m_s": 0.6, "battery_remain_pct": 4400.0}
{"t_rx_ms": 1777336102553, "run_id": "20260427_172806", "seq": 81, "pitch_deg": -5.0516, "yaw_deg": 92.9269, "roll_deg": 0.0395, "lat_deg": 34.0103673, "lon_deg": -118.0035465, "altitude_rel_ft": 274.4751, "ground_speed_ft_s": 73.3238, "vel_north_m_s": -1.14, "vel_east_m_s": 22.32, "vel_down_m_s": 0.61, "battery_remain_pct": 4400.0}
{"t_rx_ms": 1777336102754, "run_id": "20260427_172806", "seq": 82, "pitch_deg": -5.0666, "yaw_deg": 92.9309, "roll_deg": 0.0981, "lat_deg": 34.010363999999996, "lon_deg": -118.00346839999999, "altitude_rel_ft": 273.7992, "ground_speed_ft_s": 73.4221, "vel_north_m_s": -1.14, "vel_east_m_s": 22.35, "vel_down_m_s": 0.63, "battery_remain_pct": 4400.0}
{"t_rx_ms": 1777336102955, "run_id": "20260427_172806", "seq": 83, "pitch_deg": -4.9788, "yaw_deg": 92.9442, "roll_deg": 0.126, "lat_deg": 34.010363999999996, "lon_deg": -118.00346839999999, "altitude_rel_ft": 273.7992, "ground_speed_ft_s": 73.4221, "vel_north_m_s": -1.14, "vel_east_m_s": 22.35, "vel_down_m_s": 0.63, "battery_remain_pct": 4400.0}
{"t_rx_ms": 1777336103156, "run_id": "20260427_172806", "seq": 84, "pitch_deg": -4.8728, "yaw_deg": 92.9549, "roll_deg": 0.0798, "lat_deg": 34.0103605, "lon_deg": -118.0033856, "altitude_rel_ft": 273.1266, "ground_speed_ft_s": 73.4893, "vel_north_m_s": -1.15, "vel_east_m_s": 22.37, "vel_down_m_s": 0.55, "battery_remain_pct": 4300.0}
{"t_rx_ms": 1777336103357, "run_id": "20260427_172806", "seq": 85, "pitch_deg": -4.8407, "yaw_deg": 92.9384, "roll_deg": 0.1061, "lat_deg": 34.0103605, "lon_deg": -118.0033856, "altitude_rel_ft": 273.1266, "ground_speed_ft_s": 73.4893, "vel_north_m_s": -1.15, "vel_east_m_s": 22.37, "vel_down_m_s": 0.55, "battery_remain_pct": 4300.0}
{"t_rx_ms": 1777336103558, "run_id": "20260427_172806", "seq": 86, "pitch_deg": -4.9403, "yaw_deg": 92.8719, "roll_deg": 0.1505, "lat_deg": 34.010357, "lon_deg": -118.0033036, "altitude_rel_ft": 272.5131, "ground_speed_ft_s": 73.4238, "vel_north_m_s": -1.15, "vel_east_m_s": 22.35, "vel_down_m_s": 0.55, "battery_remain_pct": 4300.0}
{"t_rx_ms": 1777336103760, "run_id": "20260427_172806", "seq": 87, "pitch_deg": -4.8888, "yaw_deg": 92.9158, "roll_deg": 0.1409, "lat_deg": 34.0103538, "lon_deg": -118.00322659999999, "altitude_rel_ft": 271.8996, "ground_speed_ft_s": 73.3238, "vel_north_m_s": -1.14, "vel_east_m_s": 22.32, "vel_down_m_s": 0.58, "battery_remain_pct": 4300.0}
{"t_rx_ms": 1777336103960, "run_id": "20260427_172806", "seq": 88, "pitch_deg": -5.0176, "yaw_deg": 92.8912, "roll_deg": 0.0791, "lat_deg": 34.0103538, "lon_deg": -118.00322659999999, "altitude_rel_ft": 271.8996, "ground_speed_ft_s": 73.3238, "vel_north_m_s": -1.14, "vel_east_m_s": 22.32, "vel_down_m_s": 0.58, "battery_remain_pct": 4300.0}
{"t_rx_ms": 1777336104161, "run_id": "20260427_172806", "seq": 89, "pitch_deg": -5.1311, "yaw_deg": 92.9295, "roll_deg": 0.0719, "lat_deg": 34.0103504, "lon_deg": -118.0031449, "altitude_rel_ft": 271.2271, "ground_speed_ft_s": 73.2583, "vel_north_m_s": -1.14, "vel_east_m_s": 22.3, "vel_down_m_s": 0.65, "battery_remain_pct": 4300.0}
{"t_rx_ms": 1777336104361, "run_id": "20260427_172806", "seq": 90, "pitch_deg": -5.0463, "yaw_deg": 92.8909, "roll_deg": 0.1257, "lat_deg": 34.0103471, "lon_deg": -118.0030675, "altitude_rel_ft": 270.5348, "ground_speed_ft_s": 73.2583, "vel_north_m_s": -1.14, "vel_east_m_s": 22.3, "vel_down_m_s": 0.64, "battery_remain_pct": 4300.0}
{"t_rx_ms": 1777336104563, "run_id": "20260427_172806", "seq": 91, "pitch_deg": -4.8246, "yaw_deg": 92.8953, "roll_deg": 0.0901, "lat_deg": 34.0103471, "lon_deg": -118.0030675, "altitude_rel_ft": 270.5348, "ground_speed_ft_s": 73.2583, "vel_north_m_s": -1.14, "vel_east_m_s": 22.3, "vel_down_m_s": 0.64, "battery_remain_pct": 4300.0}
{"t_rx_ms": 1777336104766, "run_id": "20260427_172806", "seq": 92, "pitch_deg": -4.8393, "yaw_deg": 92.9087, "roll_deg": 0.0613, "lat_deg": 34.0103437, "lon_deg": -118.0029847, "altitude_rel_ft": 269.9245, "ground_speed_ft_s": 73.3221, "vel_north_m_s": -1.13, "vel_east_m_s": 22.32, "vel_down_m_s": 0.54, "battery_remain_pct": 4300.0}
{"t_rx_ms": 1777336104967, "run_id": "20260427_172806", "seq": 93, "pitch_deg": -5.0236, "yaw_deg": 92.924, "roll_deg": 0.1169, "lat_deg": 34.0103437, "lon_deg": -118.0029847, "altitude_rel_ft": 269.9245, "ground_speed_ft_s": 73.3221, "vel_north_m_s": -1.13, "vel_east_m_s": 22.32, "vel_down_m_s": 0.54, "battery_remain_pct": 4300.0}
{"t_rx_ms": 1777336105167, "run_id": "20260427_172806", "seq": 94, "pitch_deg": -5.1119, "yaw_deg": 92.9032, "roll_deg": 0.1599, "lat_deg": 34.0103402, "lon_deg": -118.0029019, "altitude_rel_ft": 269.2881, "ground_speed_ft_s": 73.3877, "vel_north_m_s": -1.13, "vel_east_m_s": 22.34, "vel_down_m_s": 0.63, "battery_remain_pct": 4300.0}
{"t_rx_ms": 1777336105368, "run_id": "20260427_172806", "seq": 95, "pitch_deg": -5.0323, "yaw_deg": 92.9236, "roll_deg": 0.1916, "lat_deg": 34.010337, "lon_deg": -118.0028246, "altitude_rel_ft": 268.6385, "ground_speed_ft_s": 73.3549, "vel_north_m_s": -1.13, "vel_east_m_s": 22.33, "vel_down_m_s": 0.62, "battery_remain_pct": 4300.0}
{"t_rx_ms": 1777336105570, "run_id": "20260427_172806", "seq": 96, "pitch_deg": -4.8889, "yaw_deg": 92.9482, "roll_deg": 0.1861, "lat_deg": 34.010337, "lon_deg": -118.0028246, "altitude_rel_ft": 268.6385, "ground_speed_ft_s": 73.3549, "vel_north_m_s": -1.13, "vel_east_m_s": 22.33, "vel_down_m_s": 0.62, "battery_remain_pct": 4300.0}
{"t_rx_ms": 1777336105770, "run_id": "20260427_172806", "seq": 97, "pitch_deg": -4.8563, "yaw_deg": 93.0049, "roll_deg": 0.1527, "lat_deg": 34.010333599999996, "lon_deg": -118.0027427, "altitude_rel_ft": 268.0118, "ground_speed_ft_s": 73.291, "vel_north_m_s": -1.14, "vel_east_m_s": 22.31, "vel_down_m_s": 0.56, "battery_remain_pct": 4300.0}
{"t_rx_ms": 1777336105971, "run_id": "20260427_172806", "seq": 98, "pitch_deg": -4.9086, "yaw_deg": 92.944, "roll_deg": 0.1718, "lat_deg": 34.010333599999996, "lon_deg": -118.0027427, "altitude_rel_ft": 268.0118, "ground_speed_ft_s": 73.291, "vel_north_m_s": -1.14, "vel_east_m_s": 22.31, "vel_down_m_s": 0.56, "battery_remain_pct": 4300.0}
{"t_rx_ms": 1777336106173, "run_id": "20260427_172806", "seq": 99, "pitch_deg": -5.1541, "yaw_deg": 92.9462, "roll_deg": 0.1118, "lat_deg": 34.0103301, "lon_deg": -118.0026608, "altitude_rel_ft": 267.3688, "ground_speed_ft_s": 73.2599, "vel_north_m_s": -1.15, "vel_east_m_s": 22.3, "vel_down_m_s": 0.63, "battery_remain_pct": 4300.0}
{"t_rx_ms": 1777336106374, "run_id": "20260427_172806", "seq": 100, "pitch_deg": -5.1351, "yaw_deg": 92.922, "roll_deg": 0.0039, "lat_deg": 34.0103268, "lon_deg": -118.00258339999999, "altitude_rel_ft": 266.647, "ground_speed_ft_s": 73.2566, "vel_north_m_s": -1.13, "vel_east_m_s": 22.3, "vel_down_m_s": 0.67, "battery_remain_pct": 4300.0}
{"t_rx_ms": 1777336106574, "run_id": "20260427_172806", "seq": 101, "pitch_deg": -5.005, "yaw_deg": 93.0609, "roll_deg": -0.0125, "lat_deg": 34.0103268, "lon_deg": -118.00258339999999, "altitude_rel_ft": 266.647, "ground_speed_ft_s": 73.2566, "vel_north_m_s": -1.13, "vel_east_m_s": 22.3, "vel_down_m_s": 0.67, "battery_remain_pct": 4300.0}
{"t_rx_ms": 1777336106776, "run_id": "20260427_172806", "seq": 102, "pitch_deg": -4.7806, "yaw_deg": 93.0553, "roll_deg": 0.0376, "lat_deg": 34.010323299999996, "lon_deg": -118.00250039999999, "altitude_rel_ft": 265.958, "ground_speed_ft_s": 73.3272, "vel_north_m_s": -1.16, "vel_east_m_s": 22.32, "vel_down_m_s": 0.53, "battery_remain_pct": 4300.0}
{"t_rx_ms": 1777336106976, "run_id": "20260427_172806", "seq": 103, "pitch_deg": -4.9686, "yaw_deg": 93.0568, "roll_deg": 0.1482, "lat_deg": 34.010323299999996, "lon_deg": -118.00250039999999, "altitude_rel_ft": 265.958, "ground_speed_ft_s": 73.3272, "vel_north_m_s": -1.16, "vel_east_m_s": 22.32, "vel_down_m_s": 0.53, "battery_remain_pct": 4300.0}
{"t_rx_ms": 1777336107177, "run_id": "20260427_172806", "seq": 104, "pitch_deg": -5.1353, "yaw_deg": 93.0364, "roll_deg": 0.1724, "lat_deg": 34.0103198, "lon_deg": -118.0024172, "altitude_rel_ft": 265.3346, "ground_speed_ft_s": 73.4599, "vel_north_m_s": -1.17, "vel_east_m_s": 22.36, "vel_down_m_s": 0.61, "battery_remain_pct": 4300.0}
{"t_rx_ms": 1777336107379, "run_id": "20260427_172806", "seq": 105, "pitch_deg": -4.9998, "yaw_deg": 93.0121, "roll_deg": 0.074, "lat_deg": 34.0103164, "lon_deg": -118.00233949999999, "altitude_rel_ft": 264.6785, "ground_speed_ft_s": 73.491, "vel_north_m_s": -1.16, "vel_east_m_s": 22.37, "vel_down_m_s": 0.58, "battery_remain_pct": 4300.0}
{"t_rx_ms": 1777336107580, "run_id": "20260427_172806", "seq": 106, "pitch_deg": -4.7232, "yaw_deg": 93.0094, "roll_deg": 0.0062, "lat_deg": 34.0103164, "lon_deg": -118.00233949999999, "altitude_rel_ft": 264.6785, "ground_speed_ft_s": 73.491, "vel_north_m_s": -1.16, "vel_east_m_s": 22.37, "vel_down_m_s": 0.58, "battery_remain_pct": 4300.0}
{"t_rx_ms": 1777336107781, "run_id": "20260427_172806", "seq": 107, "pitch_deg": -4.7853, "yaw_deg": 92.9764, "roll_deg": 0.0479, "lat_deg": 34.010313, "lon_deg": -118.0022576, "altitude_rel_ft": 264.1306, "ground_speed_ft_s": 73.3893, "vel_north_m_s": -1.14, "vel_east_m_s": 22.34, "vel_down_m_s": 0.5, "battery_remain_pct": 4300.0}
{"t_rx_ms": 1777336107982, "run_id": "20260427_172806", "seq": 108, "pitch_deg": -5.1144, "yaw_deg": 93.004, "roll_deg": 0.0602, "lat_deg": 34.010313, "lon_deg": -118.0022576, "altitude_rel_ft": 264.1306, "ground_speed_ft_s": 73.3893, "vel_north_m_s": -1.14, "vel_east_m_s": 22.34, "vel_down_m_s": 0.5, "battery_remain_pct": 4300.0}
{"t_rx_ms": 1777336108182, "run_id": "20260427_172806", "seq": 109, "pitch_deg": -5.3101, "yaw_deg": 92.9925, "roll_deg": 0.082, "lat_deg": 34.0103095, "lon_deg": -118.00217579999999, "altitude_rel_ft": 263.5039, "ground_speed_ft_s": 73.3238, "vel_north_m_s": -1.14, "vel_east_m_s": 22.32, "vel_down_m_s": 0.7, "battery_remain_pct": 4300.0}
{"t_rx_ms": 1777336108384, "run_id": "20260427_172806", "seq": 110, "pitch_deg": -4.9889, "yaw_deg": 93.0146, "roll_deg": 0.069, "lat_deg": 34.010306299999996, "lon_deg": -118.0020984, "altitude_rel_ft": 262.792, "ground_speed_ft_s": 73.2927, "vel_north_m_s": -1.15, "vel_east_m_s": 22.31, "vel_down_m_s": 0.6, "battery_remain_pct": 4300.0}
{"t_rx_ms": 1777336108586, "run_id": "20260427_172806", "seq": 111, "pitch_deg": -4.6588, "yaw_deg": 93.0446, "roll_deg": 0.0458, "lat_deg": 34.010306299999996, "lon_deg": -118.0020984, "altitude_rel_ft": 262.792, "ground_speed_ft_s": 73.2927, "vel_north_m_s": -1.15, "vel_east_m_s": 22.31, "vel_down_m_s": 0.6, "battery_remain_pct": 4300.0}
{"t_rx_ms": 1777336108786, "run_id": "20260427_172806", "seq": 112, "pitch_deg": -4.7901, "yaw_deg": 93.0903, "roll_deg": 0.0392, "lat_deg": 34.0103028, "lon_deg": -118.0020156, "altitude_rel_ft": 262.231, "ground_speed_ft_s": 73.3582, "vel_north_m_s": -1.15, "vel_east_m_s": 22.33, "vel_down_m_s": 0.48, "battery_remain_pct": 4300.0}
{"t_rx_ms": 1777336108987, "run_id": "20260427_172806", "seq": 113, "pitch_deg": -5.1469, "yaw_deg": 93.1172, "roll_deg": 0.1492, "lat_deg": 34.0103028, "lon_deg": -118.0020156, "altitude_rel_ft": 262.231, "ground_speed_ft_s": 73.3582, "vel_north_m_s": -1.15, "vel_east_m_s": 22.33, "vel_down_m_s": 0.48, "battery_remain_pct": 4300.0}
{"t_rx_ms": 1777336109189, "run_id": "20260427_172806", "seq": 114, "pitch_deg": -5.3552, "yaw_deg": 93.1463, "roll_deg": 0.192, "lat_deg": 34.0102993, "lon_deg": -118.0019325, "altitude_rel_ft": 261.5683, "ground_speed_ft_s": 73.4272, "vel_north_m_s": -1.17, "vel_east_m_s": 22.35, "vel_down_m_s": 0.69, "battery_remain_pct": 4300.0}
{"t_rx_ms": 1777336109389, "run_id": "20260427_172806", "seq": 115, "pitch_deg": -4.985, "yaw_deg": 93.0797, "roll_deg": 0.1159, "lat_deg": 34.010295899999996, "lon_deg": -118.00185499999999, "altitude_rel_ft": 260.8334, "ground_speed_ft_s": 73.4617, "vel_north_m_s": -1.18, "vel_east_m_s": 22.36, "vel_down_m_s": 0.58, "battery_remain_pct": 4300.0}
{"t_rx_ms": 1777336109590, "run_id": "20260427_172806", "seq": 116, "pitch_deg": -4.6594, "yaw_deg": 93.0644, "roll_deg": 0.0149, "lat_deg": 34.010295899999996, "lon_deg": -118.00185499999999, "altitude_rel_ft": 260.8334, "ground_speed_ft_s": 73.4617, "vel_north_m_s": -1.18, "vel_east_m_s": 22.36, "vel_down_m_s": 0.58, "battery_remain_pct": 4300.0}
{"t_rx_ms": 1777336109792, "run_id": "20260427_172806", "seq": 117, "pitch_deg": -4.7969, "yaw_deg": 93.0667, "roll_deg": -0.046, "lat_deg": 34.0102924, "lon_deg": -118.0017731, "altitude_rel_ft": 260.2526, "ground_speed_ft_s": 73.3599, "vel_north_m_s": -1.16, "vel_east_m_s": 22.33, "vel_down_m_s": 0.48, "battery_remain_pct": 4300.0}
{"t_rx_ms": 1777336109992, "run_id": "20260427_172806", "seq": 118, "pitch_deg": -5.2145, "yaw_deg": 93.0304, "roll_deg": -0.0324, "lat_deg": 34.0102924, "lon_deg": -118.0017731, "altitude_rel_ft": 260.2526, "ground_speed_ft_s": 73.3599, "vel_north_m_s": -1.16, "vel_east_m_s": 22.33, "vel_down_m_s": 0.48, "battery_remain_pct": 4300.0}
{"t_rx_ms": 1777336110193, "run_id": "20260427_172806", "seq": 119, "pitch_deg": -5.1863, "yaw_deg": 93.0544, "roll_deg": 0.018, "lat_deg": 34.0102889, "lon_deg": -118.0016914, "altitude_rel_ft": 259.5341, "ground_speed_ft_s": 73.3255, "vel_north_m_s": -1.15, "vel_east_m_s": 22.32, "vel_down_m_s": 0.7, "battery_remain_pct": 4300.0}
{"t_rx_ms": 1777336110394, "run_id": "20260427_172806", "seq": 120, "pitch_deg": -4.828, "yaw_deg": 93.0031, "roll_deg": 0.0293, "lat_deg": 34.0102857, "lon_deg": -118.0016144, "altitude_rel_ft": 258.832, "ground_speed_ft_s": 73.2927, "vel_north_m_s": -1.15, "vel_east_m_s": 22.31, "vel_down_m_s": 0.59, "battery_remain_pct": 4300.0}
{"t_rx_ms": 1777336110595, "run_id": "20260427_172806", "seq": 121, "pitch_deg": -4.8097, "yaw_deg": 93.0608, "roll_deg": 0.0102, "lat_deg": 34.0102857, "lon_deg": -118.0016144, "altitude_rel_ft": 258.832, "ground_speed_ft_s": 73.2927, "vel_north_m_s": -1.15, "vel_east_m_s": 22.31, "vel_down_m_s": 0.59, "battery_remain_pct": 4300.0}
{"t_rx_ms": 1777336110796, "run_id": "20260427_172806", "seq": 122, "pitch_deg": -4.7901, "yaw_deg": 93.1222, "roll_deg": 0.0391, "lat_deg": 34.0102822, "lon_deg": -118.00153189999999, "altitude_rel_ft": 258.2152, "ground_speed_ft_s": 73.3255, "vel_north_m_s": -1.15, "vel_east_m_s": 22.32, "vel_down_m_s": 0.54, "battery_remain_pct": 4300.0}
{"t_rx_ms": 1777336110997, "run_id": "20260427_172806", "seq": 123, "pitch_deg": -4.9366, "yaw_deg": 93.1153, "roll_deg": 0.109, "lat_deg": 34.0102822, "lon_deg": -118.00153189999999, "altitude_rel_ft": 258.2152, "ground_speed_ft_s": 73.3255, "vel_north_m_s": -1.15, "vel_east_m_s": 22.32, "vel_down_m_s": 0.54, "battery_remain_pct": 4300.0}
{"t_rx_ms": 1777336111198, "run_id": "20260427_172806", "seq": 124, "pitch_deg": -4.9855, "yaw_deg": 93.1117, "roll_deg": 0.1606, "lat_deg": 34.0102787, "lon_deg": -118.0014487, "altitude_rel_ft": 257.6083, "ground_speed_ft_s": 73.4272, "vel_north_m_s": -1.17, "vel_east_m_s": 22.35, "vel_down_m_s": 0.59, "battery_remain_pct": 4300.0}
{"t_rx_ms": 1777336111399, "run_id": "20260427_172806", "seq": 125, "pitch_deg": -5.0849, "yaw_deg": 93.1081, "roll_deg": 0.0742, "lat_deg": 34.010275299999996, "lon_deg": -118.0013706, "altitude_rel_ft": 256.9948, "ground_speed_ft_s": 73.5255, "vel_north_m_s": -1.17, "vel_east_m_s": 22.38, "vel_down_m_s": 0.62, "battery_remain_pct": 4300.0}
{"t_rx_ms": 1777336111600, "run_id": "20260427_172806", "seq": 126, "pitch_deg": -4.9655, "yaw_deg": 93.0575, "roll_deg": 0.065, "lat_deg": 34.010275299999996, "lon_deg": -118.0013706, "altitude_rel_ft": 256.9948, "ground_speed_ft_s": 73.5255, "vel_north_m_s": -1.17, "vel_east_m_s": 22.38, "vel_down_m_s": 0.62, "battery_remain_pct": 4300.0}
{"t_rx_ms": 1777336111801, "run_id": "20260427_172806", "seq": 127, "pitch_deg": -4.853, "yaw_deg": 93.1104, "roll_deg": -0.0023, "lat_deg": 34.0102718, "lon_deg": -118.00128839999999, "altitude_rel_ft": 256.3452, "ground_speed_ft_s": 73.4238, "vel_north_m_s": -1.15, "vel_east_m_s": 22.35, "vel_down_m_s": 0.55, "battery_remain_pct": 4300.0}
{"t_rx_ms": 1777336112001, "run_id": "20260427_172806", "seq": 128, "pitch_deg": -4.9456, "yaw_deg": 93.0447, "roll_deg": 0.0637, "lat_deg": 34.0102718, "lon_deg": -118.00128839999999, "altitude_rel_ft": 256.3452, "ground_speed_ft_s": 73.4238, "vel_north_m_s": -1.15, "vel_east_m_s": 22.35, "vel_down_m_s": 0.55, "battery_remain_pct": 4300.0}
{"t_rx_ms": 1777336112202, "run_id": "20260427_172806", "seq": 129, "pitch_deg": -5.1579, "yaw_deg": 93.0519, "roll_deg": 0.0579, "lat_deg": 34.010268599999996, "lon_deg": -118.0012115, "altitude_rel_ft": 255.7415, "ground_speed_ft_s": 73.3238, "vel_north_m_s": -1.14, "vel_east_m_s": 22.32, "vel_down_m_s": 0.62, "battery_remain_pct": 4300.0}
{"t_rx_ms": 1777336112403, "run_id": "20260427_172806", "seq": 130, "pitch_deg": -4.9194, "yaw_deg": 93.0629, "roll_deg": 0.1017, "lat_deg": 34.0102652, "lon_deg": -118.00112969999999, "altitude_rel_ft": 255.0099, "ground_speed_ft_s": 73.2894, "vel_north_m_s": -1.13, "vel_east_m_s": 22.31, "vel_down_m_s": 0.64, "battery_remain_pct": 4300.0}
{"t_rx_ms": 1777336112604, "run_id": "20260427_172806", "seq": 131, "pitch_deg": -4.7345, "yaw_deg": 93.0851, "roll_deg": 0.1183, "lat_deg": 34.0102652, "lon_deg": -118.00112969999999, "altitude_rel_ft": 255.0099, "ground_speed_ft_s": 73.2894, "vel_north_m_s": -1.13, "vel_east_m_s": 22.31, "vel_down_m_s": 0.64, "battery_remain_pct": 4300.0}
{"t_rx_ms": 1777336112806, "run_id": "20260427_172806", "seq": 132, "pitch_deg": -4.8815, "yaw_deg": 93.1402, "roll_deg": 0.2236, "lat_deg": 34.0102617, "lon_deg": -118.0010473, "altitude_rel_ft": 254.3832, "ground_speed_ft_s": 73.2599, "vel_north_m_s": -1.15, "vel_east_m_s": 22.3, "vel_down_m_s": 0.52, "battery_remain_pct": 4300.0}
{"t_rx_ms": 1777336113006, "run_id": "20260427_172806", "seq": 133, "pitch_deg": -5.0103, "yaw_deg": 93.1085, "roll_deg": 0.1525, "lat_deg": 34.0102617, "lon_deg": -118.0010473, "altitude_rel_ft": 254.3832, "ground_speed_ft_s": 73.2599, "vel_north_m_s": -1.15, "vel_east_m_s": 22.3, "vel_down_m_s": 0.52, "battery_remain_pct": 4300.0}
{"t_rx_ms": 1777336113207, "run_id": "20260427_172806", "seq": 134, "pitch_deg": -4.9499, "yaw_deg": 93.0218, "roll_deg": 0.067, "lat_deg": 34.0102584, "lon_deg": -118.0009692, "altitude_rel_ft": 253.7927, "ground_speed_ft_s": 73.3272, "vel_north_m_s": -1.16, "vel_east_m_s": 22.32, "vel_down_m_s": 0.61, "battery_remain_pct": 4300.0}
{"t_rx_ms": 1777336113408, "run_id": "20260427_172806", "seq": 135, "pitch_deg": -4.9759, "yaw_deg": 93.0884, "roll_deg": 0.0069, "lat_deg": 34.0102549, "lon_deg": -118.00088629999999, "altitude_rel_ft": 253.1266, "ground_speed_ft_s": 73.3893, "vel_north_m_s": -1.14, "vel_east_m_s": 22.34, "vel_down_m_s": 0.57, "battery_remain_pct": 4300.0}
{"t_rx_ms": 1777336113609, "run_id": "20260427_172806", "seq": 136, "pitch_deg": -4.9918, "yaw_deg": 93.0811, "roll_deg": 0.0686, "lat_deg": 34.0102549, "lon_deg": -118.00088629999999, "altitude_rel_ft": 253.1266, "ground_speed_ft_s": 73.3893, "vel_north_m_s": -1.14, "vel_east_m_s": 22.34, "vel_down_m_s": 0.57, "battery_remain_pct": 4300.0}
{"t_rx_ms": 1777336113809, "run_id": "20260427_172806", "seq": 137, "pitch_deg": -4.8992, "yaw_deg": 93.0228, "roll_deg": 0.0414, "lat_deg": 34.0102514, "lon_deg": -118.0008043, "altitude_rel_ft": 252.4246, "ground_speed_ft_s": 73.3221, "vel_north_m_s": -1.13, "vel_east_m_s": 22.32, "vel_down_m_s": 0.6, "battery_remain_pct": 4300.0}
{"t_rx_ms": 1777336114010, "run_id": "20260427_172806", "seq": 138, "pitch_deg": -4.9214, "yaw_deg": 93.0243, "roll_deg": 0.0245, "lat_deg": 34.0102483, "lon_deg": -118.00072739999999, "altitude_rel_ft": 251.7946, "ground_speed_ft_s": 73.2877, "vel_north_m_s": -1.12, "vel_east_m_s": 22.31, "vel_down_m_s": 0.57, "battery_remain_pct": 4300.0}
{"t_rx_ms": 1777336114210, "run_id": "20260427_172806", "seq": 139, "pitch_deg": -5.103, "yaw_deg": 93.0472, "roll_deg": 0.1274, "lat_deg": 34.0102483, "lon_deg": -118.00072739999999, "altitude_rel_ft": 251.7946, "ground_speed_ft_s": 73.2877, "vel_north_m_s": -1.12, "vel_east_m_s": 22.31, "vel_down_m_s": 0.57, "battery_remain_pct": 4300.0}
{"t_rx_ms": 1777336114411, "run_id": "20260427_172806", "seq": 140, "pitch_deg": -5.0697, "yaw_deg": 93.0055, "roll_deg": 0.2382, "lat_deg": 34.0102449, "lon_deg": -118.00064569999999, "altitude_rel_ft": 251.0827, "ground_speed_ft_s": 73.2566, "vel_north_m_s": -1.13, "vel_east_m_s": 22.3, "vel_down_m_s": 0.66, "battery_remain_pct": 4300.0}
{"t_rx_ms": 1777336114613, "run_id": "20260427_172806", "seq": 141, "pitch_deg": -4.7746, "yaw_deg": 93.0173, "roll_deg": 0.2424, "lat_deg": 34.0102449, "lon_deg": -118.00064569999999, "altitude_rel_ft": 251.0827, "ground_speed_ft_s": 73.2566, "vel_north_m_s": -1.13, "vel_east_m_s": 22.3, "vel_down_m_s": 0.66, "battery_remain_pct": 4300.0}
{"t_rx_ms": 1777336114813, "run_id": "20260427_172806", "seq": 142, "pitch_deg": -4.633, "yaw_deg": 93.0666, "roll_deg": 0.2242, "lat_deg": 34.0102415, "lon_deg": -118.0005637, "altitude_rel_ft": 250.42, "ground_speed_ft_s": 73.2238, "vel_north_m_s": -1.13, "vel_east_m_s": 22.29, "vel_down_m_s": 0.51, "battery_remain_pct": 4200.0}
{"t_rx_ms": 1777336115014, "run_id": "20260427_172806", "seq": 143, "pitch_deg": -4.9321, "yaw_deg": 93.0461, "roll_deg": 0.2426, "lat_deg": 34.010238199999996, "lon_deg": -118.00048579999999, "altitude_rel_ft": 249.9016, "ground_speed_ft_s": 73.2583, "vel_north_m_s": -1.14, "vel_east_m_s": 22.3, "vel_down_m_s": 0.56, "battery_remain_pct": 4200.0}
{"t_rx_ms": 1777336115215, "run_id": "20260427_172806", "seq": 144, "pitch_deg": -5.1767, "yaw_deg": 93.0559, "roll_deg": 0.1823, "lat_deg": 34.010238199999996, "lon_deg": -118.00048579999999, "altitude_rel_ft": 249.9016, "ground_speed_ft_s": 73.2583, "vel_north_m_s": -1.14, "vel_east_m_s": 22.3, "vel_down_m_s": 0.56, "battery_remain_pct": 4200.0}
{"t_rx_ms": 1777336115416, "run_id": "20260427_172806", "seq": 145, "pitch_deg": -5.2212, "yaw_deg": 93.079, "roll_deg": 0.1407, "lat_deg": 34.0102347, "lon_deg": -118.0004027, "altitude_rel_ft": 249.1864, "ground_speed_ft_s": 73.3877, "vel_north_m_s": -1.13, "vel_east_m_s": 22.34, "vel_down_m_s": 0.69, "battery_remain_pct": 4200.0}
{"t_rx_ms": 1777336115618, "run_id": "20260427_172806", "seq": 146, "pitch_deg": -4.8489, "yaw_deg": 93.0824, "roll_deg": 0.059, "lat_deg": 34.0102347, "lon_deg": -118.0004027, "altitude_rel_ft": 249.1864, "ground_speed_ft_s": 73.3877, "vel_north_m_s": -1.13, "vel_east_m_s": 22.34, "vel_down_m_s": 0.69, "battery_remain_pct": 4200.0}
{"t_rx_ms": 1777336115819, "run_id": "20260427_172806", "seq": 147, "pitch_deg": -4.6008, "yaw_deg": 93.0895, "roll_deg": -0.0031, "lat_deg": 34.0102313, "lon_deg": -118.0003201, "altitude_rel_ft": 248.4941, "ground_speed_ft_s": 73.386, "vel_north_m_s": -1.12, "vel_east_m_s": 22.34, "vel_down_m_s": 0.52, "battery_remain_pct": 4200.0}
{"t_rx_ms": 1777336116019, "run_id": "20260427_172806", "seq": 148, "pitch_deg": -4.7858, "yaw_deg": 93.0761, "roll_deg": 0.1562, "lat_deg": 34.0102281, "lon_deg": -118.000243, "altitude_rel_ft": 247.9823, "ground_speed_ft_s": 73.2877, "vel_north_m_s": -1.12, "vel_east_m_s": 22.31, "vel_down_m_s": 0.5, "battery_remain_pct": 4200.0}
{"t_rx_ms": 1777336116220, "run_id": "20260427_172806", "seq": 149, "pitch_deg": -5.0953, "yaw_deg": 93.1127, "roll_deg": 0.2847, "lat_deg": 34.0102281, "lon_deg": -118.000243, "altitude_rel_ft": 247.9823, "ground_speed_ft_s": 73.2877, "vel_north_m_s": -1.12, "vel_east_m_s": 22.31, "vel_down_m_s": 0.5, "battery_remain_pct": 4200.0}
{"t_rx_ms": 1777336116421, "run_id": "20260427_172806", "seq": 150, "pitch_deg": -5.06, "yaw_deg": 93.1377, "roll_deg": 0.3524, "lat_deg": 34.0102247, "lon_deg": -118.00016129999999, "altitude_rel_ft": 247.2933, "ground_speed_ft_s": 73.1927, "vel_north_m_s": -1.14, "vel_east_m_s": 22.28, "vel_down_m_s": 0.67, "battery_remain_pct": 4200.0}
{"t_rx_ms": 1777336116621, "run_id": "20260427_172806", "seq": 151, "pitch_deg": -4.9134, "yaw_deg": 93.1192, "roll_deg": 0.3249, "lat_deg": 34.0102247, "lon_deg": -118.00016129999999, "altitude_rel_ft": 247.2933, "ground_speed_ft_s": 73.1927, "vel_north_m_s": -1.14, "vel_east_m_s": 22.28, "vel_down_m_s": 0.67, "battery_remain_pct": 4200.0}
{"t_rx_ms": 1777336116821, "run_id": "20260427_172806", "seq": 152, "pitch_deg": -4.8423, "yaw_deg": 93.0902, "roll_deg": 0.2421, "lat_deg": 34.0102213, "lon_deg": -118.0000795, "altitude_rel_ft": 246.5715, "ground_speed_ft_s": 73.1289, "vel_north_m_s": -1.15, "vel_east_m_s": 22.26, "vel_down_m_s": 0.58, "battery_remain_pct": 4200.0}
{"t_rx_ms": 1777336117023, "run_id": "20260427_172806", "seq": 153, "pitch_deg": -4.9611, "yaw_deg": 93.1383, "roll_deg": 0.1269, "lat_deg": 34.010218, "lon_deg": -118.0000017, "altitude_rel_ft": 245.9843, "ground_speed_ft_s": 73.2272, "vel_north_m_s": -1.15, "vel_east_m_s": 22.29, "vel_down_m_s": 0.58, "battery_remain_pct": 4200.0}
{"t_rx_ms": 1777336117223, "run_id": "20260427_172806", "seq": 154, "pitch_deg": -4.9859, "yaw_deg": 93.1657, "roll_deg": 0.0644, "lat_deg": 34.010218, "lon_deg": -118.0000017, "altitude_rel_ft": 245.9843, "ground_speed_ft_s": 73.2272, "vel_north_m_s": -1.15, "vel_east_m_s": 22.29, "vel_down_m_s": 0.58, "battery_remain_pct": 4200.0}
{"t_rx_ms": 1777336117423, "run_id": "20260427_172806", "seq": 155, "pitch_deg": -4.9602, "yaw_deg": 93.0772, "roll_deg": 0.0384, "lat_deg": 34.010214399999995, "lon_deg": -117.9999187, "altitude_rel_ft": 245.3281, "ground_speed_ft_s": 73.3582, "vel_north_m_s": -1.15, "vel_east_m_s": 22.33, "vel_down_m_s": 0.59, "battery_remain_pct": 4200.0}
{"t_rx_ms": 1777336117625, "run_id": "20260427_172806", "seq": 156, "pitch_deg": -5.0084, "yaw_deg": 93.1215, "roll_deg": 0.0412, "lat_deg": 34.010214399999995, "lon_deg": -117.9999187, "altitude_rel_ft": 245.3281, "ground_speed_ft_s": 73.3582, "vel_north_m_s": -1.15, "vel_east_m_s": 22.33, "vel_down_m_s": 0.59, "battery_remain_pct": 4200.0}
{"t_rx_ms": 1777336117825, "run_id": "20260427_172806", "seq": 157, "pitch_deg": -4.8964, "yaw_deg": 93.1702, "roll_deg": 0.156, "lat_deg": 34.010211, "lon_deg": -117.9998361, "altitude_rel_ft": 244.6752, "ground_speed_ft_s": 73.4204, "vel_north_m_s": -1.13, "vel_east_m_s": 22.35, "vel_down_m_s": 0.59, "battery_remain_pct": 4200.0}
{"t_rx_ms": 1777336118026, "run_id": "20260427_172806", "seq": 158, "pitch_deg": -4.8816, "yaw_deg": 93.0741, "roll_deg": 0.275, "lat_deg": 34.010207699999995, "lon_deg": -117.999759, "altitude_rel_ft": 244.065, "ground_speed_ft_s": 73.3566, "vel_north_m_s": -1.14, "vel_east_m_s": 22.33, "vel_down_m_s": 0.55, "battery_remain_pct": 4200.0}
{"t_rx_ms": 1777336118229, "run_id": "20260427_172806", "seq": 159, "pitch_deg": -4.9955, "yaw_deg": 93.178, "roll_deg": 0.2466, "lat_deg": 34.010207699999995, "lon_deg": -117.999759, "altitude_rel_ft": 244.065, "ground_speed_ft_s": 73.3566, "vel_north_m_s": -1.14, "vel_east_m_s": 22.33, "vel_down_m_s": 0.55, "battery_remain_pct": 4200.0}
{"t_rx_ms": 1777336118427, "run_id": "20260427_172806", "seq": 160, "pitch_deg": -5.0721, "yaw_deg": 93.187, "roll_deg": 0.2544, "lat_deg": 34.0102043, "lon_deg": -117.99967729999999, "altitude_rel_ft": 243.376, "ground_speed_ft_s": 73.2944, "vel_north_m_s": -1.16, "vel_east_m_s": 22.31, "vel_down_m_s": 0.64, "battery_remain_pct": 4200.0}
{"t_rx_ms": 1777336118628, "run_id": "20260427_172806", "seq": 161, "pitch_deg": -4.95, "yaw_deg": 93.1804, "roll_deg": 0.1839, "lat_deg": 34.0102043, "lon_deg": -117.99967729999999, "altitude_rel_ft": 243.376, "ground_speed_ft_s": 73.2944, "vel_north_m_s": -1.16, "vel_east_m_s": 22.31, "vel_down_m_s": 0.64, "battery_remain_pct": 4200.0}
{"t_rx_ms": 1777336118830, "run_id": "20260427_172806", "seq": 162, "pitch_deg": -4.762, "yaw_deg": 93.1614, "roll_deg": 0.1134, "lat_deg": 34.010200999999995, "lon_deg": -117.9996003, "altitude_rel_ft": 242.6936, "ground_speed_ft_s": 73.2634, "vel_north_m_s": -1.17, "vel_east_m_s": 22.3, "vel_down_m_s": 0.6, "battery_remain_pct": 4200.0}
{"t_rx_ms": 1777336119030, "run_id": "20260427_172806", "seq": 163, "pitch_deg": -4.783, "yaw_deg": 93.1931, "roll_deg": 0.0311, "lat_deg": 34.010197399999996, "lon_deg": -117.99951739999999, "altitude_rel_ft": 242.0899, "ground_speed_ft_s": 73.3272, "vel_north_m_s": -1.16, "vel_east_m_s": 22.32, "vel_down_m_s": 0.52, "battery_remain_pct": 4200.0}
{"t_rx_ms": 1777336119233, "run_id": "20260427_172806", "seq": 164, "pitch_deg": -5.0748, "yaw_deg": 93.226, "roll_deg": 0.1573, "lat_deg": 34.010197399999996, "lon_deg": -117.99951739999999, "altitude_rel_ft": 242.0899, "ground_speed_ft_s": 73.3272, "vel_north_m_s": -1.16, "vel_east_m_s": 22.32, "vel_down_m_s": 0.52, "battery_remain_pct": 4200.0}
{"t_rx_ms": 1777336119434, "run_id": "20260427_172806", "seq": 165, "pitch_deg": -5.1001, "yaw_deg": 93.236, "roll_deg": 0.1834, "lat_deg": 34.0101939, "lon_deg": -117.99943429999999, "altitude_rel_ft": 241.4305, "ground_speed_ft_s": 73.4272, "vel_north_m_s": -1.17, "vel_east_m_s": 22.35, "vel_down_m_s": 0.64, "battery_remain_pct": 4200.0}
{"t_rx_ms": 1777336119634, "run_id": "20260427_172806", "seq": 166, "pitch_deg": -5.0165, "yaw_deg": 93.2094, "roll_deg": 0.1787, "lat_deg": 34.0101939, "lon_deg": -117.99943429999999, "altitude_rel_ft": 241.4305, "ground_speed_ft_s": 73.4272, "vel_north_m_s": -1.17, "vel_east_m_s": 22.35, "vel_down_m_s": 0.64, "battery_remain_pct": 4200.0}
{"t_rx_ms": 1777336119835, "run_id": "20260427_172806", "seq": 167, "pitch_deg": -4.7871, "yaw_deg": 93.1792, "roll_deg": 0.0999, "lat_deg": 34.0101905, "lon_deg": -117.99935649999999, "altitude_rel_ft": 240.7677, "ground_speed_ft_s": 73.4599, "vel_north_m_s": -1.17, "vel_east_m_s": 22.36, "vel_down_m_s": 0.59, "battery_remain_pct": 4200.0}
{"t_rx_ms": 1777336120037, "run_id": "20260427_172806", "seq": 168, "pitch_deg": -4.7482, "yaw_deg": 93.2691, "roll_deg": 0.016, "lat_deg": 34.010187099999996, "lon_deg": -117.99927459999999, "altitude_rel_ft": 240.1772, "ground_speed_ft_s": 73.3944, "vel_north_m_s": -1.17, "vel_east_m_s": 22.34, "vel_down_m_s": 0.51, "battery_remain_pct": 4200.0}
{"t_rx_ms": 1777336120238, "run_id": "20260427_172806", "seq": 169, "pitch_deg": -4.8778, "yaw_deg": 93.2975, "roll_deg": 0.0334, "lat_deg": 34.010187099999996, "lon_deg": -117.99927459999999, "altitude_rel_ft": 240.1772, "ground_speed_ft_s": 73.3944, "vel_north_m_s": -1.17, "vel_east_m_s": 22.34, "vel_down_m_s": 0.51, "battery_remain_pct": 4200.0}
{"t_rx_ms": 1777336120440, "run_id": "20260427_172806", "seq": 170, "pitch_deg": -5.0457, "yaw_deg": 93.2439, "roll_deg": 0.1666, "lat_deg": 34.0101835, "lon_deg": -117.9991929, "altitude_rel_ft": 239.5866, "ground_speed_ft_s": 73.2651, "vel_north_m_s": -1.18, "vel_east_m_s": 22.3, "vel_down_m_s": 0.61, "battery_remain_pct": 4200.0}
{"t_rx_ms": 1777336120642, "run_id": "20260427_172806", "seq": 171, "pitch_deg": -4.9859, "yaw_deg": 93.2457, "roll_deg": 0.1266, "lat_deg": 34.0101835, "lon_deg": -117.9991929, "altitude_rel_ft": 239.5866, "ground_speed_ft_s": 73.2651, "vel_north_m_s": -1.18, "vel_east_m_s": 22.3, "vel_down_m_s": 0.61, "battery_remain_pct": 4200.0}
{"t_rx_ms": 1777336120843, "run_id": "20260427_172806", "seq": 172, "pitch_deg": -4.8259, "yaw_deg": 93.2198, "roll_deg": 0.0883, "lat_deg": 34.0101802, "lon_deg": -117.999116, "altitude_rel_ft": 238.9075, "ground_speed_ft_s": 73.1668, "vel_north_m_s": -1.18, "vel_east_m_s": 22.27, "vel_down_m_s": 0.62, "battery_remain_pct": 4200.0}
{"t_rx_ms": 1777336121044, "run_id": "20260427_172806", "seq": 173, "pitch_deg": -4.8448, "yaw_deg": 93.2822, "roll_deg": 0.0936, "lat_deg": 34.0101766, "lon_deg": -117.99903379999999, "altitude_rel_ft": 238.2776, "ground_speed_ft_s": 73.134, "vel_north_m_s": -1.18, "vel_east_m_s": 22.26, "vel_down_m_s": 0.56, "battery_remain_pct": 4200.0}
{"t_rx_ms": 1777336121246, "run_id": "20260427_172806", "seq": 174, "pitch_deg": -5.0341, "yaw_deg": 93.2251, "roll_deg": 0.0993, "lat_deg": 34.0101766, "lon_deg": -117.99903379999999, "altitude_rel_ft": 238.2776, "ground_speed_ft_s": 73.134, "vel_north_m_s": -1.18, "vel_east_m_s": 22.26, "vel_down_m_s": 0.56, "battery_remain_pct": 4200.0}
{"t_rx_ms": 1777336121447, "run_id": "20260427_172806", "seq": 175, "pitch_deg": -5.1289, "yaw_deg": 93.2365, "roll_deg": 0.0214, "lat_deg": 34.010173, "lon_deg": -117.99895099999999, "altitude_rel_ft": 237.605, "ground_speed_ft_s": 73.2323, "vel_north_m_s": -1.18, "vel_east_m_s": 22.29, "vel_down_m_s": 0.65, "battery_remain_pct": 4200.0}
