{"t_rx_ms": 1777335495021, "run_id": "20260427_171814", "seq": 0, "pitch_deg": null, "yaw_deg": null, "roll_deg": null, "lat_deg": null, "lon_deg": null, "altitude_rel_ft": null, "ground_speed_ft_s": null, "vel_north_m_s": null, "vel_east_m_s": null, "vel_down_m_s": null, "battery_remain_pct": null}
{"t_rx_ms": 1777335495220, "run_id": "20260427_171814", "seq": 1, "pitch_deg": 0.0071, "yaw_deg": 0.0363, "roll_deg": 0.0195, "lat_deg": null, "lon_deg": null, "altitude_rel_ft": null, "ground_speed_ft_s": null, "vel_north_m_s": null, "vel_east_m_s": null, "vel_down_m_s": null, "battery_remain_pct": null}
{"t_rx_ms": 1777335495422, "run_id": "20260427_171814", "seq": 2, "pitch_deg": 0.0069, "yaw_deg": 0.0369, "roll_deg": 0.0193, "lat_deg": 34.009999799999996, "lon_deg": -118.00999999999999, "altitude_rel_ft": -0.0131, "ground_speed_ft_s": 0.0, "vel_north_m_s": 0.0, "vel_east_m_s": 0.0, "vel_down_m_s": -0.02, "battery_remain_pct": 9900.0}
{"t_rx_ms": 1777335495623, "run_id": "20260427_171814", "seq": 3, "pitch_deg": 0.0068, "yaw_deg": 0.0374, "roll_deg": 0.0189, "lat_deg": 34.009999799999996, "lon_deg": -118.00999999999999, "altitude_rel_ft": -0.0131, "ground_speed_ft_s": 0.0, "vel_north_m_s": 0.0, "vel_east_m_s": 0.0, "vel_down_m_s": -0.02, "battery_remain_pct": 9900.0}
{"t_rx_ms": 1777335495823, "run_id": "20260427_171814", "seq": 4, "pitch_deg": 0.0063, "yaw_deg": 0.0378, "roll_deg": 0.0186, "lat_deg": 34.009999799999996, "lon_deg": -118.00999999999999, "altitude_rel_ft": 0.0066, "ground_speed_ft_s": 0.0, "vel_north_m_s": 0.0, "vel_east_m_s": 0.0, "vel_down_m_s": -0.02, "battery_remain_pct": 9900.0}
{"t_rx_ms": 1777335496025, "run_id": "20260427_171814", "seq": 5, "pitch_deg": 0.0062, "yaw_deg": 0.0383, "roll_deg": 0.0182, "lat_deg": 34.009999799999996, "lon_deg": -118.00999999999999, "altitude_rel_ft": 0.0295, "ground_speed_ft_s": 0.0, "vel_north_m_s": 0.0, "vel_east_m_s": 0.0, "vel_down_m_s": -0.01, "battery_remain_pct": 9900.0}
{"t_rx_ms": 1777335496227, "run_id": "20260427_171814", "seq": 6, "pitch_deg": 0.0056, "yaw_deg": 0.0384, "roll_deg": 0.0175, "lat_deg": 34.009999799999996, "lon_deg": -118.00999999999999, "altitude_rel_ft": 0.0295, "ground_speed_ft_s": 0.0, "vel_north_m_s": 0.0, "vel_east_m_s": 0.0, "vel_down_m_s": -0.01, "battery_remain_pct": 9900.0}
{"t_rx_ms": 1777335496427, "run_id": "20260427_171814", "seq": 7, "pitch_deg": 0.005, "yaw_deg": 0.0386, "roll_deg": 0.017, "lat_deg": 34.009999799999996, "lon_deg": -118.00999999999999, "altitude_rel_ft": 0.0459, "ground_speed_ft_s": 0.0, "vel_north_m_s": 0.0, "vel_east_m_s": 0.0, "vel_down_m_s": -0.01, "battery_remain_pct": 9900.0}
{"t_rx_ms": 1777335496628, "run_id": "20260427_171814", "seq": 8, "pitch_deg": 0.0047, "yaw_deg": 0.0387, "roll_deg": 0.0164, "lat_deg": 34.009999799999996, "lon_deg": -118.00999999999999, "altitude_rel_ft": 0.0459, "ground_speed_ft_s": 0.0, "vel_north_m_s": 0.0, "vel_east_m_s": 0.0, "vel_down_m_s": -0.01, "battery_remain_pct": 9900.0}
{"t_rx_ms": 1777335496830, "run_id": "20260427_171814", "seq": 9, "pitch_deg": 0.0046, "yaw_deg": 0.0391, "roll_deg": 0.0159, "lat_deg": 34.009999799999996, "lon_deg": -118.00999999999999, "altitude_rel_ft": 0.0394, "ground_speed_ft_s": 0.0, "vel_north_m_s": 0.0, "vel_east_m_s": 0.0, "vel_down_m_s": -0.01, "battery_remain_pct": 9900.0}
{"t_rx_ms": 1777335497030, "run_id": "20260427_171814", "seq": 10, "pitch_deg": 0.0044, "yaw_deg": 0.0391, "roll_deg": 0.0158, "lat_deg": 34.009999799999996, "lon_deg": -118.00999999999999, "altitude_rel_ft": 0.0197, "ground_speed_ft_s": 0.0, "vel_north_m_s": 0.0, "vel_east_m_s": 0.0, "vel_down_m_s": -0.01, "battery_remain_pct": 9900.0}
{"t_rx_ms": 1777335497231, "run_id": "20260427_171814", "seq": 11, "pitch_deg": 0.0047, "yaw_deg": 0.0395, "roll_deg": 0.0158, "lat_deg": 34.009999799999996, "lon_deg": -118.00999999999999, "altitude_rel_ft": 0.0197, "ground_speed_ft_s": 0.0, "vel_north_m_s": 0.0, "vel_east_m_s": 0.0, "vel_down_m_s": -0.01, "battery_remain_pct": 9900.0}
{"t_rx_ms": 1777335497433, "run_id": "20260427_171814", "seq": 12, "pitch_deg": 0.0045, "yaw_deg": 0.0399, "roll_deg": 0.0159, "lat_deg": 34.009999799999996, "lon_deg": -118.00999999999999, "altitude_rel_ft": 0.0098, "ground_speed_ft_s": 0.0, "vel_north_m_s": 0.0, "vel_east_m_s": 0.0, "vel_down_m_s": -0.01, "battery_remain_pct": 9900.0}
{"t_rx_ms": 1777335497633, "run_id": "20260427_171814", "seq": 13, "pitch_deg": 0.0048, "yaw_deg": 0.0401, "roll_deg": 0.0157, "lat_deg": 34.009999799999996, "lon_deg": -118.00999999999999, "altitude_rel_ft": 0.0098, "ground_speed_ft_s": 0.0, "vel_north_m_s": 0.0, "vel_east_m_s": 0.0, "vel_down_m_s": -0.01, "battery_remain_pct": 9900.0}
{"t_rx_ms": 1777335497835, "run_id": "20260427_171814", "seq": 14, "pitch_deg": 0.0049, "yaw_deg": 0.0405, "roll_deg": 0.0158, "lat_deg": 34.009999799999996, "lon_deg": -118.00999999999999, "altitude_rel_ft": 0.0295, "ground_speed_ft_s": 0.0, "vel_north_m_s": 0.0, "vel_east_m_s": 0.0, "vel_down_m_s": -0.01, "battery_remain_pct": 9900.0}
{"t_rx_ms": 1777335498037, "run_id": "20260427_171814", "seq": 15, "pitch_deg": 0.005, "yaw_deg": 0.0405, "roll_deg": 0.0159, "lat_deg": 34.009999799999996, "lon_deg": -118.00999999999999, "altitude_rel_ft": 0.0525, "ground_speed_ft_s": 0.0, "vel_north_m_s": 0.0, "vel_east_m_s": 0.0, "vel_down_m_s": -0.01, "battery_remain_pct": 9900.0}
{"t_rx_ms": 1777335498237, "run_id": "20260427_171814", "seq": 16, "pitch_deg": 0.0054, "yaw_deg": 0.0409, "roll_deg": 0.0165, "lat_deg": 34.009999799999996, "lon_deg": -118.00999999999999, "altitude_rel_ft": 0.0525, "ground_speed_ft_s": 0.0, "vel_north_m_s": 0.0, "vel_east_m_s": 0.0, "vel_down_m_s": -0.01, "battery_remain_pct": 9900.0}
{"t_rx_ms": 1777335498438, "run_id": "20260427_171814", "seq": 17, "pitch_deg": 0.0056, "yaw_deg": 0.0413, "roll_deg": 0.0167, "lat_deg": 34.009999799999996, "lon_deg": -118.00999999999999, "altitude_rel_ft": 0.0328, "ground_speed_ft_s": 0.0, "vel_north_m_s": 0.0, "vel_east_m_s": 0.0, "vel_down_m_s": 0.0, "battery_remain_pct": 9900.0}
{"t_rx_ms": 1777335498639, "run_id": "20260427_171814", "seq": 18, "pitch_deg": 0.006, "yaw_deg": 0.0416, "roll_deg": 0.0174, "lat_deg": 34.009999799999996, "lon_deg": -118.00999999999999, "altitude_rel_ft": 0.0328, "ground_speed_ft_s": 0.0, "vel_north_m_s": 0.0, "vel_east_m_s": 0.0, "vel_down_m_s": 0.0, "battery_remain_pct": 9900.0}
{"t_rx_ms": 1777335498839, "run_id": "20260427_171814", "seq": 19, "pitch_deg": 0.0061, "yaw_deg": 0.0415, "roll_deg": 0.0176, "lat_deg": 34.009999799999996, "lon_deg": -118.00999999999999, "altitude_rel_ft": -0.0131, "ground_speed_ft_s": 0.0, "vel_north_m_s": 0.0, "vel_east_m_s": 0.0, "vel_down_m_s": 0.0, "battery_remain_pct": 9900.0}
{"t_rx_ms": 1777335499039, "run_id": "20260427_171814", "seq": 20, "pitch_deg": 0.0071, "yaw_deg": 0.0421, "roll_deg": 0.0184, "lat_deg": 34.009999799999996, "lon_deg": -118.00999999999999, "altitude_rel_ft": -0.0623, "ground_speed_ft_s": 0.0, "vel_north_m_s": 0.0, "vel_east_m_s": 0.0, "vel_down_m_s": 0.0, "battery_remain_pct": 9900.0}
{"t_rx_ms": 1777335499240, "run_id": "20260427_171814", "seq": 21, "pitch_deg": 0.0077, "yaw_deg": 0.0429, "roll_deg": 0.0186, "lat_deg": 34.009999799999996, "lon_deg": -118.00999999999999, "altitude_rel_ft": -0.0623, "ground_speed_ft_s": 0.0, "vel_north_m_s": 0.0, "vel_east_m_s": 0.0, "vel_down_m_s": 0.0, "battery_remain_pct": 9900.0}
{"t_rx_ms": 1777335499440, "run_id": "20260427_171814", "seq": 22, "pitch_deg": 0.0082, "yaw_deg": 0.0433, "roll_deg": 0.0192, "lat_deg": 34.009999799999996, "lon_deg": -118.00999999999999, "altitude_rel_ft": -0.0656, "ground_speed_ft_s": 0.0, "vel_north_m_s": 0.0, "vel_east_m_s": 0.0, "vel_down_m_s": 0.0, "battery_remain_pct": 9900.0}
{"t_rx_ms": 1777335499641, "run_id": "20260427_171814", "seq": 23, "pitch_deg": 0.0085, "yaw_deg": 0.0437, "roll_deg": 0.0195, "lat_deg": 34.009999799999996, "lon_deg": -118.00999999999999, "altitude_rel_ft": -0.0459, "ground_speed_ft_s": 0.0, "vel_north_m_s": 0.0, "vel_east_m_s": 0.0, "vel_down_m_s": 0.0, "battery_remain_pct": 9900.0}
{"t_rx_ms": 1777335499842, "run_id": "20260427_171814", "seq": 24, "pitch_deg": 0.0093, "yaw_deg": 0.0442, "roll_deg": 0.0202, "lat_deg": 34.009999799999996, "lon_deg": -118.00999999999999, "altitude_rel_ft": -0.0459, "ground_speed_ft_s": 0.0, "vel_north_m_s": 0.0, "vel_east_m_s": 0.0, "vel_down_m_s": 0.0, "battery_remain_pct": 9900.0}
{"t_rx_ms": 1777335500042, "run_id": "20260427_171814", "seq": 25, "pitch_deg": 0.0097, "yaw_deg": 0.0447, "roll_deg": 0.0205, "lat_deg": 34.009999799999996, "lon_deg": -118.00999999999999, "altitude_rel_ft": -0.0558, "ground_speed_ft_s": 0.0, "vel_north_m_s": 0.0, "vel_east_m_s": 0.0, "vel_down_m_s": 0.0, "battery_remain_pct": 9900.0}
{"t_rx_ms": 1777335500243, "run_id": "20260427_171814", "seq": 26, "pitch_deg": 0.0099, "yaw_deg": 0.0457, "roll_deg": 0.0209, "lat_deg": 34.009999799999996, "lon_deg": -118.00999999999999, "altitude_rel_ft": -0.0558, "ground_speed_ft_s": 0.0, "vel_north_m_s": 0.0, "vel_east_m_s": 0.0, "vel_down_m_s": 0.0, "battery_remain_pct": 9900.0}
{"t_rx_ms": 1777335500444, "run_id": "20260427_171814", "seq": 27, "pitch_deg": 0.0103, "yaw_deg": 0.0466, "roll_deg": 0.0214, "lat_deg": 34.009999799999996, "lon_deg": -118.00999999999999, "altitude_rel_ft": -0.082, "ground_speed_ft_s": 0.0, "vel_north_m_s": 0.0, "vel_east_m_s": 0.0, "vel_down_m_s": 0.0, "battery_remain_pct": 9900.0}
{"t_rx_ms": 1777335500644, "run_id": "20260427_171814", "seq": 28, "pitch_deg": 0.0107, "yaw_deg": 0.0473, "roll_deg": 0.0219, "lat_deg": 34.009999799999996, "lon_deg": -118.00999999999999, "altitude_rel_ft": -0.1148, "ground_speed_ft_s": 0.0, "vel_north_m_s": 0.0, "vel_east_m_s": 0.0, "vel_down_m_s": 0.0, "battery_remain_pct": 9900.0}
{"t_rx_ms": 1777335500845, "run_id": "20260427_171814", "seq": 29, "pitch_deg": 0.0116, "yaw_deg": 0.048, "roll_deg": 0.0224, "lat_deg": 34.009999799999996, "lon_deg": -118.00999999999999, "altitude_rel_ft": -0.1148, "ground_speed_ft_s": 0.0, "vel_north_m_s": 0.0, "vel_east_m_s": 0.0, "vel_down_m_s": 0.0, "battery_remain_pct": 9900.0}
{"t_rx_ms": 1777335501046, "run_id": "20260427_171814", "seq": 30, "pitch_deg": 0.0124, "yaw_deg": 0.0486, "roll_deg": 0.023, "lat_deg": 34.009999799999996, "lon_deg": -118.00999999999999, "altitude_rel_ft": -0.1214, "ground_speed_ft_s": 0.0, "vel_north_m_s": 0.0, "vel_east_m_s": 0.0, "vel_down_m_s": 0.0, "battery_remain_pct": 9900.0}
{"t_rx_ms": 1777335501247, "run_id": "20260427_171814", "seq": 31, "pitch_deg": 0.0124, "yaw_deg": 0.0493, "roll_deg": 0.0234, "lat_deg": 34.009999799999996, "lon_deg": -118.00999999999999, "altitude_rel_ft": -0.1214, "ground_speed_ft_s": 0.0, "vel_north_m_s": 0.0, "vel_east_m_s": 0.0, "vel_down_m_s": 0.0, "battery_remain_pct": 9900.0}
{"t_rx_ms": 1777335501449, "run_id": "20260427_171814", "seq": 32, "pitch_deg": 0.0129, "yaw_deg": 0.0503, "roll_deg": 0.024, "lat_deg": 34.009999799999996, "lon_deg": -118.00999999999999, "altitude_rel_ft": -0.0427, "ground_speed_ft_s": 0.0, "vel_north_m_s": 0.0, "vel_east_m_s": 0.0, "vel_down_m_s": 0.0, "battery_remain_pct": 9900.0}
{"t_rx_ms": 1777335501650, "run_id": "20260427_171814", "seq": 33, "pitch_deg": 0.0134, "yaw_deg": 0.0512, "roll_deg": 0.0244, "lat_deg": 34.009999799999996, "lon_deg": -118.00999999999999, "altitude_rel_ft": -0.0098, "ground_speed_ft_s": 0.0, "vel_north_m_s": 0.0, "vel_east_m_s": 0.0, "vel_down_m_s": 0.0, "battery_remain_pct": 9900.0}
{"t_rx_ms": 1777335501850, "run_id": "20260427_171814", "seq": 34, "pitch_deg": 0.0142, "yaw_deg": 0.0523, "roll_deg": 0.0251, "lat_deg": 34.009999799999996, "lon_deg": -118.00999999999999, "altitude_rel_ft": -0.0098, "ground_speed_ft_s": 0.0, "vel_north_m_s": 0.0, "vel_east_m_s": 0.0, "vel_down_m_s": 0.0, "battery_remain_pct": 9900.0}
{"t_rx_ms": 1777335502051, "run_id": "20260427_171814", "seq": 35, "pitch_deg": 0.015, "yaw_deg": 0.0533, "roll_deg": 0.0258, "lat_deg": 34.009999799999996, "lon_deg": -118.00999999999999, "altitude_rel_ft": 0.0, "ground_speed_ft_s": 0.0, "vel_north_m_s": 0.0, "vel_east_m_s": 0.0, "vel_down_m_s": 0.0, "battery_remain_pct": 9900.0}
{"t_rx_ms": 1777335502252, "run_id": "20260427_171814", "seq": 36, "pitch_deg": 0.0153, "yaw_deg": 0.0543, "roll_deg": 0.0262, "lat_deg": 34.009999799999996, "lon_deg": -118.00999999999999, "altitude_rel_ft": 0.0, "ground_speed_ft_s": 0.0, "vel_north_m_s": 0.0, "vel_east_m_s": 0.0, "vel_down_m_s": 0.0, "battery_remain_pct": 9900.0}
{"t_rx_ms": 1777335502452, "run_id": "20260427_171814", "seq": 37, "pitch_deg": 0.016, "yaw_deg": 0.0555, "roll_deg": 0.027, "lat_deg": 34.009999799999996, "lon_deg": -118.00999999999999, "altitude_rel_ft": -0.0197, "ground_speed_ft_s": 0.0, "vel_north_m_s": 0.0, "vel_east_m_s": 0.0, "vel_down_m_s": 0.0, "battery_remain_pct": 9900.0}
{"t_rx_ms": 1777335502653, "run_id": "20260427_171814", "seq": 38, "pitch_deg": 0.0167, "yaw_deg": 0.0567, "roll_deg": 0.0277, "lat_deg": 34.009999799999996, "lon_deg": -118.00999999999999, "altitude_rel_ft": -0.0328, "ground_speed_ft_s": 0.0, "vel_north_m_s": 0.0, "vel_east_m_s": 0.0, "vel_down_m_s": 0.0, "battery_remain_pct": 9900.0}
{"t_rx_ms": 1777335502854, "run_id": "20260427_171814", "seq": 39, "pitch_deg": 0.0172, "yaw_deg": 0.0578, "roll_deg": 0.0283, "lat_deg": 34.009999799999996, "lon_deg": -118.00999999999999, "altitude_rel_ft": -0.0328, "ground_speed_ft_s": 0.0, "vel_north_m_s": 0.0, "vel_east_m_s": 0.0, "vel_down_m_s": 0.0, "battery_remain_pct": 9900.0}
{"t_rx_ms": 1777335503054, "run_id": "20260427_171814", "seq": 40, "pitch_deg": 0.0178, "yaw_deg": 0.0589, "roll_deg": 0.0291, "lat_deg": 34.009999799999996, "lon_deg": -118.00999999999999, "altitude_rel_ft": -0.0098, "ground_speed_ft_s": 0.0, "vel_north_m_s": 0.0, "vel_east_m_s": 0.0, "vel_down_m_s": 0.0, "battery_remain_pct": 9900.0}
{"t_rx_ms": 1777335503255, "run_id": "20260427_171814", "seq": 41, "pitch_deg": 0.0187, "yaw_deg": 0.06, "roll_deg": 0.03, "lat_deg": 34.009999799999996, "lon_deg": -118.00999999999999, "altitude_rel_ft": -0.0098, "ground_speed_ft_s": 0.0, "vel_north_m_s": 0.0, "vel_east_m_s": 0.0, "vel_down_m_s": 0.0, "battery_remain_pct": 9900.0}
{"t_rx_ms": 1777335503456, "run_id": "20260427_171814", "seq": 42, "pitch_deg": 0.0192, "yaw_deg": 0.0613, "roll_deg": 0.0307, "lat_deg": 34.009999799999996, "lon_deg": -118.00999999999999, "altitude_rel_ft": 0.0098, "ground_speed_ft_s": 0.0, "vel_north_m_s": 0.0, "vel_east_m_s": 0.0, "vel_down_m_s": 0.0, "battery_remain_pct": 9900.0}
{"t_rx_ms": 1777335503657, "run_id": "20260427_171814", "seq": 43, "pitch_deg": 0.0198, "yaw_deg": 0.0625, "roll_deg": 0.0315, "lat_deg": 34.009999799999996, "lon_deg": -118.00999999999999, "altitude_rel_ft": 0.0197, "ground_speed_ft_s": 0.0, "vel_north_m_s": 0.0, "vel_east_m_s": 0.0, "vel_down_m_s": 0.0, "battery_remain_pct": 9900.0}
{"t_rx_ms": 1777335503858, "run_id": "20260427_171814", "seq": 44, "pitch_deg": 0.0202, "yaw_deg": 0.0641, "roll_deg": 0.0324, "lat_deg": 34.009999799999996, "lon_deg": -118.00999999999999, "altitude_rel_ft": 0.0197, "ground_speed_ft_s": 0.0, "vel_north_m_s": 0.0, "vel_east_m_s": 0.0, "vel_down_m_s": 0.0, "battery_remain_pct": 9900.0}
{"t_rx_ms": 1777335504059, "run_id": "20260427_171814", "seq": 45, "pitch_deg": 0.0206, "yaw_deg": 0.0657, "roll_deg": 0.033, "lat_deg": 34.009999799999996, "lon_deg": -118.00999999999999, "altitude_rel_ft": 0.0098, "ground_speed_ft_s": 0.0, "vel_north_m_s": 0.0, "vel_east_m_s": 0.0, "vel_down_m_s": 0.0, "battery_remain_pct": 9900.0}
{"t_rx_ms": 1777335504260, "run_id": "20260427_171814", "seq": 46, "pitch_deg": 0.0211, "yaw_deg": 0.0668, "roll_deg": 0.0332, "lat_deg": 34.009999799999996, "lon_deg": -118.00999999999999, "altitude_rel_ft": 0.0098, "ground_speed_ft_s": 0.0, "vel_north_m_s": 0.0, "vel_east_m_s": 0.0, "vel_down_m_s": 0.0, "battery_remain_pct": 9900.0}
{"t_rx_ms": 1777335504461, "run_id": "20260427_171814", "seq": 47, "pitch_deg": 0.0216, "yaw_deg": 0.0682, "roll_deg": 0.0337, "lat_deg": 34.009999799999996, "lon_deg": -118.00999999999999, "altitude_rel_ft": 0.0, "ground_speed_ft_s": 0.0, "vel_north_m_s": 0.0, "vel_east_m_s": 0.0, "vel_down_m_s": 0.0, "battery_remain_pct": 9900.0}
{"t_rx_ms": 1777335504662, "run_id": "20260427_171814", "seq": 48, "pitch_deg": 0.0219, "yaw_deg": 0.0696, "roll_deg": 0.0342, "lat_deg": 34.009999799999996, "lon_deg": -118.00999999999999, "altitude_rel_ft": -0.0164, "ground_speed_ft_s": 0.0, "vel_north_m_s": 0.0, "vel_east_m_s": 0.0, "vel_down_m_s": 0.0, "battery_remain_pct": 9900.0}
{"t_rx_ms": 1777335504862, "run_id": "20260427_171814", "seq": 49, "pitch_deg": 0.0224, "yaw_deg": 0.0712, "roll_deg": 0.0347, "lat_deg": 34.009999799999996, "lon_deg": -118.00999999999999, "altitude_rel_ft": -0.0164, "ground_speed_ft_s": 0.0, "vel_north_m_s": 0.0, "vel_east_m_s": 0.0, "vel_down_m_s": 0.0, "battery_remain_pct": 9900.0}
{"t_rx_ms": 1777335505063, "run_id": "20260427_171814", "seq": 50, "pitch_deg": 0.0231, "yaw_deg": 0.0728, "roll_deg": 0.0353, "lat_deg": 34.009999799999996, "lon_deg": -118.00999999999999, "altitude_rel_ft": -0.0066, "ground_speed_ft_s": 0.0, "vel_north_m_s": 0.0, "vel_east_m_s": 0.0, "vel_down_m_s": 0.0, "battery_remain_pct": 9900.0}
{"t_rx_ms": 1777335505266, "run_id": "20260427_171814", "seq": 51, "pitch_deg": 0.0237, "yaw_deg": 0.0743, "roll_deg": 0.036, "lat_deg": 34.009999799999996, "lon_deg": -118.00999999999999, "altitude_rel_ft": -0.0066, "ground_speed_ft_s": 0.0, "vel_north_m_s": 0.0, "vel_east_m_s": 0.0, "vel_down_m_s": 0.0, "battery_remain_pct": 9900.0}
{"t_rx_ms": 1777335505466, "run_id": "20260427_171814", "seq": 52, "pitch_deg": 0.024, "yaw_deg": 0.0757, "roll_deg": 0.0367, "lat_deg": 34.009999799999996, "lon_deg": -118.00999999999999, "altitude_rel_ft": -0.0033, "ground_speed_ft_s": 0.0, "vel_north_m_s": 0.0, "vel_east_m_s": 0.0, "vel_down_m_s": 0.0, "battery_remain_pct": 9900.0}
{"t_rx_ms": 1777335505667, "run_id": "20260427_171814", "seq": 53, "pitch_deg": 0.0246, "yaw_deg": 0.0771, "roll_deg": 0.0372, "lat_deg": 34.009999799999996, "lon_deg": -118.00999999999999, "altitude_rel_ft": 0.0098, "ground_speed_ft_s": 0.0, "vel_north_m_s": 0.0, "vel_east_m_s": 0.0, "vel_down_m_s": 0.0, "battery_remain_pct": 9900.0}
{"t_rx_ms": 1777335505868, "run_id": "20260427_171814", "seq": 54, "pitch_deg": 0.0249, "yaw_deg": 0.0787, "roll_deg": 0.0375, "lat_deg": 34.009999799999996, "lon_deg": -118.00999999999999, "altitude_rel_ft": 0.0098, "ground_speed_ft_s": 0.0, "vel_north_m_s": 0.0, "vel_east_m_s": 0.0, "vel_down_m_s": 0.0, "battery_remain_pct": 9900.0}
{"t_rx_ms": 1777335506069, "run_id": "20260427_171814", "seq": 55, "pitch_deg": 0.0252, "yaw_deg": 0.0803, "roll_deg": 0.0377, "lat_deg": 34.009999799999996, "lon_deg": -118.00999999999999, "altitude_rel_ft": 0.0197, "ground_speed_ft_s": 0.0, "vel_north_m_s": 0.0, "vel_east_m_s": 0.0, "vel_down_m_s": 0.0, "battery_remain_pct": 9900.0}
{"t_rx_ms": 1777335506269, "run_id": "20260427_171814", "seq": 56, "pitch_deg": 0.0257, "yaw_deg": 0.0816, "roll_deg": 0.0381, "lat_deg": 34.009999799999996, "lon_deg": -118.00999999999999, "altitude_rel_ft": 0.0197, "ground_speed_ft_s": 0.0, "vel_north_m_s": 0.0, "vel_east_m_s": 0.0, "vel_down_m_s": 0.0, "battery_remain_pct": 9900.0}
{"t_rx_ms": 1777335506470, "run_id": "20260427_171814", "seq": 57, "pitch_deg": 0.0258, "yaw_deg": 0.0829, "roll_deg": 0.0385, "lat_deg": 34.009999799999996, "lon_deg": -118.00999999999999, "altitude_rel_ft": 0.0262, "ground_speed_ft_s": 0.0, "vel_north_m_s": 0.0, "vel_east_m_s": 0.0, "vel_down_m_s": 0.0, "battery_remain_pct": 9900.0}
{"t_rx_ms": 1777335506670, "run_id": "20260427_171814", "seq": 58, "pitch_deg": 0.0264, "yaw_deg": 0.0844, "roll_deg": 0.039, "lat_deg": 34.009999799999996, "lon_deg": -118.00999999999999, "altitude_rel_ft": 0.0361, "ground_speed_ft_s": 0.0, "vel_north_m_s": 0.0, "vel_east_m_s": 0.0, "vel_down_m_s": 0.0, "battery_remain_pct": 9900.0}
{"t_rx_ms": 1777335506871, "run_id": "20260427_171814", "seq": 59, "pitch_deg": 0.0267, "yaw_deg": 0.0861, "roll_deg": 0.0395, "lat_deg": 34.009999799999996, "lon_deg": -118.00999999999999, "altitude_rel_ft": 0.0361, "ground_speed_ft_s": 0.0, "vel_north_m_s": 0.0, "vel_east_m_s": 0.0, "vel_down_m_s": 0.0, "battery_remain_pct": 9900.0}
{"t_rx_ms": 1777335507072, "run_id": "20260427_171814", "seq": 60, "pitch_deg": 0.0271, "yaw_deg": 0.0877, "roll_deg": 0.0398, "lat_deg": 34.009999799999996, "lon_deg": -118.00999999999999, "altitude_rel_ft": 0.0722, "ground_speed_ft_s": 0.0, "vel_north_m_s": 0.0, "vel_east_m_s": 0.0, "vel_down_m_s": 0.0, "battery_remain_pct": 9900.0}
{"t_rx_ms": 1777335507273, "run_id": "20260427_171814", "seq": 61, "pitch_deg": 0.0271, "yaw_deg": 0.0891, "roll_deg": 0.0403, "lat_deg": 34.009999799999996, "lon_deg": -118.00999999999999, "altitude_rel_ft": 0.0722, "ground_speed_ft_s": 0.0, "vel_north_m_s": 0.0, "vel_east_m_s": 0.0, "vel_down_m_s": 0.0, "battery_remain_pct": 9900.0}
{"t_rx_ms": 1777335507475, "run_id": "20260427_171814", "seq": 62, "pitch_deg": 0.0272, "yaw_deg": 0.0905, "roll_deg": 0.0408, "lat_deg": 34.009999799999996, "lon_deg": -118.00999999999999, "altitude_rel_ft": 0.0361, "ground_speed_ft_s": 0.0, "vel_north_m_s": 0.0, "vel_east_m_s": 0.0, "vel_down_m_s": 0.0, "battery_remain_pct": 9900.0}
{"t_rx_ms": 1777335507676, "run_id": "20260427_171814", "seq": 63, "pitch_deg": 0.0275, "yaw_deg": 0.092, "roll_deg": 0.0412, "lat_deg": 34.009999799999996, "lon_deg": -118.00999999999999, "altitude_rel_ft": -0.0098, "ground_speed_ft_s": 0.0, "vel_north_m_s": 0.0, "vel_east_m_s": 0.0, "vel_down_m_s": 0.0, "battery_remain_pct": 9900.0}
{"t_rx_ms": 1777335507876, "run_id": "20260427_171814", "seq": 64, "pitch_deg": 0.0275, "yaw_deg": 0.0934, "roll_deg": 0.0414, "lat_deg": 34.009999799999996, "lon_deg": -118.00999999999999, "altitude_rel_ft": -0.0098, "ground_speed_ft_s": 0.0, "vel_north_m_s": 0.0, "vel_east_m_s": 0.0, "vel_down_m_s": 0.0, "battery_remain_pct": 9900.0}
{"t_rx_ms": 1777335508077, "run_id": "20260427_171814", "seq": 65, "pitch_deg": 0.0277, "yaw_deg": 0.0948, "roll_deg": 0.0416, "lat_deg": 34.009999799999996, "lon_deg": -118.00999999999999, "altitude_rel_ft": -0.0755, "ground_speed_ft_s": 0.0, "vel_north_m_s": 0.0, "vel_east_m_s": 0.0, "vel_down_m_s": 0.0, "battery_remain_pct": 9900.0}
{"t_rx_ms": 1777335508278, "run_id": "20260427_171814", "seq": 66, "pitch_deg": 0.028, "yaw_deg": 0.0963, "roll_deg": 0.042, "lat_deg": 34.009999799999996, "lon_deg": -118.00999999999999, "altitude_rel_ft": -0.0755, "ground_speed_ft_s": 0.0, "vel_north_m_s": 0.0, "vel_east_m_s": 0.0, "vel_down_m_s": 0.0, "battery_remain_pct": 9900.0}
{"t_rx_ms": 1777335508478, "run_id": "20260427_171814", "seq": 67, "pitch_deg": 0.0285, "yaw_deg": 0.0979, "roll_deg": 0.0424, "lat_deg": 34.009999799999996, "lon_deg": -118.00999999999999, "altitude_rel_ft": -0.1312, "ground_speed_ft_s": 0.0, "vel_north_m_s": 0.0, "vel_east_m_s": 0.0, "vel_down_m_s": 0.0, "battery_remain_pct": 9900.0}
{"t_rx_ms": 1777335508678, "run_id": "20260427_171814", "seq": 68, "pitch_deg": 0.0289, "yaw_deg": 0.0992, "roll_deg": 0.0423, "lat_deg": 34.009999799999996, "lon_deg": -118.00999999999999, "altitude_rel_ft": -0.1837, "ground_speed_ft_s": 0.0, "vel_north_m_s": 0.0, "vel_east_m_s": 0.0, "vel_down_m_s": 0.0, "battery_remain_pct": 9900.0}
{"t_rx_ms": 1777335508880, "run_id": "20260427_171814", "seq": 69, "pitch_deg": 0.0291, "yaw_deg": 0.1005, "roll_deg": 0.0427, "lat_deg": 34.009999799999996, "lon_deg": -118.00999999999999, "altitude_rel_ft": -0.1837, "ground_speed_ft_s": 0.0, "vel_north_m_s": 0.0, "vel_east_m_s": 0.0, "vel_down_m_s": 0.0, "battery_remain_pct": 9900.0}
{"t_rx_ms": 1777335509081, "run_id": "20260427_171814", "seq": 70, "pitch_deg": 0.0298, "yaw_deg": 0.1021, "roll_deg": 0.043, "lat_deg": 34.009999799999996, "lon_deg": -118.00999999999999, "altitude_rel_ft": -0.2034, "ground_speed_ft_s": 0.0, "vel_north_m_s": 0.0, "vel_east_m_s": 0.0, "vel_down_m_s": 0.0, "battery_remain_pct": 9900.0}
{"t_rx_ms": 1777335509282, "run_id": "20260427_171814", "seq": 71, "pitch_deg": 0.0303, "yaw_deg": 0.1035, "roll_deg": 0.0435, "lat_deg": 34.009999799999996, "lon_deg": -118.00999999999999, "altitude_rel_ft": -0.2034, "ground_speed_ft_s": 0.0, "vel_north_m_s": 0.0, "vel_east_m_s": 0.0, "vel_down_m_s": 0.0, "battery_remain_pct": 9900.0}
{"t_rx_ms": 1777335509483, "run_id": "20260427_171814", "seq": 72, "pitch_deg": 0.0305, "yaw_deg": 0.1051, "roll_deg": 0.0437, "lat_deg": 34.009999799999996, "lon_deg": -118.00999999999999, "altitude_rel_ft": -0.2165, "ground_speed_ft_s": 0.0, "vel_north_m_s": 0.0, "vel_east_m_s": 0.0, "vel_down_m_s": 0.0, "battery_remain_pct": 9900.0}
{"t_rx_ms": 1777335509683, "run_id": "20260427_171814", "seq": 73, "pitch_deg": 0.0306, "yaw_deg": 0.1067, "roll_deg": 0.044, "lat_deg": 34.009999799999996, "lon_deg": -118.00999999999999, "altitude_rel_ft": -0.2493, "ground_speed_ft_s": 0.0328, "vel_north_m_s": 0.0, "vel_east_m_s": 0.01, "vel_down_m_s": 0.0, "battery_remain_pct": 9900.0}
{"t_rx_ms": 1777335509884, "run_id": "20260427_171814", "seq": 74, "pitch_deg": 0.0309, "yaw_deg": 0.108, "roll_deg": 0.0442, "lat_deg": 34.009999799999996, "lon_deg": -118.00999999999999, "altitude_rel_ft": -0.2493, "ground_speed_ft_s": 0.0328, "vel_north_m_s": 0.0, "vel_east_m_s": 0.01, "vel_down_m_s": 0.0, "battery_remain_pct": 9900.0}
{"t_rx_ms": 1777335510085, "run_id": "20260427_171814", "seq": 75, "pitch_deg": 0.031, "yaw_deg": 0.1095, "roll_deg": 0.0444, "lat_deg": 34.009999799999996, "lon_deg": -118.00999999999999, "altitude_rel_ft": -0.2657, "ground_speed_ft_s": 0.0328, "vel_north_m_s": 0.0, "vel_east_m_s": 0.01, "vel_down_m_s": 0.0, "battery_remain_pct": 9900.0}
{"t_rx_ms": 1777335510285, "run_id": "20260427_171814", "seq": 76, "pitch_deg": 0.0313, "yaw_deg": 0.111, "roll_deg": 0.0447, "lat_deg": 34.009999799999996, "lon_deg": -118.00999999999999, "altitude_rel_ft": -0.2657, "ground_speed_ft_s": 0.0328, "vel_north_m_s": 0.0, "vel_east_m_s": 0.01, "vel_down_m_s": 0.0, "battery_remain_pct": 9900.0}
{"t_rx_ms": 1777335510486, "run_id": "20260427_171814", "seq": 77, "pitch_deg": 0.0317, "yaw_deg": 0.1125, "roll_deg": 0.0452, "lat_deg": 34.009999799999996, "lon_deg": -118.00999999999999, "altitude_rel_ft": -0.292, "ground_speed_ft_s": 0.0464, "vel_north_m_s": -0.01, "vel_east_m_s": 0.01, "vel_down_m_s": 0.0, "battery_remain_pct": 9900.0}
{"t_rx_ms": 1777335510687, "run_id": "20260427_171814", "seq": 78, "pitch_deg": 0.0321, "yaw_deg": 0.1141, "roll_deg": 0.0457, "lat_deg": 34.009999799999996, "lon_deg": -118.00999999999999, "altitude_rel_ft": -0.3018, "ground_speed_ft_s": 0.0464, "vel_north_m_s": -0.01, "vel_east_m_s": 0.01, "vel_down_m_s": 0.0, "battery_remain_pct": 9900.0}
{"t_rx_ms": 1777335510887, "run_id": "20260427_171814", "seq": 79, "pitch_deg": 0.0323, "yaw_deg": 0.1154, "roll_deg": 0.0457, "lat_deg": 34.009999799999996, "lon_deg": -118.00999999999999, "altitude_rel_ft": -0.3018, "ground_speed_ft_s": 0.0464, "vel_north_m_s": -0.01, "vel_east_m_s": 0.01, "vel_down_m_s": 0.0, "battery_remain_pct": 9900.0}
{"t_rx_ms": 1777335511088, "run_id": "20260427_171814", "seq": 80, "pitch_deg": 0.0326, "yaw_deg": 0.117, "roll_deg": 0.0459, "lat_deg": 34.009999799999996, "lon_deg": -118.00999999999999, "altitude_rel_ft": -0.3182, "ground_speed_ft_s": 0.0464, "vel_north_m_s": -0.01, "vel_east_m_s": 0.01, "vel_down_m_s": 0.0, "battery_remain_pct": 9900.0}
{"t_rx_ms": 1777335511288, "run_id": "20260427_171814", "seq": 81, "pitch_deg": 0.0327, "yaw_deg": 0.1184, "roll_deg": 0.0459, "lat_deg": 34.009999799999996, "lon_deg": -118.00999999999999, "altitude_rel_ft": -0.3182, "ground_speed_ft_s": 0.0464, "vel_north_m_s": -0.01, "vel_east_m_s": 0.01, "vel_down_m_s": 0.0, "battery_remain_pct": 9900.0}
{"t_rx_ms": 1777335511489, "run_id": "20260427_171814", "seq": 82, "pitch_deg": 0.0331, "yaw_deg": 0.1201, "roll_deg": 0.046, "lat_deg": 34.009999799999996, "lon_deg": -118.00999999999999, "altitude_rel_ft": -0.3314, "ground_speed_ft_s": 0.0464, "vel_north_m_s": -0.01, "vel_east_m_s": 0.01, "vel_down_m_s": 0.0, "battery_remain_pct": 9900.0}
{"t_rx_ms": 1777335511690, "run_id": "20260427_171814", "seq": 83, "pitch_deg": 0.0334, "yaw_deg": 0.1219, "roll_deg": 0.0462, "lat_deg": 34.009999799999996, "lon_deg": -118.00999999999999, "altitude_rel_ft": -0.3543, "ground_speed_ft_s": 0.0464, "vel_north_m_s": -0.01, "vel_east_m_s": 0.01, "vel_down_m_s": 0.01, "battery_remain_pct": 9900.0}
{"t_rx_ms": 1777335511892, "run_id": "20260427_171814", "seq": 84, "pitch_deg": 0.0337, "yaw_deg": 0.1233, "roll_deg": 0.0466, "lat_deg": 34.009999799999996, "lon_deg": -118.00999999999999, "altitude_rel_ft": -0.3543, "ground_speed_ft_s": 0.0464, "vel_north_m_s": -0.01, "vel_east_m_s": 0.01, "vel_down_m_s": 0.01, "battery_remain_pct": 9900.0}
{"t_rx_ms": 1777335512092, "run_id": "20260427_171814", "seq": 85, "pitch_deg": 0.0337, "yaw_deg": 0.125, "roll_deg": 0.0468, "lat_deg": 34.009999799999996, "lon_deg": -118.00999999999999, "altitude_rel_ft": -0.3806, "ground_speed_ft_s": 0.0464, "vel_north_m_s": -0.01, "vel_east_m_s": 0.01, "vel_down_m_s": 0.01, "battery_remain_pct": 9900.0}
{"t_rx_ms": 1777335512293, "run_id": "20260427_171814", "seq": 86, "pitch_deg": 0.0342, "yaw_deg": 0.1262, "roll_deg": 0.0469, "lat_deg": 34.009999799999996, "lon_deg": -118.00999999999999, "altitude_rel_ft": -0.3806, "ground_speed_ft_s": 0.0464, "vel_north_m_s": -0.01, "vel_east_m_s": 0.01, "vel_down_m_s": 0.01, "battery_remain_pct": 9900.0}
{"t_rx_ms": 1777335512494, "run_id": "20260427_171814", "seq": 87, "pitch_deg": 0.0346, "yaw_deg": 0.1274, "roll_deg": 0.0472, "lat_deg": 34.009999799999996, "lon_deg": -118.00999999999999, "altitude_rel_ft": -0.4101, "ground_speed_ft_s": 0.0464, "vel_north_m_s": -0.01, "vel_east_m_s": 0.01, "vel_down_m_s": 0.01, "battery_remain_pct": 9900.0}
{"t_rx_ms": 1777335512694, "run_id": "20260427_171814", "seq": 88, "pitch_deg": 0.0349, "yaw_deg": 0.1288, "roll_deg": 0.0475, "lat_deg": 34.009999799999996, "lon_deg": -118.00999999999999, "altitude_rel_ft": -0.4462, "ground_speed_ft_s": 0.0464, "vel_north_m_s": -0.01, "vel_east_m_s": 0.01, "vel_down_m_s": 0.01, "battery_remain_pct": 9900.0}
{"t_rx_ms": 1777335512896, "run_id": "20260427_171814", "seq": 89, "pitch_deg": 0.0354, "yaw_deg": 0.1299, "roll_deg": 0.0479, "lat_deg": 34.009999799999996, "lon_deg": -118.00999999999999, "altitude_rel_ft": -0.4462, "ground_speed_ft_s": 0.0464, "vel_north_m_s": -0.01, "vel_east_m_s": 0.01, "vel_down_m_s": 0.01, "battery_remain_pct": 9900.0}
{"t_rx_ms": 1777335513097, "run_id": "20260427_171814", "seq": 90, "pitch_deg": 0.0355, "yaw_deg": 0.1314, "roll_deg": 0.0483, "lat_deg": 34.009999799999996, "lon_deg": -118.00999999999999, "altitude_rel_ft": -0.4724, "ground_speed_ft_s": 0.0464, "vel_north_m_s": -0.01, "vel_east_m_s": 0.01, "vel_down_m_s": 0.01, "battery_remain_pct": 9900.0}
{"t_rx_ms": 1777335513297, "run_id": "20260427_171814", "seq": 91, "pitch_deg": 0.0358, "yaw_deg": 0.1327, "roll_deg": 0.0485, "lat_deg": 34.009999799999996, "lon_deg": -118.00999999999999, "altitude_rel_ft": -0.4724, "ground_speed_ft_s": 0.0464, "vel_north_m_s": -0.01, "vel_east_m_s": 0.01, "vel_down_m_s": 0.01, "battery_remain_pct": 9900.0}
{"t_rx_ms": 1777335513498, "run_id": "20260427_171814", "seq": 92, "pitch_deg": 0.0362, "yaw_deg": 0.1342, "roll_deg": 0.0489, "lat_deg": 34.009999799999996, "lon_deg": -118.0099999, "altitude_rel_ft": -0.1575, "ground_speed_ft_s": 0.0464, "vel_north_m_s": -0.01, "vel_east_m_s": 0.01, "vel_down_m_s": 0.01, "battery_remain_pct": 9900.0}
{"t_rx_ms": 1777335513700, "run_id": "20260427_171814", "seq": 93, "pitch_deg": 0.0367, "yaw_deg": 0.1358, "roll_deg": 0.0492, "lat_deg": 34.009999799999996, "lon_deg": -118.0099999, "altitude_rel_ft": -0.0492, "ground_speed_ft_s": 0.0464, "vel_north_m_s": -0.01, "vel_east_m_s": 0.01, "vel_down_m_s": 0.01, "battery_remain_pct": 9900.0}
{"t_rx_ms": 1777335513900, "run_id": "20260427_171814", "seq": 94, "pitch_deg": 0.0372, "yaw_deg": 0.1373, "roll_deg": 0.0495, "lat_deg": 34.009999799999996, "lon_deg": -118.0099999, "altitude_rel_ft": -0.0492, "ground_speed_ft_s": 0.0464, "vel_north_m_s": -0.01, "vel_east_m_s": 0.01, "vel_down_m_s": 0.01, "battery_remain_pct": 9900.0}
{"t_rx_ms": 1777335514102, "run_id": "20260427_171814", "seq": 95, "pitch_deg": 0.0375, "yaw_deg": 0.139, "roll_deg": 0.0498, "lat_deg": 34.009999799999996, "lon_deg": -118.0099999, "altitude_rel_ft": -0.0262, "ground_speed_ft_s": 0.0464, "vel_north_m_s": -0.01, "vel_east_m_s": 0.01, "vel_down_m_s": 0.01, "battery_remain_pct": 9900.0}
{"t_rx_ms": 1777335514303, "run_id": "20260427_171814", "seq": 96, "pitch_deg": 0.0379, "yaw_deg": 0.1405, "roll_deg": 0.0503, "lat_deg": 34.009999799999996, "lon_deg": -118.0099999, "altitude_rel_ft": -0.0525, "ground_speed_ft_s": 0.0464, "vel_north_m_s": -0.01, "vel_east_m_s": 0.01, "vel_down_m_s": 0.01, "battery_remain_pct": 9900.0}
{"t_rx_ms": 1777335514504, "run_id": "20260427_171814", "seq": 97, "pitch_deg": 0.0383, "yaw_deg": 0.1421, "roll_deg": 0.0505, "lat_deg": 34.009999799999996, "lon_deg": -118.0099999, "altitude_rel_ft": -0.0525, "ground_speed_ft_s": 0.0464, "vel_north_m_s": -0.01, "vel_east_m_s": 0.01, "vel_down_m_s": 0.01, "battery_remain_pct": 9900.0}
{"t_rx_ms": 1777335514704, "run_id": "20260427_171814", "seq": 98, "pitch_deg": 0.0382, "yaw_deg": 0.1436, "roll_deg": 0.0507, "lat_deg": 34.009999799999996, "lon_deg": -118.0099999, "altitude_rel_ft": -0.0689, "ground_speed_ft_s": 0.0464, "vel_north_m_s": -0.01, "vel_east_m_s": 0.01, "vel_down_m_s": 0.01, "battery_remain_pct": 9900.0}
{"t_rx_ms": 1777335514906, "run_id": "20260427_171814", "seq": 99, "pitch_deg": 0.0382, "yaw_deg": 0.1452, "roll_deg": 0.0509, "lat_deg": 34.009999799999996, "lon_deg": -118.0099999, "altitude_rel_ft": -0.0689, "ground_speed_ft_s": 0.0464, "vel_north_m_s": -0.01, "vel_east_m_s": 0.01, "vel_down_m_s": 0.01, "battery_remain_pct": 9900.0}
{"t_rx_ms": 1777335515106, "run_id": "20260427_171814", "seq": 100, "pitch_deg": 0.0386, "yaw_deg": 0.1465, "roll_deg": 0.0509, "lat_deg": 34.009999799999996, "lon_deg": -118.0099999, "altitude_rel_ft": -0.1083, "ground_speed_ft_s": 0.0464, "vel_north_m_s": -0.01, "vel_east_m_s": 0.01, "vel_down_m_s": 0.01, "battery_remain_pct": 9900.0}
{"t_rx_ms": 1777335515307, "run_id": "20260427_171814", "seq": 101, "pitch_deg": 0.0392, "yaw_deg": 0.148, "roll_deg": 0.0512, "lat_deg": 34.009999799999996, "lon_deg": -118.0099999, "altitude_rel_ft": -0.1673, "ground_speed_ft_s": 0.0464, "vel_north_m_s": -0.01, "vel_east_m_s": 0.01, "vel_down_m_s": 0.01, "battery_remain_pct": 9900.0}
{"t_rx_ms": 1777335515508, "run_id": "20260427_171814", "seq": 102, "pitch_deg": 0.0391, "yaw_deg": 0.1494, "roll_deg": 0.0514, "lat_deg": 34.009999799999996, "lon_deg": -118.0099999, "altitude_rel_ft": -0.1673, "ground_speed_ft_s": 0.0464, "vel_north_m_s": -0.01, "vel_east_m_s": 0.01, "vel_down_m_s": 0.01, "battery_remain_pct": 9900.0}
{"t_rx_ms": 1777335515709, "run_id": "20260427_171814", "seq": 103, "pitch_deg": 0.0395, "yaw_deg": 0.1506, "roll_deg": 0.0518, "lat_deg": 34.009999799999996, "lon_deg": -118.0099999, "altitude_rel_ft": -0.2001, "ground_speed_ft_s": 0.0464, "vel_north_m_s": -0.01, "vel_east_m_s": 0.01, "vel_down_m_s": 0.01, "battery_remain_pct": 9900.0}
{"t_rx_ms": 1777335515909, "run_id": "20260427_171814", "seq": 104, "pitch_deg": 0.0398, "yaw_deg": 0.152, "roll_deg": 0.0518, "lat_deg": 34.009999799999996, "lon_deg": -118.0099999, "altitude_rel_ft": -0.2001, "ground_speed_ft_s": 0.0464, "vel_north_m_s": -0.01, "vel_east_m_s": 0.01, "vel_down_m_s": 0.01, "battery_remain_pct": 9900.0}
{"t_rx_ms": 1777335516112, "run_id": "20260427_171814", "seq": 105, "pitch_deg": 0.04, "yaw_deg": 0.1535, "roll_deg": 0.0522, "lat_deg": 34.009999799999996, "lon_deg": -118.0099999, "altitude_rel_ft": -0.2165, "ground_speed_ft_s": 0.0464, "vel_north_m_s": -0.01, "vel_east_m_s": 0.01, "vel_down_m_s": 0.01, "battery_remain_pct": 9900.0}
{"t_rx_ms": 1777335516313, "run_id": "20260427_171814", "seq": 106, "pitch_deg": 0.0402, "yaw_deg": 0.1548, "roll_deg": 0.0524, "lat_deg": 34.009999799999996, "lon_deg": -118.0099999, "altitude_rel_ft": -0.2428, "ground_speed_ft_s": 0.0464, "vel_north_m_s": -0.01, "vel_east_m_s": 0.01, "vel_down_m_s": 0.01, "battery_remain_pct": 9900.0}
{"t_rx_ms": 1777335516513, "run_id": "20260427_171814", "seq": 107, "pitch_deg": 0.0405, "yaw_deg": 0.156, "roll_deg": 0.0527, "lat_deg": 34.009999799999996, "lon_deg": -118.0099999, "altitude_rel_ft": -0.2428, "ground_speed_ft_s": 0.0464, "vel_north_m_s": -0.01, "vel_east_m_s": 0.01, "vel_down_m_s": 0.01, "battery_remain_pct": 9900.0}
{"t_rx_ms": 1777335516715, "run_id": "20260427_171814", "seq": 108, "pitch_deg": 0.0405, "yaw_deg": 0.1571, "roll_deg": 0.0527, "lat_deg": 34.009999799999996, "lon_deg": -118.0099999, "altitude_rel_ft": -0.2625, "ground_speed_ft_s": 0.0464, "vel_north_m_s": -0.01, "vel_east_m_s": 0.01, "vel_down_m_s": 0.01, "battery_remain_pct": 9900.0}
{"t_rx_ms": 1777335516916, "run_id": "20260427_171814", "seq": 109, "pitch_deg": 0.0408, "yaw_deg": 0.1586, "roll_deg": 0.053, "lat_deg": 34.009999799999996, "lon_deg": -118.0099999, "altitude_rel_ft": -0.2625, "ground_speed_ft_s": 0.0464, "vel_north_m_s": -0.01, "vel_east_m_s": 0.01, "vel_down_m_s": 0.01, "battery_remain_pct": 9900.0}
{"t_rx_ms": 1777335517117, "run_id": "20260427_171814", "seq": 110, "pitch_deg": 0.0409, "yaw_deg": 0.16, "roll_deg": 0.0531, "lat_deg": 34.009999799999996, "lon_deg": -118.0099999, "altitude_rel_ft": -0.2723, "ground_speed_ft_s": 0.0464, "vel_north_m_s": -0.01, "vel_east_m_s": 0.01, "vel_down_m_s": 0.01, "battery_remain_pct": 9900.0}
{"t_rx_ms": 1777335517318, "run_id": "20260427_171814", "seq": 111, "pitch_deg": 0.0412, "yaw_deg": 0.1614, "roll_deg": 0.0534, "lat_deg": 34.009999799999996, "lon_deg": -118.0099999, "altitude_rel_ft": -0.292, "ground_speed_ft_s": 0.0464, "vel_north_m_s": -0.01, "vel_east_m_s": 0.01, "vel_down_m_s": 0.01, "battery_remain_pct": 9900.0}
{"t_rx_ms": 1777335517518, "run_id": "20260427_171814", "seq": 112, "pitch_deg": 0.0412, "yaw_deg": 0.1628, "roll_deg": 0.0535, "lat_deg": 34.009999799999996, "lon_deg": -118.0099999, "altitude_rel_ft": -0.292, "ground_speed_ft_s": 0.0464, "vel_north_m_s": -0.01, "vel_east_m_s": 0.01, "vel_down_m_s": 0.01, "battery_remain_pct": 9900.0}
{"t_rx_ms": 1777335517719, "run_id": "20260427_171814", "seq": 113, "pitch_deg": 0.0418, "yaw_deg": 0.1641, "roll_deg": 0.0539, "lat_deg": 34.0099997, "lon_deg": -118.0099999, "altitude_rel_ft": -0.2953, "ground_speed_ft_s": 0.0464, "vel_north_m_s": -0.01, "vel_east_m_s": 0.01, "vel_down_m_s": 0.01, "battery_remain_pct": 9900.0}
{"t_rx_ms": 1777335517921, "run_id": "20260427_171814", "seq": 114, "pitch_deg": 0.042, "yaw_deg": 0.1656, "roll_deg": 0.0538, "lat_deg": 34.0099997, "lon_deg": -118.0099999, "altitude_rel_ft": -0.2953, "ground_speed_ft_s": 0.0464, "vel_north_m_s": -0.01, "vel_east_m_s": 0.01, "vel_down_m_s": 0.01, "battery_remain_pct": 9900.0}
{"t_rx_ms": 1777335518121, "run_id": "20260427_171814", "seq": 115, "pitch_deg": 0.042, "yaw_deg": 0.1673, "roll_deg": 0.0539, "lat_deg": 34.0099997, "lon_deg": -118.0099999, "altitude_rel_ft": -0.3051, "ground_speed_ft_s": 0.0464, "vel_north_m_s": -0.01, "vel_east_m_s": 0.01, "vel_down_m_s": 0.01, "battery_remain_pct": 9900.0}
{"t_rx_ms": 1777335518321, "run_id": "20260427_171814", "seq": 116, "pitch_deg": 0.0427, "yaw_deg": 0.1689, "roll_deg": 0.054, "lat_deg": 34.0099997, "lon_deg": -118.0099999, "altitude_rel_ft": -0.3117, "ground_speed_ft_s": 0.0464, "vel_north_m_s": -0.01, "vel_east_m_s": 0.01, "vel_down_m_s": 0.01, "battery_remain_pct": 9900.0}
{"t_rx_ms": 1777335518523, "run_id": "20260427_171814", "seq": 117, "pitch_deg": 0.0425, "yaw_deg": 0.1704, "roll_deg": 0.0541, "lat_deg": 34.0099997, "lon_deg": -118.0099999, "altitude_rel_ft": -0.3117, "ground_speed_ft_s": 0.0464, "vel_north_m_s": -0.01, "vel_east_m_s": 0.01, "vel_down_m_s": 0.01, "battery_remain_pct": 9900.0}
{"t_rx_ms": 1777335518723, "run_id": "20260427_171814", "seq": 118, "pitch_deg": 0.0426, "yaw_deg": 0.1722, "roll_deg": 0.0545, "lat_deg": 34.0099997, "lon_deg": -118.0099999, "altitude_rel_ft": -0.3281, "ground_speed_ft_s": 0.0464, "vel_north_m_s": -0.01, "vel_east_m_s": 0.01, "vel_down_m_s": 0.01, "battery_remain_pct": 9900.0}
{"t_rx_ms": 1777335518924, "run_id": "20260427_171814", "seq": 119, "pitch_deg": 0.043, "yaw_deg": 0.1737, "roll_deg": 0.0547, "lat_deg": 34.0099997, "lon_deg": -118.0099999, "altitude_rel_ft": -0.3281, "ground_speed_ft_s": 0.0464, "vel_north_m_s": -0.01, "vel_east_m_s": 0.01, "vel_down_m_s": 0.01, "battery_remain_pct": 9900.0}
{"t_rx_ms": 1777335519126, "run_id": "20260427_171814", "seq": 120, "pitch_deg": 0.0436, "yaw_deg": 0.1748, "roll_deg": 0.055, "lat_deg": 34.0099997, "lon_deg": -118.0099999, "altitude_rel_ft": -0.3412, "ground_speed_ft_s": 0.0464, "vel_north_m_s": -0.01, "vel_east_m_s": 0.01, "vel_down_m_s": 0.01, "battery_remain_pct": 9900.0}
{"t_rx_ms": 1777335519326, "run_id": "20260427_171814", "seq": 121, "pitch_deg": 0.0439, "yaw_deg": 0.1764, "roll_deg": 0.0553, "lat_deg": 34.0099997, "lon_deg": -118.0099999, "altitude_rel_ft": -0.1247, "ground_speed_ft_s": 0.0464, "vel_north_m_s": -0.01, "vel_east_m_s": 0.01, "vel_down_m_s": 0.01, "battery_remain_pct": 9900.0}
{"t_rx_ms": 1777335519527, "run_id": "20260427_171814", "seq": 122, "pitch_deg": 0.0439, "yaw_deg": 0.178, "roll_deg": 0.0555, "lat_deg": 34.0099997, "lon_deg": -118.0099999, "altitude_rel_ft": -0.1247, "ground_speed_ft_s": 0.0464, "vel_north_m_s": -0.01, "vel_east_m_s": 0.01, "vel_down_m_s": 0.01, "battery_remain_pct": 9900.0}
{"t_rx_ms": 1777335519728, "run_id": "20260427_171814", "seq": 123, "pitch_deg": 0.0442, "yaw_deg": 0.1794, "roll_deg": 0.0563, "lat_deg": 34.0099997, "lon_deg": -118.0099999, "altitude_rel_ft": -0.0262, "ground_speed_ft_s": 0.0464, "vel_north_m_s": -0.01, "vel_east_m_s": 0.01, "vel_down_m_s": 0.01, "battery_remain_pct": 9900.0}
{"t_rx_ms": 1777335519928, "run_id": "20260427_171814", "seq": 124, "pitch_deg": 0.0446, "yaw_deg": 0.1809, "roll_deg": 0.0566, "lat_deg": 34.0099997, "lon_deg": -118.0099999, "altitude_rel_ft": -0.0262, "ground_speed_ft_s": 0.0464, "vel_north_m_s": -0.01, "vel_east_m_s": 0.01, "vel_down_m_s": 0.01, "battery_remain_pct": 9900.0}
{"t_rx_ms": 1777335520129, "run_id": "20260427_171814", "seq": 125, "pitch_deg": 0.0449, "yaw_deg": 0.1823, "roll_deg": 0.0568, "lat_deg": 34.0099997, "lon_deg": -118.0099999, "altitude_rel_ft": 0.0295, "ground_speed_ft_s": 0.0464, "vel_north_m_s": -0.01, "vel_east_m_s": 0.01, "vel_down_m_s": 0.0, "battery_remain_pct": 9900.0}
{"t_rx_ms": 1777335520330, "run_id": "20260427_171814", "seq": 126, "pitch_deg": 0.0448, "yaw_deg": 0.184, "roll_deg": 0.057, "lat_deg": 34.0099997, "lon_deg": -118.0099999, "altitude_rel_ft": 0.0984, "ground_speed_ft_s": 0.0464, "vel_north_m_s": -0.01, "vel_east_m_s": 0.01, "vel_down_m_s": 0.0, "battery_remain_pct": 9900.0}
{"t_rx_ms": 1777335520531, "run_id": "20260427_171814", "seq": 127, "pitch_deg": 0.0446, "yaw_deg": 0.1852, "roll_deg": 0.0572, "lat_deg": 34.0099997, "lon_deg": -118.0099999, "altitude_rel_ft": 0.0984, "ground_speed_ft_s": 0.0464, "vel_north_m_s": -0.01, "vel_east_m_s": 0.01, "vel_down_m_s": 0.0, "battery_remain_pct": 9900.0}
{"t_rx_ms": 1777335520731, "run_id": "20260427_171814", "seq": 128, "pitch_deg": 0.0451, "yaw_deg": 0.1869, "roll_deg": 0.0576, "lat_deg": 34.0099997, "lon_deg": -118.0099999, "altitude_rel_ft": 0.1312, "ground_speed_ft_s": 0.0464, "vel_north_m_s": -0.01, "vel_east_m_s": 0.01, "vel_down_m_s": 0.0, "battery_remain_pct": 9900.0}
{"t_rx_ms": 1777335520932, "run_id": "20260427_171814", "seq": 129, "pitch_deg": 0.045, "yaw_deg": 0.1884, "roll_deg": 0.0577, "lat_deg": 34.0099997, "lon_deg": -118.0099999, "altitude_rel_ft": 0.1312, "ground_speed_ft_s": 0.0464, "vel_north_m_s": -0.01, "vel_east_m_s": 0.01, "vel_down_m_s": 0.0, "battery_remain_pct": 9900.0}
{"t_rx_ms": 1777335521133, "run_id": "20260427_171814", "seq": 130, "pitch_deg": 0.0451, "yaw_deg": 0.1898, "roll_deg": 0.0579, "lat_deg": 34.0099997, "lon_deg": -118.0099999, "altitude_rel_ft": 0.187, "ground_speed_ft_s": 0.0464, "vel_north_m_s": -0.01, "vel_east_m_s": 0.01, "vel_down_m_s": 0.0, "battery_remain_pct": 9900.0}
{"t_rx_ms": 1777335521333, "run_id": "20260427_171814", "seq": 131, "pitch_deg": 0.0452, "yaw_deg": 0.1912, "roll_deg": 0.0579, "lat_deg": 34.0099997, "lon_deg": -118.0099999, "altitude_rel_ft": 0.2428, "ground_speed_ft_s": 0.0464, "vel_north_m_s": -0.01, "vel_east_m_s": 0.01, "vel_down_m_s": 0.0, "battery_remain_pct": 9900.0}
{"t_rx_ms": 1777335521535, "run_id": "20260427_171814", "seq": 132, "pitch_deg": 0.0455, "yaw_deg": 0.193, "roll_deg": 0.0582, "lat_deg": 34.0099997, "lon_deg": -118.0099999, "altitude_rel_ft": 0.2428, "ground_speed_ft_s": 0.0464, "vel_north_m_s": -0.01, "vel_east_m_s": 0.01, "vel_down_m_s": 0.0, "battery_remain_pct": 9900.0}
{"t_rx_ms": 1777335521735, "run_id": "20260427_171814", "seq": 133, "pitch_deg": 0.0458, "yaw_deg": 0.1946, "roll_deg": 0.0588, "lat_deg": 34.0099997, "lon_deg": -118.0099999, "altitude_rel_ft": 0.2756, "ground_speed_ft_s": 0.0464, "vel_north_m_s": -0.01, "vel_east_m_s": 0.01, "vel_down_m_s": 0.0, "battery_remain_pct": 9900.0}
{"t_rx_ms": 1777335521937, "run_id": "20260427_171814", "seq": 134, "pitch_deg": 0.0461, "yaw_deg": 0.196, "roll_deg": 0.0595, "lat_deg": 34.0099997, "lon_deg": -118.0099999, "altitude_rel_ft": 0.2756, "ground_speed_ft_s": 0.0464, "vel_north_m_s": -0.01, "vel_east_m_s": 0.01, "vel_down_m_s": 0.0, "battery_remain_pct": 9900.0}
{"t_rx_ms": 1777335522138, "run_id": "20260427_171814", "seq": 135, "pitch_deg": 0.0463, "yaw_deg": 0.1976, "roll_deg": 0.0596, "lat_deg": 34.0099997, "lon_deg": -118.0099999, "altitude_rel_ft": 0.2986, "ground_speed_ft_s": 0.0464, "vel_north_m_s": -0.01, "vel_east_m_s": 0.01, "vel_down_m_s": 0.0, "battery_remain_pct": 9900.0}
{"t_rx_ms": 1777335522338, "run_id": "20260427_171814", "seq": 136, "pitch_deg": 0.0462, "yaw_deg": 0.1993, "roll_deg": 0.0596, "lat_deg": 34.0099997, "lon_deg": -118.0099999, "altitude_rel_ft": 0.3248, "ground_speed_ft_s": 0.0464, "vel_north_m_s": -0.01, "vel_east_m_s": 0.01, "vel_down_m_s": 0.0, "battery_remain_pct": 9900.0}
{"t_rx_ms": 1777335522538, "run_id": "20260427_171814", "seq": 137, "pitch_deg": 0.046, "yaw_deg": 0.2007, "roll_deg": 0.0598, "lat_deg": 34.0099997, "lon_deg": -118.0099999, "altitude_rel_ft": 0.3248, "ground_speed_ft_s": 0.0464, "vel_north_m_s": -0.01, "vel_east_m_s": 0.01, "vel_down_m_s": 0.0, "battery_remain_pct": 9900.0}
{"t_rx_ms": 1777335522739, "run_id": "20260427_171814", "seq": 138, "pitch_deg": 0.0463, "yaw_deg": 0.2033, "roll_deg": 0.0601, "lat_deg": 34.0099997, "lon_deg": -118.0099999, "altitude_rel_ft": 0.3281, "ground_speed_ft_s": 0.0464, "vel_north_m_s": -0.01, "vel_east_m_s": 0.01, "vel_down_m_s": 0.0, "battery_remain_pct": 9900.0}
{"t_rx_ms": 1777335522940, "run_id": "20260427_171814", "seq": 139, "pitch_deg": 0.0464, "yaw_deg": 0.2042, "roll_deg": 0.0602, "lat_deg": 34.0099997, "lon_deg": -118.0099999, "altitude_rel_ft": 0.3281, "ground_speed_ft_s": 0.0464, "vel_north_m_s": -0.01, "vel_east_m_s": 0.01, "vel_down_m_s": 0.0, "battery_remain_pct": 9900.0}
{"t_rx_ms": 1777335523141, "run_id": "20260427_171814", "seq": 140, "pitch_deg": 0.0467, "yaw_deg": 0.2064, "roll_deg": 0.0603, "lat_deg": 34.0099997, "lon_deg": -118.0099999, "altitude_rel_ft": 0.3445, "ground_speed_ft_s": 0.0464, "vel_north_m_s": -0.01, "vel_east_m_s": 0.01, "vel_down_m_s": 0.0, "battery_remain_pct": 9900.0}
{"t_rx_ms": 1777335523342, "run_id": "20260427_171814", "seq": 141, "pitch_deg": 0.0468, "yaw_deg": 0.2071, "roll_deg": 0.0605, "lat_deg": 34.0099997, "lon_deg": -118.0099999, "altitude_rel_ft": 0.374, "ground_speed_ft_s": 0.0464, "vel_north_m_s": -0.01, "vel_east_m_s": 0.01, "vel_down_m_s": 0.0, "battery_remain_pct": 9900.0}
{"t_rx_ms": 1777335523543, "run_id": "20260427_171814", "seq": 142, "pitch_deg": 0.0473, "yaw_deg": 0.2093, "roll_deg": 0.0609, "lat_deg": 34.0099997, "lon_deg": -118.0099999, "altitude_rel_ft": 0.374, "ground_speed_ft_s": 0.0464, "vel_north_m_s": -0.01, "vel_east_m_s": 0.01, "vel_down_m_s": 0.0, "battery_remain_pct": 9900.0}
{"t_rx_ms": 1777335523744, "run_id": "20260427_171814", "seq": 143, "pitch_deg": 0.0474, "yaw_deg": 0.2108, "roll_deg": 0.061, "lat_deg": 34.0099997, "lon_deg": -118.0099999, "altitude_rel_ft": 0.4035, "ground_speed_ft_s": 0.0464, "vel_north_m_s": -0.01, "vel_east_m_s": 0.01, "vel_down_m_s": -0.01, "battery_remain_pct": 9900.0}
{"t_rx_ms": 1777335523945, "run_id": "20260427_171814", "seq": 144, "pitch_deg": 0.0478, "yaw_deg": 0.2123, "roll_deg": 0.0611, "lat_deg": 34.0099997, "lon_deg": -118.0099999, "altitude_rel_ft": 0.4035, "ground_speed_ft_s": 0.0464, "vel_north_m_s": -0.01, "vel_east_m_s": 0.01, "vel_down_m_s": -0.01, "battery_remain_pct": 9900.0}
{"t_rx_ms": 1777335524145, "run_id": "20260427_171814", "seq": 145, "pitch_deg": 0.0482, "yaw_deg": 0.2139, "roll_deg": 0.061, "lat_deg": 34.0099997, "lon_deg": -118.0099999, "altitude_rel_ft": 0.397, "ground_speed_ft_s": 0.0464, "vel_north_m_s": -0.01, "vel_east_m_s": 0.01, "vel_down_m_s": 0.0, "battery_remain_pct": 9900.0}
{"t_rx_ms": 1777335524345, "run_id": "20260427_171814", "seq": 146, "pitch_deg": 0.0483, "yaw_deg": 0.2156, "roll_deg": 0.0611, "lat_deg": 34.0099997, "lon_deg": -118.0099999, "altitude_rel_ft": 0.4232, "ground_speed_ft_s": 0.0464, "vel_north_m_s": -0.01, "vel_east_m_s": 0.01, "vel_down_m_s": -0.01, "battery_remain_pct": 9900.0}
{"t_rx_ms": 1777335524547, "run_id": "20260427_171814", "seq": 147, "pitch_deg": 0.0484, "yaw_deg": 0.217, "roll_deg": 0.061, "lat_deg": 34.0099997, "lon_deg": -118.0099999, "altitude_rel_ft": 0.4232, "ground_speed_ft_s": 0.0464, "vel_north_m_s": -0.01, "vel_east_m_s": 0.01, "vel_down_m_s": -0.01, "battery_remain_pct": 9900.0}
{"t_rx_ms": 1777335524747, "run_id": "20260427_171814", "seq": 148, "pitch_deg": 0.0484, "yaw_deg": 0.2186, "roll_deg": 0.061, "lat_deg": 34.0099997, "lon_deg": -118.0099999, "altitude_rel_ft": 0.4298, "ground_speed_ft_s": 0.0464, "vel_north_m_s": -0.01, "vel_east_m_s": 0.01, "vel_down_m_s": -0.01, "battery_remain_pct": 9900.0}
{"t_rx_ms": 1777335524948, "run_id": "20260427_171814", "seq": 149, "pitch_deg": 0.0485, "yaw_deg": 0.2199, "roll_deg": 0.0612, "lat_deg": 34.0099997, "lon_deg": -118.0099999, "altitude_rel_ft": 0.4298, "ground_speed_ft_s": 0.0464, "vel_north_m_s": -0.01, "vel_east_m_s": 0.01, "vel_down_m_s": -0.01, "battery_remain_pct": 9900.0}
{"t_rx_ms": 1777335525148, "run_id": "20260427_171814", "seq": 150, "pitch_deg": 0.0485, "yaw_deg": 0.2214, "roll_deg": 0.061, "lat_deg": 34.0099997, "lon_deg": -118.0099999, "altitude_rel_ft": 0.4462, "ground_speed_ft_s": 0.0464, "vel_north_m_s": -0.01, "vel_east_m_s": 0.01, "vel_down_m_s": -0.01, "battery_remain_pct": 9900.0}
{"t_rx_ms": 1777335525348, "run_id": "20260427_171814", "seq": 151, "pitch_deg": 0.0483, "yaw_deg": 0.2228, "roll_deg": 0.061, "lat_deg": 34.0099997, "lon_deg": -118.0099999, "altitude_rel_ft": 0.1673, "ground_speed_ft_s": 0.0464, "vel_north_m_s": -0.01, "vel_east_m_s": 0.01, "vel_down_m_s": -0.01, "battery_remain_pct": 9900.0}
{"t_rx_ms": 1777335525549, "run_id": "20260427_171814", "seq": 152, "pitch_deg": 0.0486, "yaw_deg": 0.2247, "roll_deg": 0.0613, "lat_deg": 34.0099997, "lon_deg": -118.0099999, "altitude_rel_ft": 0.1673, "ground_speed_ft_s": 0.0464, "vel_north_m_s": -0.01, "vel_east_m_s": 0.01, "vel_down_m_s": -0.01, "battery_remain_pct": 9900.0}
{"t_rx_ms": 1777335525750, "run_id": "20260427_171814", "seq": 153, "pitch_deg": 0.049, "yaw_deg": 0.2263, "roll_deg": 0.0615, "lat_deg": 34.0099997, "lon_deg": -118.0099999, "altitude_rel_ft": 0.0131, "ground_speed_ft_s": 0.0464, "vel_north_m_s": -0.01, "vel_east_m_s": 0.01, "vel_down_m_s": 0.0, "battery_remain_pct": 9900.0}
{"t_rx_ms": 1777335525951, "run_id": "20260427_171814", "seq": 154, "pitch_deg": 0.0493, "yaw_deg": 0.2278, "roll_deg": 0.0619, "lat_deg": 34.0099997, "lon_deg": -118.0099999, "altitude_rel_ft": 0.0131, "ground_speed_ft_s": 0.0464, "vel_north_m_s": -0.01, "vel_east_m_s": 0.01, "vel_down_m_s": 0.0, "battery_remain_pct": 9900.0}
{"t_rx_ms": 1777335526152, "run_id": "20260427_171814", "seq": 155, "pitch_deg": 0.0498, "yaw_deg": 0.2288, "roll_deg": 0.0621, "lat_deg": 34.0099997, "lon_deg": -118.0099999, "altitude_rel_ft": -0.0755, "ground_speed_ft_s": 0.0464, "vel_north_m_s": -0.01, "vel_east_m_s": 0.01, "vel_down_m_s": 0.0, "battery_remain_pct": 9900.0}
{"t_rx_ms": 1777335526352, "run_id": "20260427_171814", "seq": 156, "pitch_deg": 0.0499, "yaw_deg": 0.2305, "roll_deg": 0.0622, "lat_deg": 34.0099997, "lon_deg": -118.0099999, "altitude_rel_ft": -0.1214, "ground_speed_ft_s": 0.0464, "vel_north_m_s": -0.01, "vel_east_m_s": 0.01, "vel_down_m_s": 0.0, "battery_remain_pct": 9900.0}
{"t_rx_ms": 1777335526553, "run_id": "20260427_171814", "seq": 157, "pitch_deg": 0.0499, "yaw_deg": 0.232, "roll_deg": 0.0623, "lat_deg": 34.0099997, "lon_deg": -118.0099999, "altitude_rel_ft": -0.1214, "ground_speed_ft_s": 0.0464, "vel_north_m_s": -0.01, "vel_east_m_s": 0.01, "vel_down_m_s": 0.0, "battery_remain_pct": 9900.0}
{"t_rx_ms": 1777335526753, "run_id": "20260427_171814", "seq": 158, "pitch_deg": 0.0496, "yaw_deg": 0.2337, "roll_deg": 0.0624, "lat_deg": 34.0099997, "lon_deg": -118.0099999, "altitude_rel_ft": -0.1378, "ground_speed_ft_s": 0.0464, "vel_north_m_s": -0.01, "vel_east_m_s": 0.01, "vel_down_m_s": 0.0, "battery_remain_pct": 9900.0}
{"t_rx_ms": 1777335526954, "run_id": "20260427_171814", "seq": 159, "pitch_deg": 0.0495, "yaw_deg": 0.2353, "roll_deg": 0.0628, "lat_deg": 34.0099997, "lon_deg": -118.0099999, "altitude_rel_ft": -0.1378, "ground_speed_ft_s": 0.0464, "vel_north_m_s": -0.01, "vel_east_m_s": 0.01, "vel_down_m_s": 0.0, "battery_remain_pct": 9900.0}
{"t_rx_ms": 1777335527155, "run_id": "20260427_171814", "seq": 160, "pitch_deg": 0.0497, "yaw_deg": 0.2369, "roll_deg": 0.0627, "lat_deg": 34.0099997, "lon_deg": -118.0099999, "altitude_rel_ft": -0.1608, "ground_speed_ft_s": 0.0464, "vel_north_m_s": -0.01, "vel_east_m_s": 0.01, "vel_down_m_s": 0.0, "battery_remain_pct": 9900.0}
{"t_rx_ms": 1777335527356, "run_id": "20260427_171814", "seq": 161, "pitch_deg": 0.0498, "yaw_deg": 0.2385, "roll_deg": 0.0627, "lat_deg": 34.0099997, "lon_deg": -118.0099999, "altitude_rel_ft": -0.1772, "ground_speed_ft_s": 0.0464, "vel_north_m_s": -0.01, "vel_east_m_s": 0.01, "vel_down_m_s": 0.0, "battery_remain_pct": 9900.0}
{"t_rx_ms": 1777335527558, "run_id": "20260427_171814", "seq": 162, "pitch_deg": 0.0499, "yaw_deg": 0.2402, "roll_deg": 0.0631, "lat_deg": 34.0099997, "lon_deg": -118.0099999, "altitude_rel_ft": -0.1772, "ground_speed_ft_s": 0.0464, "vel_north_m_s": -0.01, "vel_east_m_s": 0.01, "vel_down_m_s": 0.0, "battery_remain_pct": 9900.0}
{"t_rx_ms": 1777335527758, "run_id": "20260427_171814", "seq": 163, "pitch_deg": 0.0503, "yaw_deg": 0.2415, "roll_deg": 0.0634, "lat_deg": 34.0099997, "lon_deg": -118.0099999, "altitude_rel_ft": -0.2067, "ground_speed_ft_s": 0.0464, "vel_north_m_s": -0.01, "vel_east_m_s": 0.01, "vel_down_m_s": 0.0, "battery_remain_pct": 9900.0}
{"t_rx_ms": 1777335527960, "run_id": "20260427_171814", "seq": 164, "pitch_deg": 0.0509, "yaw_deg": 0.2426, "roll_deg": 0.0636, "lat_deg": 34.0099997, "lon_deg": -118.0099999, "altitude_rel_ft": -0.2067, "ground_speed_ft_s": 0.0464, "vel_north_m_s": -0.01, "vel_east_m_s": 0.01, "vel_down_m_s": 0.0, "battery_remain_pct": 9900.0}
{"t_rx_ms": 1777335528162, "run_id": "20260427_171814", "seq": 165, "pitch_deg": 0.051, "yaw_deg": 0.2442, "roll_deg": 0.0639, "lat_deg": 34.0099997, "lon_deg": -118.0099999, "altitude_rel_ft": -0.2592, "ground_speed_ft_s": 0.0464, "vel_north_m_s": -0.01, "vel_east_m_s": 0.01, "vel_down_m_s": 0.0, "battery_remain_pct": 9900.0}
{"t_rx_ms": 1777335528363, "run_id": "20260427_171814", "seq": 166, "pitch_deg": 0.0509, "yaw_deg": 0.2457, "roll_deg": 0.0642, "lat_deg": 34.0099997, "lon_deg": -118.0099999, "altitude_rel_ft": -0.2953, "ground_speed_ft_s": 0.0464, "vel_north_m_s": -0.01, "vel_east_m_s": 0.01, "vel_down_m_s": 0.0, "battery_remain_pct": 9900.0}
{"t_rx_ms": 1777335528563, "run_id": "20260427_171814", "seq": 167, "pitch_deg": 0.0511, "yaw_deg": 0.2468, "roll_deg": 0.0645, "lat_deg": 34.0099997, "lon_deg": -118.0099999, "altitude_rel_ft": -0.2953, "ground_speed_ft_s": 0.0464, "vel_north_m_s": -0.01, "vel_east_m_s": 0.01, "vel_down_m_s": 0.0, "battery_remain_pct": 9900.0}
{"t_rx_ms": 1777335528764, "run_id": "20260427_171814", "seq": 168, "pitch_deg": 0.051, "yaw_deg": 0.2487, "roll_deg": 0.0647, "lat_deg": 34.0099997, "lon_deg": -118.0099999, "altitude_rel_ft": -0.315, "ground_speed_ft_s": 0.0464, "vel_north_m_s": -0.01, "vel_east_m_s": 0.01, "vel_down_m_s": 0.0, "battery_remain_pct": 9900.0}
{"t_rx_ms": 1777335528965, "run_id": "20260427_171814", "seq": 169, "pitch_deg": 0.0511, "yaw_deg": 0.2502, "roll_deg": 0.0651, "lat_deg": 34.0099997, "lon_deg": -118.0099999, "altitude_rel_ft": -0.315, "ground_speed_ft_s": 0.0464, "vel_north_m_s": -0.01, "vel_east_m_s": 0.01, "vel_down_m_s": 0.0, "battery_remain_pct": 9900.0}
{"t_rx_ms": 1777335529166, "run_id": "20260427_171814", "seq": 170, "pitch_deg": 0.0514, "yaw_deg": 0.2517, "roll_deg": 0.0654, "lat_deg": 34.0099997, "lon_deg": -118.0099999, "altitude_rel_ft": -0.3117, "ground_speed_ft_s": 0.0464, "vel_north_m_s": -0.01, "vel_east_m_s": 0.01, "vel_down_m_s": 0.0, "battery_remain_pct": 9900.0}
{"t_rx_ms": 1777335529367, "run_id": "20260427_171814", "seq": 171, "pitch_deg": 0.0514, "yaw_deg": 0.2532, "roll_deg": 0.0654, "lat_deg": 34.0099997, "lon_deg": -118.0099999, "altitude_rel_ft": -0.3346, "ground_speed_ft_s": 0.0464, "vel_north_m_s": -0.01, "vel_east_m_s": 0.01, "vel_down_m_s": 0.0, "battery_remain_pct": 9900.0}
{"t_rx_ms": 1777335529567, "run_id": "20260427_171814", "seq": 172, "pitch_deg": 0.0515, "yaw_deg": 0.2548, "roll_deg": 0.0652, "lat_deg": 34.0099997, "lon_deg": -118.0099999, "altitude_rel_ft": -0.3346, "ground_speed_ft_s": 0.0464, "vel_north_m_s": -0.01, "vel_east_m_s": 0.01, "vel_down_m_s": 0.0, "battery_remain_pct": 9900.0}
{"t_rx_ms": 1777335529768, "run_id": "20260427_171814", "seq": 173, "pitch_deg": 0.052, "yaw_deg": 0.2562, "roll_deg": 0.0653, "lat_deg": 34.0099997, "lon_deg": -118.0099999, "altitude_rel_ft": -0.3675, "ground_speed_ft_s": 0.0464, "vel_north_m_s": -0.01, "vel_east_m_s": 0.01, "vel_down_m_s": 0.0, "battery_remain_pct": 9900.0}
{"t_rx_ms": 1777335529970, "run_id": "20260427_171814", "seq": 174, "pitch_deg": 0.0523, "yaw_deg": 0.2577, "roll_deg": 0.0657, "lat_deg": 34.0099997, "lon_deg": -118.0099999, "altitude_rel_ft": -0.397, "ground_speed_ft_s": 0.0464, "vel_north_m_s": -0.01, "vel_east_m_s": 0.01, "vel_down_m_s": 0.0, "battery_remain_pct": 9900.0}
{"t_rx_ms": 1777335530170, "run_id": "20260427_171814", "seq": 175, "pitch_deg": 0.0525, "yaw_deg": 0.2591, "roll_deg": 0.0659, "lat_deg": 34.0099997, "lon_deg": -118.0099999, "altitude_rel_ft": -0.397, "ground_speed_ft_s": 0.0464, "vel_north_m_s": -0.01, "vel_east_m_s": 0.01, "vel_down_m_s": 0.0, "battery_remain_pct": 9900.0}
{"t_rx_ms": 1777335530372, "run_id": "20260427_171814", "seq": 176, "pitch_deg": 0.0529, "yaw_deg": 0.2605, "roll_deg": 0.0665, "lat_deg": 34.0099997, "lon_deg": -118.0099999, "altitude_rel_ft": -0.397, "ground_speed_ft_s": 0.0464, "vel_north_m_s": -0.01, "vel_east_m_s": 0.01, "vel_down_m_s": 0.0, "battery_remain_pct": 9900.0}
{"t_rx_ms": 1777335530573, "run_id": "20260427_171814", "seq": 177, "pitch_deg": 0.0532, "yaw_deg": 0.2622, "roll_deg": 0.0666, "lat_deg": 34.0099997, "lon_deg": -118.0099999, "altitude_rel_ft": -0.397, "ground_speed_ft_s": 0.0464, "vel_north_m_s": -0.01, "vel_east_m_s": 0.01, "vel_down_m_s": 0.0, "battery_remain_pct": 9900.0}
{"t_rx_ms": 1777335530774, "run_id": "20260427_171814", "seq": 178, "pitch_deg": 0.0532, "yaw_deg": 0.2641, "roll_deg": 0.0666, "lat_deg": 34.0099997, "lon_deg": -118.0099999, "altitude_rel_ft": -0.3773, "ground_speed_ft_s": 0.0464, "vel_north_m_s": -0.01, "vel_east_m_s": 0.01, "vel_down_m_s": 0.0, "battery_remain_pct": 9900.0}
