{"t_rx_ms": 1776459948611, "run_id": "20260417_124507", "seq": 1839, "pitch_deg": 15.8357, "yaw_deg": -46.0229, "roll_deg": -61.7088, "lat_deg": 34.040709899999996, "lon_deg": -117.8154715, "altitude_rel_ft": -0.0919, "ground_speed_ft_s": 0.0328, "vel_north_m_s": 0.01, "vel_east_m_s": 0.0, "vel_down_m_s": 0.01, "battery_remain_pct": 9900.0}
{"t_rx_ms": 1776459948811, "run_id": "20260417_124507", "seq": 1840, "pitch_deg": 15.8357, "yaw_deg": -46.0229, "roll_deg": -61.7088, "lat_deg": 34.040709899999996, "lon_deg": -117.8154715, "altitude_rel_ft": -0.0919, "ground_speed_ft_s": 0.0328, "vel_north_m_s": 0.01, "vel_east_m_s": 0.0, "vel_down_m_s": 0.01, "battery_remain_pct": 9900.0}
{"t_rx_ms": 1776459949012, "run_id": "20260417_124507", "seq": 1841, "pitch_deg": 15.8357, "yaw_deg": -46.0229, "roll_deg": -61.7088, "lat_deg": 34.040709899999996, "lon_deg": -117.8154715, "altitude_rel_ft": -0.0919, "ground_speed_ft_s": 0.0328, "vel_north_m_s": 0.01, "vel_east_m_s": 0.0, "vel_down_m_s": 0.01, "battery_remain_pct": 9900.0}
{"t_rx_ms": 1776459949217, "run_id": "20260417_124507", "seq": 1842, "pitch_deg": 15.7825, "yaw_deg": -46.0733, "roll_deg": -61.7433, "lat_deg": 34.04071, "lon_deg": -117.8154715, "altitude_rel_ft": -0.1509, "ground_speed_ft_s": 0.0328, "vel_north_m_s": 0.01, "vel_east_m_s": 0.0, "vel_down_m_s": 0.01, "battery_remain_pct": 9900.0}
{"t_rx_ms": 1776459949417, "run_id": "20260417_124507", "seq": 1843, "pitch_deg": 15.7825, "yaw_deg": -46.0733, "roll_deg": -61.7433, "lat_deg": 34.04071, "lon_deg": -117.8154715, "altitude_rel_ft": -0.1509, "ground_speed_ft_s": 0.0328, "vel_north_m_s": 0.01, "vel_east_m_s": 0.0, "vel_down_m_s": 0.01, "battery_remain_pct": 9900.0}
{"t_rx_ms": 1776459949617, "run_id": "20260417_124507", "seq": 1844, "pitch_deg": 15.7825, "yaw_deg": -46.0733, "roll_deg": -61.7433, "lat_deg": 34.04071, "lon_deg": -117.8154715, "altitude_rel_ft": -0.1509, "ground_speed_ft_s": 0.0328, "vel_north_m_s": 0.01, "vel_east_m_s": 0.0, "vel_down_m_s": 0.01, "battery_remain_pct": 9900.0}
{"t_rx_ms": 1776459949818, "run_id": "20260417_124507", "seq": 1845, "pitch_deg": 15.7825, "yaw_deg": -46.0733, "roll_deg": -61.7433, "lat_deg": 34.04071, "lon_deg": -117.8154715, "altitude_rel_ft": -0.1509, "ground_speed_ft_s": 0.0328, "vel_north_m_s": 0.01, "vel_east_m_s": 0.0, "vel_down_m_s": 0.01, "battery_remain_pct": 9900.0}
{"t_rx_ms": 1776459950024, "run_id": "20260417_124507", "seq": 1846, "pitch_deg": 15.7825, "yaw_deg": -46.0733, "roll_deg": -61.7433, "lat_deg": 34.04071, "lon_deg": -117.8154715, "altitude_rel_ft": -0.1509, "ground_speed_ft_s": 0.0328, "vel_north_m_s": 0.01, "vel_east_m_s": 0.0, "vel_down_m_s": 0.01, "battery_remain_pct": 9900.0}
{"t_rx_ms": 1776459950226, "run_id": "20260417_124507", "seq": 1847, "pitch_deg": 15.8556, "yaw_deg": -45.9823, "roll_deg": -61.7471, "lat_deg": 34.04071, "lon_deg": -117.8154715, "altitude_rel_ft": -0.1772, "ground_speed_ft_s": 0.0328, "vel_north_m_s": 0.01, "vel_east_m_s": 0.0, "vel_down_m_s": 0.01, "battery_remain_pct": 9900.0}
{"t_rx_ms": 1776459950427, "run_id": "20260417_124507", "seq": 1848, "pitch_deg": 15.8556, "yaw_deg": -45.9823, "roll_deg": -61.7471, "lat_deg": 34.04071, "lon_deg": -117.8154715, "altitude_rel_ft": -0.1772, "ground_speed_ft_s": 0.0328, "vel_north_m_s": 0.01, "vel_east_m_s": 0.0, "vel_down_m_s": 0.01, "battery_remain_pct": 9900.0}
{"t_rx_ms": 1776459950628, "run_id": "20260417_124507", "seq": 1849, "pitch_deg": 15.8556, "yaw_deg": -45.9823, "roll_deg": -61.7471, "lat_deg": 34.04071, "lon_deg": -117.8154715, "altitude_rel_ft": -0.1772, "ground_speed_ft_s": 0.0328, "vel_north_m_s": 0.01, "vel_east_m_s": 0.0, "vel_down_m_s": 0.01, "battery_remain_pct": 9900.0}
{"t_rx_ms": 1776459950828, "run_id": "20260417_124507", "seq": 1850, "pitch_deg": 15.8556, "yaw_deg": -45.9823, "roll_deg": -61.7471, "lat_deg": 34.04071, "lon_deg": -117.8154715, "altitude_rel_ft": -0.1772, "ground_speed_ft_s": 0.0328, "vel_north_m_s": 0.01, "vel_east_m_s": 0.0, "vel_down_m_s": 0.01, "battery_remain_pct": 9900.0}
{"t_rx_ms": 1776459951029, "run_id": "20260417_124507", "seq": 1851, "pitch_deg": 15.7722, "yaw_deg": -45.9544, "roll_deg": -61.8184, "lat_deg": 34.04071, "lon_deg": -117.8154716, "altitude_rel_ft": -0.0984, "ground_speed_ft_s": 0.0, "vel_north_m_s": 0.0, "vel_east_m_s": 0.0, "vel_down_m_s": 0.01, "battery_remain_pct": 9900.0}
{"t_rx_ms": 1776459951229, "run_id": "20260417_124507", "seq": 1852, "pitch_deg": 15.7722, "yaw_deg": -45.9544, "roll_deg": -61.8184, "lat_deg": 34.04071, "lon_deg": -117.8154716, "altitude_rel_ft": -0.0984, "ground_speed_ft_s": 0.0, "vel_north_m_s": 0.0, "vel_east_m_s": 0.0, "vel_down_m_s": 0.01, "battery_remain_pct": 9900.0}
{"t_rx_ms": 1776459951430, "run_id": "20260417_124507", "seq": 1853, "pitch_deg": 15.7722, "yaw_deg": -45.9544, "roll_deg": -61.8184, "lat_deg": 34.04071, "lon_deg": -117.8154716, "altitude_rel_ft": -0.0984, "ground_speed_ft_s": 0.0, "vel_north_m_s": 0.0, "vel_east_m_s": 0.0, "vel_down_m_s": 0.01, "battery_remain_pct": 9900.0}
{"t_rx_ms": 1776459951630, "run_id": "20260417_124507", "seq": 1854, "pitch_deg": 15.7722, "yaw_deg": -45.9544, "roll_deg": -61.8184, "lat_deg": 34.04071, "lon_deg": -117.8154716, "altitude_rel_ft": -0.0984, "ground_speed_ft_s": 0.0, "vel_north_m_s": 0.0, "vel_east_m_s": 0.0, "vel_down_m_s": 0.01, "battery_remain_pct": 9900.0}
{"t_rx_ms": 1776459951831, "run_id": "20260417_124507", "seq": 1855, "pitch_deg": 15.7722, "yaw_deg": -45.9544, "roll_deg": -61.8184, "lat_deg": 34.04071, "lon_deg": -117.8154716, "altitude_rel_ft": -0.0984, "ground_speed_ft_s": 0.0, "vel_north_m_s": 0.0, "vel_east_m_s": 0.0, "vel_down_m_s": 0.01, "battery_remain_pct": 9900.0}
{"t_rx_ms": 1776459952031, "run_id": "20260417_124507", "seq": 1856, "pitch_deg": 15.6672, "yaw_deg": -46.032, "roll_deg": -62.0833, "lat_deg": 34.040709899999996, "lon_deg": -117.81547169999999, "altitude_rel_ft": -0.0262, "ground_speed_ft_s": 0.0, "vel_north_m_s": 0.0, "vel_east_m_s": 0.0, "vel_down_m_s": 0.01, "battery_remain_pct": 9900.0}
{"t_rx_ms": 1776459952232, "run_id": "20260417_124507", "seq": 1857, "pitch_deg": 15.6672, "yaw_deg": -46.032, "roll_deg": -62.0833, "lat_deg": 34.040709899999996, "lon_deg": -117.81547169999999, "altitude_rel_ft": -0.0262, "ground_speed_ft_s": 0.0, "vel_north_m_s": 0.0, "vel_east_m_s": 0.0, "vel_down_m_s": 0.01, "battery_remain_pct": 9900.0}
{"t_rx_ms": 1776459952433, "run_id": "20260417_124507", "seq": 1858, "pitch_deg": 15.6672, "yaw_deg": -46.032, "roll_deg": -62.0833, "lat_deg": 34.040709899999996, "lon_deg": -117.81547169999999, "altitude_rel_ft": -0.0262, "ground_speed_ft_s": 0.0, "vel_north_m_s": 0.0, "vel_east_m_s": 0.0, "vel_down_m_s": 0.01, "battery_remain_pct": 9900.0}
{"t_rx_ms": 1776459952637, "run_id": "20260417_124507", "seq": 1859, "pitch_deg": 15.6672, "yaw_deg": -46.032, "roll_deg": -62.0833, "lat_deg": 34.040709899999996, "lon_deg": -117.81547169999999, "altitude_rel_ft": -0.0262, "ground_speed_ft_s": 0.0, "vel_north_m_s": 0.0, "vel_east_m_s": 0.0, "vel_down_m_s": 0.01, "battery_remain_pct": 9900.0}
{"t_rx_ms": 1776459952838, "run_id": "20260417_124507", "seq": 1860, "pitch_deg": 15.6672, "yaw_deg": -46.032, "roll_deg": -62.0833, "lat_deg": 34.040709899999996, "lon_deg": -117.81547169999999, "altitude_rel_ft": -0.0262, "ground_speed_ft_s": 0.0, "vel_north_m_s": 0.0, "vel_east_m_s": 0.0, "vel_down_m_s": 0.01, "battery_remain_pct": 9900.0}
{"t_rx_ms": 1776459953039, "run_id": "20260417_124507", "seq": 1861, "pitch_deg": 15.4639, "yaw_deg": -45.9211, "roll_deg": -62.27, "lat_deg": 34.0407097, "lon_deg": -117.81547189999999, "altitude_rel_ft": -0.0033, "ground_speed_ft_s": 0.0, "vel_north_m_s": 0.0, "vel_east_m_s": 0.0, "vel_down_m_s": 0.01, "battery_remain_pct": 9900.0}
{"t_rx_ms": 1776459953240, "run_id": "20260417_124507", "seq": 1862, "pitch_deg": 15.4639, "yaw_deg": -45.9211, "roll_deg": -62.27, "lat_deg": 34.0407097, "lon_deg": -117.81547189999999, "altitude_rel_ft": -0.0033, "ground_speed_ft_s": 0.0, "vel_north_m_s": 0.0, "vel_east_m_s": 0.0, "vel_down_m_s": 0.01, "battery_remain_pct": 9900.0}
{"t_rx_ms": 1776459953441, "run_id": "20260417_124507", "seq": 1863, "pitch_deg": 15.4639, "yaw_deg": -45.9211, "roll_deg": -62.27, "lat_deg": 34.0407097, "lon_deg": -117.81547189999999, "altitude_rel_ft": -0.0033, "ground_speed_ft_s": 0.0, "vel_north_m_s": 0.0, "vel_east_m_s": 0.0, "vel_down_m_s": 0.01, "battery_remain_pct": 9900.0}
{"t_rx_ms": 1776459953643, "run_id": "20260417_124507", "seq": 1864, "pitch_deg": 15.4639, "yaw_deg": -45.9211, "roll_deg": -62.27, "lat_deg": 34.0407097, "lon_deg": -117.81547189999999, "altitude_rel_ft": -0.0033, "ground_speed_ft_s": 0.0, "vel_north_m_s": 0.0, "vel_east_m_s": 0.0, "vel_down_m_s": 0.01, "battery_remain_pct": 9900.0}
{"t_rx_ms": 1776459953844, "run_id": "20260417_124507", "seq": 1865, "pitch_deg": 15.4639, "yaw_deg": -45.9211, "roll_deg": -62.27, "lat_deg": 34.0407097, "lon_deg": -117.81547189999999, "altitude_rel_ft": -0.0033, "ground_speed_ft_s": 0.0, "vel_north_m_s": 0.0, "vel_east_m_s": 0.0, "vel_down_m_s": 0.01, "battery_remain_pct": 9900.0}
{"t_rx_ms": 1776459954048, "run_id": "20260417_124507", "seq": 1866, "pitch_deg": 15.5657, "yaw_deg": -45.6758, "roll_deg": -61.692, "lat_deg": 34.0407095, "lon_deg": -117.8154721, "altitude_rel_ft": 0.0558, "ground_speed_ft_s": 0.0734, "vel_north_m_s": -0.02, "vel_east_m_s": -0.01, "vel_down_m_s": 0.0, "battery_remain_pct": 9900.0}
{"t_rx_ms": 1776459954248, "run_id": "20260417_124507", "seq": 1867, "pitch_deg": 15.5657, "yaw_deg": -45.6758, "roll_deg": -61.692, "lat_deg": 34.0407095, "lon_deg": -117.8154721, "altitude_rel_ft": 0.0558, "ground_speed_ft_s": 0.0734, "vel_north_m_s": -0.02, "vel_east_m_s": -0.01, "vel_down_m_s": 0.0, "battery_remain_pct": 9900.0}
{"t_rx_ms": 1776459954451, "run_id": "20260417_124507", "seq": 1868, "pitch_deg": 15.5657, "yaw_deg": -45.6758, "roll_deg": -61.692, "lat_deg": 34.0407095, "lon_deg": -117.8154721, "altitude_rel_ft": 0.0558, "ground_speed_ft_s": 0.0734, "vel_north_m_s": -0.02, "vel_east_m_s": -0.01, "vel_down_m_s": 0.0, "battery_remain_pct": 9900.0}
{"t_rx_ms": 1776459954652, "run_id": "20260417_124507", "seq": 1869, "pitch_deg": 15.5657, "yaw_deg": -45.6758, "roll_deg": -61.692, "lat_deg": 34.0407095, "lon_deg": -117.8154721, "altitude_rel_ft": 0.0558, "ground_speed_ft_s": 0.0734, "vel_north_m_s": -0.02, "vel_east_m_s": -0.01, "vel_down_m_s": 0.0, "battery_remain_pct": 9900.0}
{"t_rx_ms": 1776459954853, "run_id": "20260417_124507", "seq": 1870, "pitch_deg": 15.5657, "yaw_deg": -45.6758, "roll_deg": -61.692, "lat_deg": 34.0407095, "lon_deg": -117.8154721, "altitude_rel_ft": 0.0558, "ground_speed_ft_s": 0.0734, "vel_north_m_s": -0.02, "vel_east_m_s": -0.01, "vel_down_m_s": 0.0, "battery_remain_pct": 9900.0}
{"t_rx_ms": 1776459955053, "run_id": "20260417_124507", "seq": 1871, "pitch_deg": 15.6971, "yaw_deg": -45.7525, "roll_deg": -61.1373, "lat_deg": 34.0407094, "lon_deg": -117.81547219999999, "altitude_rel_ft": 0.0066, "ground_speed_ft_s": 0.0, "vel_north_m_s": 0.0, "vel_east_m_s": 0.0, "vel_down_m_s": 0.01, "battery_remain_pct": 9900.0}
{"t_rx_ms": 1776459955265, "run_id": "20260417_124507", "seq": 1872, "pitch_deg": 15.6971, "yaw_deg": -45.7525, "roll_deg": -61.1373, "lat_deg": 34.0407094, "lon_deg": -117.81547219999999, "altitude_rel_ft": 0.0066, "ground_speed_ft_s": 0.0, "vel_north_m_s": 0.0, "vel_east_m_s": 0.0, "vel_down_m_s": 0.01, "battery_remain_pct": 9900.0}
{"t_rx_ms": 1776459955465, "run_id": "20260417_124507", "seq": 1873, "pitch_deg": 15.6971, "yaw_deg": -45.7525, "roll_deg": -61.1373, "lat_deg": 34.0407094, "lon_deg": -117.81547219999999, "altitude_rel_ft": 0.0066, "ground_speed_ft_s": 0.0, "vel_north_m_s": 0.0, "vel_east_m_s": 0.0, "vel_down_m_s": 0.01, "battery_remain_pct": 9900.0}
{"t_rx_ms": 1776459955666, "run_id": "20260417_124507", "seq": 1874, "pitch_deg": 15.6971, "yaw_deg": -45.7525, "roll_deg": -61.1373, "lat_deg": 34.0407094, "lon_deg": -117.81547219999999, "altitude_rel_ft": 0.0066, "ground_speed_ft_s": 0.0, "vel_north_m_s": 0.0, "vel_east_m_s": 0.0, "vel_down_m_s": 0.01, "battery_remain_pct": 9900.0}
{"t_rx_ms": 1776459955878, "run_id": "20260417_124507", "seq": 1875, "pitch_deg": 15.6971, "yaw_deg": -45.7525, "roll_deg": -61.1373, "lat_deg": 34.0407094, "lon_deg": -117.81547219999999, "altitude_rel_ft": 0.0066, "ground_speed_ft_s": 0.0, "vel_north_m_s": 0.0, "vel_east_m_s": 0.0, "vel_down_m_s": 0.01, "battery_remain_pct": 9900.0}
{"t_rx_ms": 1776459956077, "run_id": "20260417_124507", "seq": 1876, "pitch_deg": 15.5614, "yaw_deg": -45.7806, "roll_deg": -61.6286, "lat_deg": 34.0407094, "lon_deg": -117.81547219999999, "altitude_rel_ft": -0.0098, "ground_speed_ft_s": 0.0, "vel_north_m_s": 0.0, "vel_east_m_s": 0.0, "vel_down_m_s": 0.0, "battery_remain_pct": 9900.0}
{"t_rx_ms": 1776459956280, "run_id": "20260417_124507", "seq": 1877, "pitch_deg": 15.5614, "yaw_deg": -45.7806, "roll_deg": -61.6286, "lat_deg": 34.0407094, "lon_deg": -117.81547219999999, "altitude_rel_ft": -0.0098, "ground_speed_ft_s": 0.0, "vel_north_m_s": 0.0, "vel_east_m_s": 0.0, "vel_down_m_s": 0.0, "battery_remain_pct": 9900.0}
{"t_rx_ms": 1776459956481, "run_id": "20260417_124507", "seq": 1878, "pitch_deg": 15.5614, "yaw_deg": -45.7806, "roll_deg": -61.6286, "lat_deg": 34.0407094, "lon_deg": -117.81547219999999, "altitude_rel_ft": -0.0098, "ground_speed_ft_s": 0.0, "vel_north_m_s": 0.0, "vel_east_m_s": 0.0, "vel_down_m_s": 0.0, "battery_remain_pct": 9900.0}
{"t_rx_ms": 1776459956686, "run_id": "20260417_124507", "seq": 1879, "pitch_deg": 15.5614, "yaw_deg": -45.7806, "roll_deg": -61.6286, "lat_deg": 34.0407094, "lon_deg": -117.81547219999999, "altitude_rel_ft": -0.0098, "ground_speed_ft_s": 0.0, "vel_north_m_s": 0.0, "vel_east_m_s": 0.0, "vel_down_m_s": 0.0, "battery_remain_pct": 9900.0}
{"t_rx_ms": 1776459956888, "run_id": "20260417_124507", "seq": 1880, "pitch_deg": 15.5614, "yaw_deg": -45.7806, "roll_deg": -61.6286, "lat_deg": 34.0407094, "lon_deg": -117.81547219999999, "altitude_rel_ft": -0.0098, "ground_speed_ft_s": 0.0, "vel_north_m_s": 0.0, "vel_east_m_s": 0.0, "vel_down_m_s": 0.0, "battery_remain_pct": 9900.0}
{"t_rx_ms": 1776459957091, "run_id": "20260417_124507", "seq": 1881, "pitch_deg": 15.5486, "yaw_deg": -45.6146, "roll_deg": -61.9583, "lat_deg": 34.0407094, "lon_deg": -117.8154723, "altitude_rel_ft": 0.0262, "ground_speed_ft_s": 0.0, "vel_north_m_s": 0.0, "vel_east_m_s": 0.0, "vel_down_m_s": 0.01, "battery_remain_pct": 9900.0}
{"t_rx_ms": 1776459957290, "run_id": "20260417_124507", "seq": 1882, "pitch_deg": 15.5486, "yaw_deg": -45.6146, "roll_deg": -61.9583, "lat_deg": 34.0407094, "lon_deg": -117.8154723, "altitude_rel_ft": 0.0262, "ground_speed_ft_s": 0.0, "vel_north_m_s": 0.0, "vel_east_m_s": 0.0, "vel_down_m_s": 0.01, "battery_remain_pct": 9900.0}
{"t_rx_ms": 1776459957492, "run_id": "20260417_124507", "seq": 1883, "pitch_deg": 15.5486, "yaw_deg": -45.6146, "roll_deg": -61.9583, "lat_deg": 34.0407094, "lon_deg": -117.8154723, "altitude_rel_ft": 0.0262, "ground_speed_ft_s": 0.0, "vel_north_m_s": 0.0, "vel_east_m_s": 0.0, "vel_down_m_s": 0.01, "battery_remain_pct": 9900.0}
{"t_rx_ms": 1776459957693, "run_id": "20260417_124507", "seq": 1884, "pitch_deg": 15.5486, "yaw_deg": -45.6146, "roll_deg": -61.9583, "lat_deg": 34.0407094, "lon_deg": -117.8154723, "altitude_rel_ft": 0.0262, "ground_speed_ft_s": 0.0, "vel_north_m_s": 0.0, "vel_east_m_s": 0.0, "vel_down_m_s": 0.01, "battery_remain_pct": 9900.0}
{"t_rx_ms": 1776459957895, "run_id": "20260417_124507", "seq": 1885, "pitch_deg": 15.5486, "yaw_deg": -45.6146, "roll_deg": -61.9583, "lat_deg": 34.0407094, "lon_deg": -117.8154723, "altitude_rel_ft": 0.0262, "ground_speed_ft_s": 0.0, "vel_north_m_s": 0.0, "vel_east_m_s": 0.0, "vel_down_m_s": 0.01, "battery_remain_pct": 9900.0}
{"t_rx_ms": 1776459958095, "run_id": "20260417_124507", "seq": 1886, "pitch_deg": 15.5578, "yaw_deg": -45.6728, "roll_deg": -62.1159, "lat_deg": 34.0407096, "lon_deg": -117.81547219999999, "altitude_rel_ft": 0.0197, "ground_speed_ft_s": 0.0, "vel_north_m_s": 0.0, "vel_east_m_s": 0.0, "vel_down_m_s": 0.0, "battery_remain_pct": 9900.0}
{"t_rx_ms": 1776459958296, "run_id": "20260417_124507", "seq": 1887, "pitch_deg": 15.5578, "yaw_deg": -45.6728, "roll_deg": -62.1159, "lat_deg": 34.0407096, "lon_deg": -117.81547219999999, "altitude_rel_ft": 0.0197, "ground_speed_ft_s": 0.0, "vel_north_m_s": 0.0, "vel_east_m_s": 0.0, "vel_down_m_s": 0.0, "battery_remain_pct": 9900.0}
{"t_rx_ms": 1776459958499, "run_id": "20260417_124507", "seq": 1888, "pitch_deg": 15.5578, "yaw_deg": -45.6728, "roll_deg": -62.1159, "lat_deg": 34.0407096, "lon_deg": -117.81547219999999, "altitude_rel_ft": 0.0197, "ground_speed_ft_s": 0.0, "vel_north_m_s": 0.0, "vel_east_m_s": 0.0, "vel_down_m_s": 0.0, "battery_remain_pct": 9900.0}
{"t_rx_ms": 1776459958703, "run_id": "20260417_124507", "seq": 1889, "pitch_deg": 15.5578, "yaw_deg": -45.6728, "roll_deg": -62.1159, "lat_deg": 34.0407096, "lon_deg": -117.81547219999999, "altitude_rel_ft": 0.0197, "ground_speed_ft_s": 0.0, "vel_north_m_s": 0.0, "vel_east_m_s": 0.0, "vel_down_m_s": 0.0, "battery_remain_pct": 9900.0}
{"t_rx_ms": 1776459958904, "run_id": "20260417_124507", "seq": 1890, "pitch_deg": 15.5578, "yaw_deg": -45.6728, "roll_deg": -62.1159, "lat_deg": 34.0407096, "lon_deg": -117.81547219999999, "altitude_rel_ft": 0.0197, "ground_speed_ft_s": 0.0, "vel_north_m_s": 0.0, "vel_east_m_s": 0.0, "vel_down_m_s": 0.0, "battery_remain_pct": 9900.0}
{"t_rx_ms": 1776459959105, "run_id": "20260417_124507", "seq": 1891, "pitch_deg": 15.5522, "yaw_deg": -45.686, "roll_deg": -62.17, "lat_deg": 34.0407098, "lon_deg": -117.815472, "altitude_rel_ft": 0.0492, "ground_speed_ft_s": 0.0328, "vel_north_m_s": 0.01, "vel_east_m_s": 0.0, "vel_down_m_s": 0.01, "battery_remain_pct": 9900.0}
{"t_rx_ms": 1776459959308, "run_id": "20260417_124507", "seq": 1892, "pitch_deg": 15.5522, "yaw_deg": -45.686, "roll_deg": -62.17, "lat_deg": 34.0407098, "lon_deg": -117.815472, "altitude_rel_ft": 0.0492, "ground_speed_ft_s": 0.0328, "vel_north_m_s": 0.01, "vel_east_m_s": 0.0, "vel_down_m_s": 0.01, "battery_remain_pct": 9900.0}
{"t_rx_ms": 1776459959512, "run_id": "20260417_124507", "seq": 1893, "pitch_deg": 15.5522, "yaw_deg": -45.686, "roll_deg": -62.17, "lat_deg": 34.0407098, "lon_deg": -117.815472, "altitude_rel_ft": 0.0492, "ground_speed_ft_s": 0.0328, "vel_north_m_s": 0.01, "vel_east_m_s": 0.0, "vel_down_m_s": 0.01, "battery_remain_pct": 9900.0}
{"t_rx_ms": 1776459959713, "run_id": "20260417_124507", "seq": 1894, "pitch_deg": 15.5522, "yaw_deg": -45.686, "roll_deg": -62.17, "lat_deg": 34.0407098, "lon_deg": -117.815472, "altitude_rel_ft": 0.0492, "ground_speed_ft_s": 0.0328, "vel_north_m_s": 0.01, "vel_east_m_s": 0.0, "vel_down_m_s": 0.01, "battery_remain_pct": 9900.0}
{"t_rx_ms": 1776459959914, "run_id": "20260417_124507", "seq": 1895, "pitch_deg": 15.5522, "yaw_deg": -45.686, "roll_deg": -62.17, "lat_deg": 34.0407098, "lon_deg": -117.815472, "altitude_rel_ft": 0.0492, "ground_speed_ft_s": 0.0328, "vel_north_m_s": 0.01, "vel_east_m_s": 0.0, "vel_down_m_s": 0.01, "battery_remain_pct": 9900.0}
{"t_rx_ms": 1776459960115, "run_id": "20260417_124507", "seq": 1896, "pitch_deg": 15.4863, "yaw_deg": -45.6556, "roll_deg": -62.1234, "lat_deg": 34.04071, "lon_deg": -117.81547189999999, "altitude_rel_ft": 0.1017, "ground_speed_ft_s": 0.0328, "vel_north_m_s": 0.01, "vel_east_m_s": 0.0, "vel_down_m_s": 0.0, "battery_remain_pct": 9900.0}
{"t_rx_ms": 1776459960316, "run_id": "20260417_124507", "seq": 1897, "pitch_deg": 15.4863, "yaw_deg": -45.6556, "roll_deg": -62.1234, "lat_deg": 34.04071, "lon_deg": -117.81547189999999, "altitude_rel_ft": 0.1017, "ground_speed_ft_s": 0.0328, "vel_north_m_s": 0.01, "vel_east_m_s": 0.0, "vel_down_m_s": 0.0, "battery_remain_pct": 9900.0}
{"t_rx_ms": 1776459960517, "run_id": "20260417_124507", "seq": 1898, "pitch_deg": 15.4863, "yaw_deg": -45.6556, "roll_deg": -62.1234, "lat_deg": 34.04071, "lon_deg": -117.81547189999999, "altitude_rel_ft": 0.1017, "ground_speed_ft_s": 0.0328, "vel_north_m_s": 0.01, "vel_east_m_s": 0.0, "vel_down_m_s": 0.0, "battery_remain_pct": 9900.0}
{"t_rx_ms": 1776459960719, "run_id": "20260417_124507", "seq": 1899, "pitch_deg": 15.4863, "yaw_deg": -45.6556, "roll_deg": -62.1234, "lat_deg": 34.04071, "lon_deg": -117.81547189999999, "altitude_rel_ft": 0.1017, "ground_speed_ft_s": 0.0328, "vel_north_m_s": 0.01, "vel_east_m_s": 0.0, "vel_down_m_s": 0.0, "battery_remain_pct": 9900.0}
{"t_rx_ms": 1776459960921, "run_id": "20260417_124507", "seq": 1900, "pitch_deg": 15.4863, "yaw_deg": -45.6556, "roll_deg": -62.1234, "lat_deg": 34.04071, "lon_deg": -117.81547189999999, "altitude_rel_ft": 0.1017, "ground_speed_ft_s": 0.0328, "vel_north_m_s": 0.01, "vel_east_m_s": 0.0, "vel_down_m_s": 0.0, "battery_remain_pct": 9900.0}
{"t_rx_ms": 1776459961128, "run_id": "20260417_124507", "seq": 1901, "pitch_deg": 15.4761, "yaw_deg": -45.7736, "roll_deg": -62.6102, "lat_deg": 34.04071, "lon_deg": -117.815472, "altitude_rel_ft": 0.1444, "ground_speed_ft_s": 0.0328, "vel_north_m_s": 0.01, "vel_east_m_s": 0.0, "vel_down_m_s": 0.0, "battery_remain_pct": 9900.0}
{"t_rx_ms": 1776459961335, "run_id": "20260417_124507", "seq": 1902, "pitch_deg": 15.4761, "yaw_deg": -45.7736, "roll_deg": -62.6102, "lat_deg": 34.04071, "lon_deg": -117.815472, "altitude_rel_ft": 0.1444, "ground_speed_ft_s": 0.0328, "vel_north_m_s": 0.01, "vel_east_m_s": 0.0, "vel_down_m_s": 0.0, "battery_remain_pct": 9900.0}
{"t_rx_ms": 1776459961529, "run_id": "20260417_124507", "seq": 1903, "pitch_deg": 15.4761, "yaw_deg": -45.7736, "roll_deg": -62.6102, "lat_deg": 34.04071, "lon_deg": -117.815472, "altitude_rel_ft": 0.1444, "ground_speed_ft_s": 0.0328, "vel_north_m_s": 0.01, "vel_east_m_s": 0.0, "vel_down_m_s": 0.0, "battery_remain_pct": 9900.0}
{"t_rx_ms": 1776459961730, "run_id": "20260417_124507", "seq": 1904, "pitch_deg": 15.4761, "yaw_deg": -45.7736, "roll_deg": -62.6102, "lat_deg": 34.04071, "lon_deg": -117.815472, "altitude_rel_ft": 0.1444, "ground_speed_ft_s": 0.0328, "vel_north_m_s": 0.01, "vel_east_m_s": 0.0, "vel_down_m_s": 0.0, "battery_remain_pct": 9900.0}
{"t_rx_ms": 1776459961938, "run_id": "20260417_124507", "seq": 1905, "pitch_deg": 15.4761, "yaw_deg": -45.7736, "roll_deg": -62.6102, "lat_deg": 34.04071, "lon_deg": -117.815472, "altitude_rel_ft": 0.1444, "ground_speed_ft_s": 0.0328, "vel_north_m_s": 0.01, "vel_east_m_s": 0.0, "vel_down_m_s": 0.0, "battery_remain_pct": 9900.0}
{"t_rx_ms": 1776459962144, "run_id": "20260417_124507", "seq": 1906, "pitch_deg": 15.3939, "yaw_deg": -45.6315, "roll_deg": -62.8362, "lat_deg": 34.0407102, "lon_deg": -117.815472, "altitude_rel_ft": 0.1772, "ground_speed_ft_s": 0.0656, "vel_north_m_s": 0.02, "vel_east_m_s": 0.0, "vel_down_m_s": 0.0, "battery_remain_pct": 9900.0}
{"t_rx_ms": 1776459962345, "run_id": "20260417_124507", "seq": 1907, "pitch_deg": 15.3939, "yaw_deg": -45.6315, "roll_deg": -62.8362, "lat_deg": 34.0407102, "lon_deg": -117.815472, "altitude_rel_ft": 0.1772, "ground_speed_ft_s": 0.0656, "vel_north_m_s": 0.02, "vel_east_m_s": 0.0, "vel_down_m_s": 0.0, "battery_remain_pct": 9900.0}
{"t_rx_ms": 1776459962549, "run_id": "20260417_124507", "seq": 1908, "pitch_deg": 15.3939, "yaw_deg": -45.6315, "roll_deg": -62.8362, "lat_deg": 34.0407102, "lon_deg": -117.815472, "altitude_rel_ft": 0.1772, "ground_speed_ft_s": 0.0656, "vel_north_m_s": 0.02, "vel_east_m_s": 0.0, "vel_down_m_s": 0.0, "battery_remain_pct": 9900.0}
{"t_rx_ms": 1776459962755, "run_id": "20260417_124507", "seq": 1909, "pitch_deg": 15.3939, "yaw_deg": -45.6315, "roll_deg": -62.8362, "lat_deg": 34.0407102, "lon_deg": -117.815472, "altitude_rel_ft": 0.1772, "ground_speed_ft_s": 0.0656, "vel_north_m_s": 0.02, "vel_east_m_s": 0.0, "vel_down_m_s": 0.0, "battery_remain_pct": 9900.0}
{"t_rx_ms": 1776459962956, "run_id": "20260417_124507", "seq": 1910, "pitch_deg": 15.3939, "yaw_deg": -45.6315, "roll_deg": -62.8362, "lat_deg": 34.0407102, "lon_deg": -117.815472, "altitude_rel_ft": 0.1772, "ground_speed_ft_s": 0.0656, "vel_north_m_s": 0.02, "vel_east_m_s": 0.0, "vel_down_m_s": 0.0, "battery_remain_pct": 9900.0}
{"t_rx_ms": 1776459963159, "run_id": "20260417_124507", "seq": 1911, "pitch_deg": 15.4086, "yaw_deg": -45.6119, "roll_deg": -62.8242, "lat_deg": 34.0407103, "lon_deg": -117.815472, "altitude_rel_ft": 0.082, "ground_speed_ft_s": 0.0656, "vel_north_m_s": 0.02, "vel_east_m_s": 0.0, "vel_down_m_s": 0.0, "battery_remain_pct": 9900.0}
{"t_rx_ms": 1776459963360, "run_id": "20260417_124507", "seq": 1912, "pitch_deg": 15.4086, "yaw_deg": -45.6119, "roll_deg": -62.8242, "lat_deg": 34.0407103, "lon_deg": -117.815472, "altitude_rel_ft": 0.082, "ground_speed_ft_s": 0.0656, "vel_north_m_s": 0.02, "vel_east_m_s": 0.0, "vel_down_m_s": 0.0, "battery_remain_pct": 9900.0}
{"t_rx_ms": 1776459963568, "run_id": "20260417_124507", "seq": 1913, "pitch_deg": 15.4086, "yaw_deg": -45.6119, "roll_deg": -62.8242, "lat_deg": 34.0407103, "lon_deg": -117.815472, "altitude_rel_ft": 0.082, "ground_speed_ft_s": 0.0656, "vel_north_m_s": 0.02, "vel_east_m_s": 0.0, "vel_down_m_s": 0.0, "battery_remain_pct": 9900.0}
{"t_rx_ms": 1776459963771, "run_id": "20260417_124507", "seq": 1914, "pitch_deg": 15.4086, "yaw_deg": -45.6119, "roll_deg": -62.8242, "lat_deg": 34.0407103, "lon_deg": -117.815472, "altitude_rel_ft": 0.082, "ground_speed_ft_s": 0.0656, "vel_north_m_s": 0.02, "vel_east_m_s": 0.0, "vel_down_m_s": 0.0, "battery_remain_pct": 9900.0}
{"t_rx_ms": 1776459963971, "run_id": "20260417_124507", "seq": 1915, "pitch_deg": 15.4086, "yaw_deg": -45.6119, "roll_deg": -62.8242, "lat_deg": 34.0407103, "lon_deg": -117.815472, "altitude_rel_ft": 0.082, "ground_speed_ft_s": 0.0656, "vel_north_m_s": 0.02, "vel_east_m_s": 0.0, "vel_down_m_s": 0.0, "battery_remain_pct": 9900.0}
{"t_rx_ms": 1776459964174, "run_id": "20260417_124507", "seq": 1916, "pitch_deg": 15.3879, "yaw_deg": -45.6401, "roll_deg": -62.8684, "lat_deg": 34.0407103, "lon_deg": -117.8154718, "altitude_rel_ft": -0.0066, "ground_speed_ft_s": 0.0328, "vel_north_m_s": 0.01, "vel_east_m_s": 0.0, "vel_down_m_s": 0.0, "battery_remain_pct": 9900.0}
{"t_rx_ms": 1776459964375, "run_id": "20260417_124507", "seq": 1917, "pitch_deg": 15.3879, "yaw_deg": -45.6401, "roll_deg": -62.8684, "lat_deg": 34.0407103, "lon_deg": -117.8154718, "altitude_rel_ft": -0.0066, "ground_speed_ft_s": 0.0328, "vel_north_m_s": 0.01, "vel_east_m_s": 0.0, "vel_down_m_s": 0.0, "battery_remain_pct": 9900.0}
{"t_rx_ms": 1776459964575, "run_id": "20260417_124507", "seq": 1918, "pitch_deg": 15.3879, "yaw_deg": -45.6401, "roll_deg": -62.8684, "lat_deg": 34.0407103, "lon_deg": -117.8154718, "altitude_rel_ft": -0.0066, "ground_speed_ft_s": 0.0328, "vel_north_m_s": 0.01, "vel_east_m_s": 0.0, "vel_down_m_s": 0.0, "battery_remain_pct": 9900.0}
{"t_rx_ms": 1776459964776, "run_id": "20260417_124507", "seq": 1919, "pitch_deg": 15.3879, "yaw_deg": -45.6401, "roll_deg": -62.8684, "lat_deg": 34.0407103, "lon_deg": -117.8154718, "altitude_rel_ft": -0.0066, "ground_speed_ft_s": 0.0328, "vel_north_m_s": 0.01, "vel_east_m_s": 0.0, "vel_down_m_s": 0.0, "battery_remain_pct": 9900.0}
{"t_rx_ms": 1776459964977, "run_id": "20260417_124507", "seq": 1920, "pitch_deg": 15.3879, "yaw_deg": -45.6401, "roll_deg": -62.8684, "lat_deg": 34.0407103, "lon_deg": -117.8154718, "altitude_rel_ft": -0.0066, "ground_speed_ft_s": 0.0328, "vel_north_m_s": 0.01, "vel_east_m_s": 0.0, "vel_down_m_s": 0.0, "battery_remain_pct": 9900.0}
{"t_rx_ms": 1776459965178, "run_id": "20260417_124507", "seq": 1921, "pitch_deg": 15.4237, "yaw_deg": -45.3307, "roll_deg": -62.9303, "lat_deg": 34.0407103, "lon_deg": -117.81547169999999, "altitude_rel_ft": -0.0558, "ground_speed_ft_s": 0.0, "vel_north_m_s": 0.0, "vel_east_m_s": 0.0, "vel_down_m_s": 0.0, "battery_remain_pct": 9900.0}
{"t_rx_ms": 1776459965384, "run_id": "20260417_124507", "seq": 1922, "pitch_deg": 15.4237, "yaw_deg": -45.3307, "roll_deg": -62.9303, "lat_deg": 34.0407103, "lon_deg": -117.81547169999999, "altitude_rel_ft": -0.0558, "ground_speed_ft_s": 0.0, "vel_north_m_s": 0.0, "vel_east_m_s": 0.0, "vel_down_m_s": 0.0, "battery_remain_pct": 9900.0}
{"t_rx_ms": 1776459965587, "run_id": "20260417_124507", "seq": 1923, "pitch_deg": 15.4237, "yaw_deg": -45.3307, "roll_deg": -62.9303, "lat_deg": 34.0407103, "lon_deg": -117.81547169999999, "altitude_rel_ft": -0.0558, "ground_speed_ft_s": 0.0, "vel_north_m_s": 0.0, "vel_east_m_s": 0.0, "vel_down_m_s": 0.0, "battery_remain_pct": 9900.0}
{"t_rx_ms": 1776459965788, "run_id": "20260417_124507", "seq": 1924, "pitch_deg": 15.4237, "yaw_deg": -45.3307, "roll_deg": -62.9303, "lat_deg": 34.0407103, "lon_deg": -117.81547169999999, "altitude_rel_ft": -0.0558, "ground_speed_ft_s": 0.0, "vel_north_m_s": 0.0, "vel_east_m_s": 0.0, "vel_down_m_s": 0.0, "battery_remain_pct": 9900.0}
{"t_rx_ms": 1776459965990, "run_id": "20260417_124507", "seq": 1925, "pitch_deg": 15.4237, "yaw_deg": -45.3307, "roll_deg": -62.9303, "lat_deg": 34.0407103, "lon_deg": -117.81547169999999, "altitude_rel_ft": -0.0558, "ground_speed_ft_s": 0.0, "vel_north_m_s": 0.0, "vel_east_m_s": 0.0, "vel_down_m_s": 0.0, "battery_remain_pct": 9900.0}
{"t_rx_ms": 1776459966193, "run_id": "20260417_124507", "seq": 1926, "pitch_deg": 15.2529, "yaw_deg": -45.4072, "roll_deg": -63.0901, "lat_deg": 34.0407103, "lon_deg": -117.8154715, "altitude_rel_ft": -0.082, "ground_speed_ft_s": 0.0328, "vel_north_m_s": 0.0, "vel_east_m_s": 0.01, "vel_down_m_s": 0.0, "battery_remain_pct": 9900.0}
{"t_rx_ms": 1776459966398, "run_id": "20260417_124507", "seq": 1927, "pitch_deg": 15.2529, "yaw_deg": -45.4072, "roll_deg": -63.0901, "lat_deg": 34.0407103, "lon_deg": -117.8154715, "altitude_rel_ft": -0.082, "ground_speed_ft_s": 0.0328, "vel_north_m_s": 0.0, "vel_east_m_s": 0.01, "vel_down_m_s": 0.0, "battery_remain_pct": 9900.0}
{"t_rx_ms": 1776459966599, "run_id": "20260417_124507", "seq": 1928, "pitch_deg": 15.2529, "yaw_deg": -45.4072, "roll_deg": -63.0901, "lat_deg": 34.0407103, "lon_deg": -117.8154715, "altitude_rel_ft": -0.082, "ground_speed_ft_s": 0.0328, "vel_north_m_s": 0.0, "vel_east_m_s": 0.01, "vel_down_m_s": 0.0, "battery_remain_pct": 9900.0}
{"t_rx_ms": 1776459966801, "run_id": "20260417_124507", "seq": 1929, "pitch_deg": 15.2529, "yaw_deg": -45.4072, "roll_deg": -63.0901, "lat_deg": 34.0407103, "lon_deg": -117.8154715, "altitude_rel_ft": -0.082, "ground_speed_ft_s": 0.0328, "vel_north_m_s": 0.0, "vel_east_m_s": 0.01, "vel_down_m_s": 0.0, "battery_remain_pct": 9900.0}
{"t_rx_ms": 1776459967001, "run_id": "20260417_124507", "seq": 1930, "pitch_deg": 15.2529, "yaw_deg": -45.4072, "roll_deg": -63.0901, "lat_deg": 34.0407103, "lon_deg": -117.8154715, "altitude_rel_ft": -0.082, "ground_speed_ft_s": 0.0328, "vel_north_m_s": 0.0, "vel_east_m_s": 0.01, "vel_down_m_s": 0.0, "battery_remain_pct": 9900.0}
{"t_rx_ms": 1776459967203, "run_id": "20260417_124507", "seq": 1931, "pitch_deg": 15.2813, "yaw_deg": -45.3419, "roll_deg": -62.6477, "lat_deg": 34.0407103, "lon_deg": -117.8154713, "altitude_rel_ft": -0.1083, "ground_speed_ft_s": 0.0328, "vel_north_m_s": -0.01, "vel_east_m_s": 0.0, "vel_down_m_s": 0.01, "battery_remain_pct": 9900.0}
{"t_rx_ms": 1776459967404, "run_id": "20260417_124507", "seq": 1932, "pitch_deg": 15.2813, "yaw_deg": -45.3419, "roll_deg": -62.6477, "lat_deg": 34.0407103, "lon_deg": -117.8154713, "altitude_rel_ft": -0.1083, "ground_speed_ft_s": 0.0328, "vel_north_m_s": -0.01, "vel_east_m_s": 0.0, "vel_down_m_s": 0.01, "battery_remain_pct": 9900.0}
{"t_rx_ms": 1776459967607, "run_id": "20260417_124507", "seq": 1933, "pitch_deg": 15.2813, "yaw_deg": -45.3419, "roll_deg": -62.6477, "lat_deg": 34.0407103, "lon_deg": -117.8154713, "altitude_rel_ft": -0.1083, "ground_speed_ft_s": 0.0328, "vel_north_m_s": -0.01, "vel_east_m_s": 0.0, "vel_down_m_s": 0.01, "battery_remain_pct": 9900.0}
{"t_rx_ms": 1776459967808, "run_id": "20260417_124507", "seq": 1934, "pitch_deg": 15.2813, "yaw_deg": -45.3419, "roll_deg": -62.6477, "lat_deg": 34.0407103, "lon_deg": -117.8154713, "altitude_rel_ft": -0.1083, "ground_speed_ft_s": 0.0328, "vel_north_m_s": -0.01, "vel_east_m_s": 0.0, "vel_down_m_s": 0.01, "battery_remain_pct": 9900.0}
{"t_rx_ms": 1776459968011, "run_id": "20260417_124507", "seq": 1935, "pitch_deg": 15.2813, "yaw_deg": -45.3419, "roll_deg": -62.6477, "lat_deg": 34.0407103, "lon_deg": -117.8154713, "altitude_rel_ft": -0.1083, "ground_speed_ft_s": 0.0328, "vel_north_m_s": -0.01, "vel_east_m_s": 0.0, "vel_down_m_s": 0.01, "battery_remain_pct": 9900.0}
{"t_rx_ms": 1776459968217, "run_id": "20260417_124507", "seq": 1936, "pitch_deg": 15.3659, "yaw_deg": -45.1196, "roll_deg": -62.8656, "lat_deg": 34.0407102, "lon_deg": -117.8154711, "altitude_rel_ft": -0.0525, "ground_speed_ft_s": 0.0328, "vel_north_m_s": 0.0, "vel_east_m_s": 0.01, "vel_down_m_s": 0.01, "battery_remain_pct": 9900.0}
{"t_rx_ms": 1776459968418, "run_id": "20260417_124507", "seq": 1937, "pitch_deg": 15.3659, "yaw_deg": -45.1196, "roll_deg": -62.8656, "lat_deg": 34.0407102, "lon_deg": -117.8154711, "altitude_rel_ft": -0.0525, "ground_speed_ft_s": 0.0328, "vel_north_m_s": 0.0, "vel_east_m_s": 0.01, "vel_down_m_s": 0.01, "battery_remain_pct": 9900.0}
{"t_rx_ms": 1776459968619, "run_id": "20260417_124507", "seq": 1938, "pitch_deg": 15.3659, "yaw_deg": -45.1196, "roll_deg": -62.8656, "lat_deg": 34.0407102, "lon_deg": -117.8154711, "altitude_rel_ft": -0.0525, "ground_speed_ft_s": 0.0328, "vel_north_m_s": 0.0, "vel_east_m_s": 0.01, "vel_down_m_s": 0.01, "battery_remain_pct": 9900.0}
{"t_rx_ms": 1776459968827, "run_id": "20260417_124507", "seq": 1939, "pitch_deg": 15.3659, "yaw_deg": -45.1196, "roll_deg": -62.8656, "lat_deg": 34.0407102, "lon_deg": -117.8154711, "altitude_rel_ft": -0.0525, "ground_speed_ft_s": 0.0328, "vel_north_m_s": 0.0, "vel_east_m_s": 0.01, "vel_down_m_s": 0.01, "battery_remain_pct": 9900.0}
{"t_rx_ms": 1776459969027, "run_id": "20260417_124507", "seq": 1940, "pitch_deg": 15.3659, "yaw_deg": -45.1196, "roll_deg": -62.8656, "lat_deg": 34.0407102, "lon_deg": -117.8154711, "altitude_rel_ft": -0.0525, "ground_speed_ft_s": 0.0328, "vel_north_m_s": 0.0, "vel_east_m_s": 0.01, "vel_down_m_s": 0.01, "battery_remain_pct": 9900.0}
{"t_rx_ms": 1776459969253, "run_id": "20260417_124507", "seq": 1941, "pitch_deg": 15.2823, "yaw_deg": -45.1326, "roll_deg": -63.1096, "lat_deg": 34.0407102, "lon_deg": -117.8154709, "altitude_rel_ft": -0.0656, "ground_speed_ft_s": 0.0328, "vel_north_m_s": 0.0, "vel_east_m_s": 0.01, "vel_down_m_s": 0.0, "battery_remain_pct": 9900.0}
{"t_rx_ms": 1776459969455, "run_id": "20260417_124507", "seq": 1942, "pitch_deg": 15.2823, "yaw_deg": -45.1326, "roll_deg": -63.1096, "lat_deg": 34.0407102, "lon_deg": -117.8154709, "altitude_rel_ft": -0.0656, "ground_speed_ft_s": 0.0328, "vel_north_m_s": 0.0, "vel_east_m_s": 0.01, "vel_down_m_s": 0.0, "battery_remain_pct": 9900.0}
{"t_rx_ms": 1776459969658, "run_id": "20260417_124507", "seq": 1943, "pitch_deg": 15.2823, "yaw_deg": -45.1326, "roll_deg": -63.1096, "lat_deg": 34.0407102, "lon_deg": -117.8154709, "altitude_rel_ft": -0.0656, "ground_speed_ft_s": 0.0328, "vel_north_m_s": 0.0, "vel_east_m_s": 0.01, "vel_down_m_s": 0.0, "battery_remain_pct": 9900.0}
