{"t_rx_ms": 1772827108481, "run_id": "20260306_115825", "seq": 0, "pitch_deg": null, "yaw_deg": null, "roll_deg": null, "lat_deg": null, "lon_deg": null, "altitude_rel_ft": null, "ground_speed_ft_s": null, "vel_north_m_s": null, "vel_east_m_s": null, "vel_down_m_s": null, "battery_remain_pct": null}
{"t_rx_ms": 1772827108681, "run_id": "20260306_115825", "seq": 1, "pitch_deg": -0.0514, "yaw_deg": 91.8568, "roll_deg": -0.1928, "lat_deg": 47.397971, "lon_deg": 8.5461637, "altitude_rel_ft": 0.456, "ground_speed_ft_s": 0.0, "vel_north_m_s": 0.0, "vel_east_m_s": 0.0, "vel_down_m_s": -0.06, "battery_remain_pct": null}
{"t_rx_ms": 1772827108882, "run_id": "20260306_115825", "seq": 2, "pitch_deg": -0.0574, "yaw_deg": 91.8554, "roll_deg": -0.1928, "lat_deg": 47.397971, "lon_deg": 8.5461637, "altitude_rel_ft": 0.4528, "ground_speed_ft_s": 0.0, "vel_north_m_s": 0.0, "vel_east_m_s": 0.0, "vel_down_m_s": -0.06, "battery_remain_pct": null}
{"t_rx_ms": 1772827109083, "run_id": "20260306_115825", "seq": 3, "pitch_deg": -0.0654, "yaw_deg": 91.8519, "roll_deg": -0.1944, "lat_deg": 47.397971, "lon_deg": 8.5461638, "altitude_rel_ft": 0.4462, "ground_speed_ft_s": 0.0, "vel_north_m_s": 0.0, "vel_east_m_s": 0.0, "vel_down_m_s": -0.05, "battery_remain_pct": null}
{"t_rx_ms": 1772827109283, "run_id": "20260306_115825", "seq": 4, "pitch_deg": -0.0668, "yaw_deg": 91.8516, "roll_deg": -0.196, "lat_deg": 47.397971, "lon_deg": 8.5461638, "altitude_rel_ft": 0.4396, "ground_speed_ft_s": 0.0, "vel_north_m_s": 0.0, "vel_east_m_s": 0.0, "vel_down_m_s": -0.05, "battery_remain_pct": null}
{"t_rx_ms": 1772827109484, "run_id": "20260306_115825", "seq": 5, "pitch_deg": -0.0629, "yaw_deg": 91.8516, "roll_deg": -0.1981, "lat_deg": 47.397971, "lon_deg": 8.5461638, "altitude_rel_ft": 0.4331, "ground_speed_ft_s": 0.0, "vel_north_m_s": 0.0, "vel_east_m_s": 0.0, "vel_down_m_s": -0.05, "battery_remain_pct": null}
{"t_rx_ms": 1772827109686, "run_id": "20260306_115825", "seq": 6, "pitch_deg": -0.0611, "yaw_deg": 91.8517, "roll_deg": -0.2005, "lat_deg": 47.3979711, "lon_deg": 8.5461638, "altitude_rel_ft": 0.4298, "ground_speed_ft_s": 0.0, "vel_north_m_s": 0.0, "vel_east_m_s": 0.0, "vel_down_m_s": -0.05, "battery_remain_pct": null}
{"t_rx_ms": 1772827109886, "run_id": "20260306_115825", "seq": 7, "pitch_deg": -0.0578, "yaw_deg": 91.8536, "roll_deg": -0.2002, "lat_deg": 47.3979711, "lon_deg": 8.5461638, "altitude_rel_ft": 0.4232, "ground_speed_ft_s": 0.0, "vel_north_m_s": 0.0, "vel_east_m_s": 0.0, "vel_down_m_s": -0.05, "battery_remain_pct": null}
{"t_rx_ms": 1772827110087, "run_id": "20260306_115825", "seq": 8, "pitch_deg": -0.0538, "yaw_deg": 91.8563, "roll_deg": -0.1989, "lat_deg": 47.3979711, "lon_deg": 8.5461637, "altitude_rel_ft": 0.4232, "ground_speed_ft_s": 0.0328, "vel_north_m_s": 0.01, "vel_east_m_s": 0.0, "vel_down_m_s": -0.05, "battery_remain_pct": null}
{"t_rx_ms": 1772827110288, "run_id": "20260306_115825", "seq": 9, "pitch_deg": -0.0502, "yaw_deg": 91.861, "roll_deg": -0.1947, "lat_deg": 47.3979711, "lon_deg": 8.5461637, "altitude_rel_ft": 0.4232, "ground_speed_ft_s": 0.0328, "vel_north_m_s": 0.01, "vel_east_m_s": 0.0, "vel_down_m_s": -0.05, "battery_remain_pct": null}
{"t_rx_ms": 1772827110488, "run_id": "20260306_115825", "seq": 10, "pitch_deg": -0.0486, "yaw_deg": 91.867, "roll_deg": -0.1904, "lat_deg": 47.3979711, "lon_deg": 8.5461636, "altitude_rel_ft": 0.4265, "ground_speed_ft_s": 0.0328, "vel_north_m_s": 0.01, "vel_east_m_s": 0.0, "vel_down_m_s": -0.05, "battery_remain_pct": null}
{"t_rx_ms": 1772827110689, "run_id": "20260306_115825", "seq": 11, "pitch_deg": -0.0446, "yaw_deg": 91.8713, "roll_deg": -0.1865, "lat_deg": 47.3979711, "lon_deg": 8.5461636, "altitude_rel_ft": 0.4298, "ground_speed_ft_s": 0.0328, "vel_north_m_s": 0.01, "vel_east_m_s": 0.0, "vel_down_m_s": -0.05, "battery_remain_pct": 10000.0}
{"t_rx_ms": 1772827110889, "run_id": "20260306_115825", "seq": 12, "pitch_deg": -0.0408, "yaw_deg": 91.8735, "roll_deg": -0.1836, "lat_deg": 47.3979711, "lon_deg": 8.5461635, "altitude_rel_ft": 0.4298, "ground_speed_ft_s": 0.0328, "vel_north_m_s": 0.01, "vel_east_m_s": 0.0, "vel_down_m_s": -0.05, "battery_remain_pct": 10000.0}
{"t_rx_ms": 1772827111091, "run_id": "20260306_115825", "seq": 13, "pitch_deg": -0.0361, "yaw_deg": 91.8699, "roll_deg": -0.1852, "lat_deg": 47.3979711, "lon_deg": 8.5461635, "altitude_rel_ft": 0.4331, "ground_speed_ft_s": 0.0328, "vel_north_m_s": 0.01, "vel_east_m_s": 0.0, "vel_down_m_s": -0.05, "battery_remain_pct": 10000.0}
{"t_rx_ms": 1772827111292, "run_id": "20260306_115825", "seq": 14, "pitch_deg": -0.0312, "yaw_deg": 91.8625, "roll_deg": -0.1888, "lat_deg": 47.3979711, "lon_deg": 8.5461634, "altitude_rel_ft": 0.4298, "ground_speed_ft_s": 0.0328, "vel_north_m_s": 0.01, "vel_east_m_s": 0.0, "vel_down_m_s": -0.05, "battery_remain_pct": 10000.0}
{"t_rx_ms": 1772827111493, "run_id": "20260306_115825", "seq": 15, "pitch_deg": -0.0283, "yaw_deg": 91.8637, "roll_deg": -0.1863, "lat_deg": 47.3979712, "lon_deg": 8.5461634, "altitude_rel_ft": 0.4298, "ground_speed_ft_s": 0.0328, "vel_north_m_s": 0.01, "vel_east_m_s": 0.0, "vel_down_m_s": -0.05, "battery_remain_pct": 10000.0}
{"t_rx_ms": 1772827111693, "run_id": "20260306_115825", "seq": 16, "pitch_deg": -0.026, "yaw_deg": 91.8714, "roll_deg": -0.1788, "lat_deg": 47.3979711, "lon_deg": 8.5461633, "altitude_rel_ft": 0.4265, "ground_speed_ft_s": 0.0464, "vel_north_m_s": 0.01, "vel_east_m_s": -0.01, "vel_down_m_s": -0.05, "battery_remain_pct": 10000.0}
{"t_rx_ms": 1772827111894, "run_id": "20260306_115825", "seq": 17, "pitch_deg": -0.027, "yaw_deg": 91.8818, "roll_deg": -0.1711, "lat_deg": 47.3979711, "lon_deg": 8.5461633, "altitude_rel_ft": 0.4265, "ground_speed_ft_s": 0.0464, "vel_north_m_s": 0.01, "vel_east_m_s": -0.01, "vel_down_m_s": -0.05, "battery_remain_pct": 10000.0}
{"t_rx_ms": 1772827112095, "run_id": "20260306_115825", "seq": 18, "pitch_deg": -0.032, "yaw_deg": 91.8938, "roll_deg": -0.1655, "lat_deg": 47.3979711, "lon_deg": 8.5461633, "altitude_rel_ft": 0.4232, "ground_speed_ft_s": 0.0, "vel_north_m_s": 0.0, "vel_east_m_s": 0.0, "vel_down_m_s": -0.05, "battery_remain_pct": 10000.0}
{"t_rx_ms": 1772827112295, "run_id": "20260306_115825", "seq": 19, "pitch_deg": -0.038, "yaw_deg": 91.9033, "roll_deg": -0.1633, "lat_deg": 47.3979711, "lon_deg": 8.5461634, "altitude_rel_ft": 0.4232, "ground_speed_ft_s": 0.0, "vel_north_m_s": 0.0, "vel_east_m_s": 0.0, "vel_down_m_s": -0.04, "battery_remain_pct": 10000.0}
{"t_rx_ms": 1772827112497, "run_id": "20260306_115825", "seq": 20, "pitch_deg": -0.0425, "yaw_deg": 91.9093, "roll_deg": -0.1615, "lat_deg": 47.3979711, "lon_deg": 8.5461635, "altitude_rel_ft": 0.4199, "ground_speed_ft_s": 0.0, "vel_north_m_s": 0.0, "vel_east_m_s": 0.0, "vel_down_m_s": -0.04, "battery_remain_pct": 10000.0}
{"t_rx_ms": 1772827112698, "run_id": "20260306_115825", "seq": 21, "pitch_deg": -0.0416, "yaw_deg": 91.9099, "roll_deg": -0.161, "lat_deg": 47.397971, "lon_deg": 8.5461635, "altitude_rel_ft": 0.4134, "ground_speed_ft_s": 0.0, "vel_north_m_s": 0.0, "vel_east_m_s": 0.0, "vel_down_m_s": -0.04, "battery_remain_pct": 10000.0}
{"t_rx_ms": 1772827112899, "run_id": "20260306_115825", "seq": 22, "pitch_deg": -0.0379, "yaw_deg": 91.9087, "roll_deg": -0.1609, "lat_deg": 47.397971, "lon_deg": 8.5461635, "altitude_rel_ft": 0.4101, "ground_speed_ft_s": 0.0, "vel_north_m_s": 0.0, "vel_east_m_s": 0.0, "vel_down_m_s": -0.04, "battery_remain_pct": 10000.0}
{"t_rx_ms": 1772827113100, "run_id": "20260306_115825", "seq": 23, "pitch_deg": -0.0353, "yaw_deg": 91.9095, "roll_deg": -0.1594, "lat_deg": 47.397971, "lon_deg": 8.5461635, "altitude_rel_ft": 0.4035, "ground_speed_ft_s": 0.0, "vel_north_m_s": 0.0, "vel_east_m_s": 0.0, "vel_down_m_s": -0.03, "battery_remain_pct": 10000.0}
{"t_rx_ms": 1772827113302, "run_id": "20260306_115825", "seq": 24, "pitch_deg": -0.037, "yaw_deg": 91.912, "roll_deg": -0.1609, "lat_deg": 47.397971, "lon_deg": 8.5461635, "altitude_rel_ft": 0.397, "ground_speed_ft_s": 0.0, "vel_north_m_s": 0.0, "vel_east_m_s": 0.0, "vel_down_m_s": -0.03, "battery_remain_pct": 10000.0}
{"t_rx_ms": 1772827113503, "run_id": "20260306_115825", "seq": 25, "pitch_deg": -0.0429, "yaw_deg": 91.9126, "roll_deg": -0.1641, "lat_deg": 47.397971, "lon_deg": 8.5461635, "altitude_rel_ft": 0.3904, "ground_speed_ft_s": 0.0, "vel_north_m_s": 0.0, "vel_east_m_s": 0.0, "vel_down_m_s": -0.03, "battery_remain_pct": 10000.0}
{"t_rx_ms": 1772827113703, "run_id": "20260306_115825", "seq": 26, "pitch_deg": -0.0514, "yaw_deg": 91.9153, "roll_deg": -0.1658, "lat_deg": 47.397971, "lon_deg": 8.5461636, "altitude_rel_ft": 0.3871, "ground_speed_ft_s": 0.0, "vel_north_m_s": 0.0, "vel_east_m_s": 0.0, "vel_down_m_s": -0.03, "battery_remain_pct": 10000.0}
{"t_rx_ms": 1772827113905, "run_id": "20260306_115825", "seq": 27, "pitch_deg": -0.055, "yaw_deg": 91.9178, "roll_deg": -0.1635, "lat_deg": 47.397971, "lon_deg": 8.5461637, "altitude_rel_ft": 0.3806, "ground_speed_ft_s": 0.0, "vel_north_m_s": 0.0, "vel_east_m_s": 0.0, "vel_down_m_s": -0.02, "battery_remain_pct": 10000.0}
{"t_rx_ms": 1772827114104, "run_id": "20260306_115825", "seq": 28, "pitch_deg": -0.0556, "yaw_deg": 91.9202, "roll_deg": -0.1588, "lat_deg": 47.397971, "lon_deg": 8.5461637, "altitude_rel_ft": 0.374, "ground_speed_ft_s": 0.0, "vel_north_m_s": 0.0, "vel_east_m_s": 0.0, "vel_down_m_s": -0.02, "battery_remain_pct": 10000.0}
{"t_rx_ms": 1772827114305, "run_id": "20260306_115825", "seq": 29, "pitch_deg": -0.0537, "yaw_deg": 91.9226, "roll_deg": -0.153, "lat_deg": 47.397971, "lon_deg": 8.5461637, "altitude_rel_ft": 0.374, "ground_speed_ft_s": 0.0, "vel_north_m_s": 0.0, "vel_east_m_s": 0.0, "vel_down_m_s": -0.02, "battery_remain_pct": 10000.0}
{"t_rx_ms": 1772827114506, "run_id": "20260306_115825", "seq": 30, "pitch_deg": -0.0548, "yaw_deg": 91.9266, "roll_deg": -0.1444, "lat_deg": 47.3979709, "lon_deg": 8.5461638, "altitude_rel_ft": 0.3707, "ground_speed_ft_s": 0.0, "vel_north_m_s": 0.0, "vel_east_m_s": 0.0, "vel_down_m_s": -0.02, "battery_remain_pct": 10000.0}
{"t_rx_ms": 1772827114707, "run_id": "20260306_115825", "seq": 31, "pitch_deg": -0.0581, "yaw_deg": 91.9295, "roll_deg": -0.1379, "lat_deg": 47.3979709, "lon_deg": 8.5461638, "altitude_rel_ft": 0.3707, "ground_speed_ft_s": 0.0328, "vel_north_m_s": 0.0, "vel_east_m_s": 0.01, "vel_down_m_s": -0.02, "battery_remain_pct": 10000.0}
{"t_rx_ms": 1772827114908, "run_id": "20260306_115825", "seq": 32, "pitch_deg": -0.0589, "yaw_deg": 91.9309, "roll_deg": -0.1372, "lat_deg": 47.3979709, "lon_deg": 8.5461638, "altitude_rel_ft": 0.3675, "ground_speed_ft_s": 0.0328, "vel_north_m_s": 0.0, "vel_east_m_s": 0.01, "vel_down_m_s": -0.02, "battery_remain_pct": 10000.0}
{"t_rx_ms": 1772827115109, "run_id": "20260306_115825", "seq": 33, "pitch_deg": -0.0601, "yaw_deg": 91.9302, "roll_deg": -0.1407, "lat_deg": 47.3979709, "lon_deg": 8.5461639, "altitude_rel_ft": 0.3675, "ground_speed_ft_s": 0.0328, "vel_north_m_s": 0.0, "vel_east_m_s": 0.01, "vel_down_m_s": -0.02, "battery_remain_pct": 10000.0}
{"t_rx_ms": 1772827115309, "run_id": "20260306_115825", "seq": 34, "pitch_deg": -0.0616, "yaw_deg": 91.9298, "roll_deg": -0.1447, "lat_deg": 47.3979709, "lon_deg": 8.5461639, "altitude_rel_ft": 0.3675, "ground_speed_ft_s": 0.0328, "vel_north_m_s": 0.0, "vel_east_m_s": 0.01, "vel_down_m_s": -0.02, "battery_remain_pct": 10000.0}
{"t_rx_ms": 1772827115510, "run_id": "20260306_115825", "seq": 35, "pitch_deg": -0.0629, "yaw_deg": 91.9302, "roll_deg": -0.1454, "lat_deg": 47.3979709, "lon_deg": 8.546164, "altitude_rel_ft": 0.3675, "ground_speed_ft_s": 0.0656, "vel_north_m_s": 0.0, "vel_east_m_s": 0.02, "vel_down_m_s": -0.02, "battery_remain_pct": 10000.0}
{"t_rx_ms": 1772827115711, "run_id": "20260306_115825", "seq": 36, "pitch_deg": -0.0617, "yaw_deg": 91.9319, "roll_deg": -0.1431, "lat_deg": 47.3979709, "lon_deg": 8.546164, "altitude_rel_ft": 0.3642, "ground_speed_ft_s": 0.0656, "vel_north_m_s": 0.0, "vel_east_m_s": 0.02, "vel_down_m_s": -0.02, "battery_remain_pct": 10000.0}
{"t_rx_ms": 1772827115912, "run_id": "20260306_115825", "seq": 37, "pitch_deg": -0.0614, "yaw_deg": 91.9313, "roll_deg": -0.1437, "lat_deg": 47.3979709, "lon_deg": 8.546164, "altitude_rel_ft": 0.3642, "ground_speed_ft_s": 0.0656, "vel_north_m_s": 0.0, "vel_east_m_s": 0.02, "vel_down_m_s": -0.02, "battery_remain_pct": 10000.0}
{"t_rx_ms": 1772827116113, "run_id": "20260306_115825", "seq": 38, "pitch_deg": -0.064, "yaw_deg": 91.9274, "roll_deg": -0.1473, "lat_deg": 47.3979709, "lon_deg": 8.5461641, "altitude_rel_ft": 0.3609, "ground_speed_ft_s": 0.0656, "vel_north_m_s": 0.0, "vel_east_m_s": 0.02, "vel_down_m_s": -0.01, "battery_remain_pct": 10000.0}
{"t_rx_ms": 1772827116314, "run_id": "20260306_115825", "seq": 39, "pitch_deg": -0.066, "yaw_deg": 91.9249, "roll_deg": -0.1485, "lat_deg": 47.397971, "lon_deg": 8.5461641, "altitude_rel_ft": 0.3576, "ground_speed_ft_s": 0.0984, "vel_north_m_s": 0.0, "vel_east_m_s": 0.03, "vel_down_m_s": -0.01, "battery_remain_pct": 10000.0}
{"t_rx_ms": 1772827116514, "run_id": "20260306_115825", "seq": 40, "pitch_deg": -0.0652, "yaw_deg": 91.9272, "roll_deg": -0.1463, "lat_deg": 47.397971, "lon_deg": 8.5461642, "altitude_rel_ft": 0.3576, "ground_speed_ft_s": 0.0984, "vel_north_m_s": 0.0, "vel_east_m_s": 0.03, "vel_down_m_s": -0.01, "battery_remain_pct": 10000.0}
{"t_rx_ms": 1772827116715, "run_id": "20260306_115825", "seq": 41, "pitch_deg": -0.0621, "yaw_deg": 91.9284, "roll_deg": -0.1453, "lat_deg": 47.397971, "lon_deg": 8.5461642, "altitude_rel_ft": 0.3576, "ground_speed_ft_s": 0.1037, "vel_north_m_s": -0.01, "vel_east_m_s": 0.03, "vel_down_m_s": -0.01, "battery_remain_pct": 10000.0}
{"t_rx_ms": 1772827116916, "run_id": "20260306_115825", "seq": 42, "pitch_deg": -0.0554, "yaw_deg": 91.9315, "roll_deg": -0.146, "lat_deg": 47.397971, "lon_deg": 8.5461642, "altitude_rel_ft": 0.3576, "ground_speed_ft_s": 0.1037, "vel_north_m_s": -0.01, "vel_east_m_s": 0.03, "vel_down_m_s": -0.01, "battery_remain_pct": 10000.0}
{"t_rx_ms": 1772827117117, "run_id": "20260306_115825", "seq": 43, "pitch_deg": -0.0496, "yaw_deg": 91.9324, "roll_deg": -0.1481, "lat_deg": 47.397971, "lon_deg": 8.5461642, "altitude_rel_ft": 0.3576, "ground_speed_ft_s": 0.1037, "vel_north_m_s": -0.01, "vel_east_m_s": 0.03, "vel_down_m_s": -0.02, "battery_remain_pct": 10000.0}
{"t_rx_ms": 1772827117318, "run_id": "20260306_115825", "seq": 44, "pitch_deg": -0.044, "yaw_deg": 91.9337, "roll_deg": -0.1499, "lat_deg": 47.397971, "lon_deg": 8.5461642, "altitude_rel_ft": 0.3576, "ground_speed_ft_s": 0.1037, "vel_north_m_s": -0.01, "vel_east_m_s": 0.03, "vel_down_m_s": -0.01, "battery_remain_pct": 10000.0}
{"t_rx_ms": 1772827117520, "run_id": "20260306_115825", "seq": 45, "pitch_deg": -0.038, "yaw_deg": 91.9359, "roll_deg": -0.1509, "lat_deg": 47.397971, "lon_deg": 8.5461642, "altitude_rel_ft": 0.3576, "ground_speed_ft_s": 0.1037, "vel_north_m_s": -0.01, "vel_east_m_s": 0.03, "vel_down_m_s": -0.01, "battery_remain_pct": 10000.0}
{"t_rx_ms": 1772827117720, "run_id": "20260306_115825", "seq": 46, "pitch_deg": -0.0346, "yaw_deg": 91.9361, "roll_deg": -0.1522, "lat_deg": 47.397971, "lon_deg": 8.5461642, "altitude_rel_ft": 0.3609, "ground_speed_ft_s": 0.1037, "vel_north_m_s": -0.01, "vel_east_m_s": 0.03, "vel_down_m_s": -0.02, "battery_remain_pct": 10000.0}
{"t_rx_ms": 1772827117922, "run_id": "20260306_115825", "seq": 47, "pitch_deg": -0.0316, "yaw_deg": 91.937, "roll_deg": -0.1527, "lat_deg": 47.397971, "lon_deg": 8.5461642, "altitude_rel_ft": 0.3609, "ground_speed_ft_s": 0.1037, "vel_north_m_s": -0.01, "vel_east_m_s": 0.03, "vel_down_m_s": -0.02, "battery_remain_pct": 10000.0}
{"t_rx_ms": 1772827118123, "run_id": "20260306_115825", "seq": 48, "pitch_deg": -0.0271, "yaw_deg": 91.9405, "roll_deg": -0.1509, "lat_deg": 47.397971, "lon_deg": 8.5461642, "altitude_rel_ft": 0.3642, "ground_speed_ft_s": 0.0734, "vel_north_m_s": -0.01, "vel_east_m_s": 0.02, "vel_down_m_s": -0.02, "battery_remain_pct": 10000.0}
{"t_rx_ms": 1772827118323, "run_id": "20260306_115825", "seq": 49, "pitch_deg": -0.0198, "yaw_deg": 91.9443, "roll_deg": -0.1498, "lat_deg": 47.3979709, "lon_deg": 8.5461642, "altitude_rel_ft": 0.3642, "ground_speed_ft_s": 0.0734, "vel_north_m_s": -0.01, "vel_east_m_s": 0.02, "vel_down_m_s": -0.02, "battery_remain_pct": 10000.0}
{"t_rx_ms": 1772827118524, "run_id": "20260306_115825", "seq": 50, "pitch_deg": -0.0155, "yaw_deg": 91.9447, "roll_deg": -0.1527, "lat_deg": 47.3979709, "lon_deg": 8.5461642, "altitude_rel_ft": 0.3642, "ground_speed_ft_s": 0.0734, "vel_north_m_s": -0.01, "vel_east_m_s": 0.02, "vel_down_m_s": -0.02, "battery_remain_pct": 10000.0}
{"t_rx_ms": 1772827118726, "run_id": "20260306_115825", "seq": 51, "pitch_deg": -0.0056, "yaw_deg": 91.9458, "roll_deg": -0.1596, "lat_deg": 47.3979709, "lon_deg": 8.5461641, "altitude_rel_ft": 0.3642, "ground_speed_ft_s": 0.0464, "vel_north_m_s": -0.01, "vel_east_m_s": 0.01, "vel_down_m_s": -0.02, "battery_remain_pct": 10000.0}
{"t_rx_ms": 1772827118927, "run_id": "20260306_115825", "seq": 52, "pitch_deg": 0.0081, "yaw_deg": 91.95, "roll_deg": -0.1618, "lat_deg": 47.3979709, "lon_deg": 8.546164, "altitude_rel_ft": 0.3675, "ground_speed_ft_s": 0.0464, "vel_north_m_s": -0.01, "vel_east_m_s": 0.01, "vel_down_m_s": -0.02, "battery_remain_pct": 10000.0}
{"t_rx_ms": 1772827119129, "run_id": "20260306_115825", "seq": 53, "pitch_deg": 0.0192, "yaw_deg": 91.9537, "roll_deg": -0.1622, "lat_deg": 47.3979709, "lon_deg": 8.5461639, "altitude_rel_ft": 0.3675, "ground_speed_ft_s": 0.0328, "vel_north_m_s": -0.01, "vel_east_m_s": 0.0, "vel_down_m_s": -0.02, "battery_remain_pct": 10000.0}
{"t_rx_ms": 1772827119330, "run_id": "20260306_115825", "seq": 54, "pitch_deg": 0.026, "yaw_deg": 91.9561, "roll_deg": -0.1644, "lat_deg": 47.3979709, "lon_deg": 8.5461638, "altitude_rel_ft": 0.3675, "ground_speed_ft_s": 0.0328, "vel_north_m_s": -0.01, "vel_east_m_s": 0.0, "vel_down_m_s": -0.02, "battery_remain_pct": 10000.0}
{"t_rx_ms": 1772827119531, "run_id": "20260306_115825", "seq": 55, "pitch_deg": 0.0287, "yaw_deg": 91.958, "roll_deg": -0.1678, "lat_deg": 47.3979709, "lon_deg": 8.5461638, "altitude_rel_ft": 0.3642, "ground_speed_ft_s": 0.0328, "vel_north_m_s": -0.01, "vel_east_m_s": 0.0, "vel_down_m_s": -0.02, "battery_remain_pct": 10000.0}
{"t_rx_ms": 1772827119732, "run_id": "20260306_115825", "seq": 56, "pitch_deg": 0.0321, "yaw_deg": 91.9611, "roll_deg": -0.1725, "lat_deg": 47.3979709, "lon_deg": 8.5461637, "altitude_rel_ft": 0.3642, "ground_speed_ft_s": 0.0328, "vel_north_m_s": -0.01, "vel_east_m_s": 0.0, "vel_down_m_s": -0.01, "battery_remain_pct": 10000.0}
{"t_rx_ms": 1772827119933, "run_id": "20260306_115825", "seq": 57, "pitch_deg": 0.0342, "yaw_deg": 91.9646, "roll_deg": -0.1787, "lat_deg": 47.3979709, "lon_deg": 8.5461637, "altitude_rel_ft": 0.3642, "ground_speed_ft_s": 0.0328, "vel_north_m_s": -0.01, "vel_east_m_s": 0.0, "vel_down_m_s": -0.01, "battery_remain_pct": 10000.0}
{"t_rx_ms": 1772827120134, "run_id": "20260306_115825", "seq": 58, "pitch_deg": 0.0345, "yaw_deg": 91.9655, "roll_deg": -0.1851, "lat_deg": 47.3979709, "lon_deg": 8.5461636, "altitude_rel_ft": 0.3609, "ground_speed_ft_s": 0.0, "vel_north_m_s": 0.0, "vel_east_m_s": 0.0, "vel_down_m_s": -0.01, "battery_remain_pct": 10000.0}
{"t_rx_ms": 1772827120335, "run_id": "20260306_115825", "seq": 59, "pitch_deg": 0.0332, "yaw_deg": 91.967, "roll_deg": -0.1893, "lat_deg": 47.3979709, "lon_deg": 8.5461636, "altitude_rel_ft": 0.3609, "ground_speed_ft_s": 0.0, "vel_north_m_s": 0.0, "vel_east_m_s": 0.0, "vel_down_m_s": -0.01, "battery_remain_pct": 10000.0}
{"t_rx_ms": 1772827120537, "run_id": "20260306_115825", "seq": 60, "pitch_deg": 0.0319, "yaw_deg": 91.9666, "roll_deg": -0.1921, "lat_deg": 47.3979709, "lon_deg": 8.5461636, "altitude_rel_ft": 0.3609, "ground_speed_ft_s": 0.0, "vel_north_m_s": 0.0, "vel_east_m_s": 0.0, "vel_down_m_s": -0.01, "battery_remain_pct": 10000.0}
{"t_rx_ms": 1772827120737, "run_id": "20260306_115825", "seq": 61, "pitch_deg": 0.0319, "yaw_deg": 91.967, "roll_deg": -0.1923, "lat_deg": 47.3979709, "lon_deg": 8.5461635, "altitude_rel_ft": 0.3609, "ground_speed_ft_s": 0.0328, "vel_north_m_s": 0.0, "vel_east_m_s": -0.01, "vel_down_m_s": -0.01, "battery_remain_pct": 10000.0}
{"t_rx_ms": 1772827120938, "run_id": "20260306_115825", "seq": 62, "pitch_deg": 0.0345, "yaw_deg": 91.9632, "roll_deg": -0.1891, "lat_deg": 47.397970799999996, "lon_deg": 8.5461635, "altitude_rel_ft": 0.3609, "ground_speed_ft_s": 0.0328, "vel_north_m_s": 0.0, "vel_east_m_s": -0.01, "vel_down_m_s": -0.01, "battery_remain_pct": 10000.0}
{"t_rx_ms": 1772827121139, "run_id": "20260306_115825", "seq": 63, "pitch_deg": 0.0384, "yaw_deg": 91.9599, "roll_deg": -0.1867, "lat_deg": 47.397970799999996, "lon_deg": 8.5461634, "altitude_rel_ft": 0.3609, "ground_speed_ft_s": 0.0328, "vel_north_m_s": 0.0, "vel_east_m_s": -0.01, "vel_down_m_s": -0.01, "battery_remain_pct": 10000.0}
{"t_rx_ms": 1772827121339, "run_id": "20260306_115825", "seq": 64, "pitch_deg": 0.0417, "yaw_deg": 91.9566, "roll_deg": -0.1853, "lat_deg": 47.397970799999996, "lon_deg": 8.5461634, "altitude_rel_ft": 0.3642, "ground_speed_ft_s": 0.0656, "vel_north_m_s": 0.0, "vel_east_m_s": -0.02, "vel_down_m_s": -0.02, "battery_remain_pct": 10000.0}
{"t_rx_ms": 1772827121541, "run_id": "20260306_115825", "seq": 65, "pitch_deg": 0.0428, "yaw_deg": 91.9544, "roll_deg": -0.186, "lat_deg": 47.397970799999996, "lon_deg": 8.5461633, "altitude_rel_ft": 0.3642, "ground_speed_ft_s": 0.0656, "vel_north_m_s": 0.0, "vel_east_m_s": -0.02, "vel_down_m_s": -0.02, "battery_remain_pct": 10000.0}
{"t_rx_ms": 1772827121743, "run_id": "20260306_115825", "seq": 66, "pitch_deg": 0.0393, "yaw_deg": 91.9515, "roll_deg": -0.1844, "lat_deg": 47.397970799999996, "lon_deg": 8.5461633, "altitude_rel_ft": 0.3707, "ground_speed_ft_s": 0.0656, "vel_north_m_s": 0.0, "vel_east_m_s": -0.02, "vel_down_m_s": -0.02, "battery_remain_pct": 10000.0}
{"t_rx_ms": 1772827121943, "run_id": "20260306_115825", "seq": 67, "pitch_deg": 0.0331, "yaw_deg": 91.949, "roll_deg": -0.1815, "lat_deg": 47.397970799999996, "lon_deg": 8.5461633, "altitude_rel_ft": 0.374, "ground_speed_ft_s": 0.0656, "vel_north_m_s": 0.0, "vel_east_m_s": -0.02, "vel_down_m_s": -0.02, "battery_remain_pct": 10000.0}
{"t_rx_ms": 1772827122143, "run_id": "20260306_115825", "seq": 68, "pitch_deg": 0.029, "yaw_deg": 91.9477, "roll_deg": -0.1817, "lat_deg": 47.397970799999996, "lon_deg": 8.5461633, "altitude_rel_ft": 0.3773, "ground_speed_ft_s": 0.0656, "vel_north_m_s": 0.0, "vel_east_m_s": -0.02, "vel_down_m_s": -0.02, "battery_remain_pct": 10000.0}
{"t_rx_ms": 1772827122345, "run_id": "20260306_115825", "seq": 69, "pitch_deg": 0.0274, "yaw_deg": 91.9529, "roll_deg": -0.1862, "lat_deg": 47.397970799999996, "lon_deg": 8.5461633, "altitude_rel_ft": 0.3806, "ground_speed_ft_s": 0.0656, "vel_north_m_s": 0.0, "vel_east_m_s": -0.02, "vel_down_m_s": -0.02, "battery_remain_pct": 10000.0}
{"t_rx_ms": 1772827122546, "run_id": "20260306_115825", "seq": 70, "pitch_deg": 0.0283, "yaw_deg": 91.9606, "roll_deg": -0.1937, "lat_deg": 47.397970799999996, "lon_deg": 8.5461633, "altitude_rel_ft": 0.3806, "ground_speed_ft_s": 0.0656, "vel_north_m_s": 0.0, "vel_east_m_s": -0.02, "vel_down_m_s": -0.02, "battery_remain_pct": 10000.0}
{"t_rx_ms": 1772827122746, "run_id": "20260306_115825", "seq": 71, "pitch_deg": 0.0311, "yaw_deg": 91.9633, "roll_deg": -0.1975, "lat_deg": 47.3979709, "lon_deg": 8.546163199999999, "altitude_rel_ft": 0.3839, "ground_speed_ft_s": 0.0656, "vel_north_m_s": 0.0, "vel_east_m_s": -0.02, "vel_down_m_s": -0.02, "battery_remain_pct": 10000.0}
{"t_rx_ms": 1772827122947, "run_id": "20260306_115825", "seq": 72, "pitch_deg": 0.0316, "yaw_deg": 91.9674, "roll_deg": -0.2026, "lat_deg": 47.3979709, "lon_deg": 8.546163199999999, "altitude_rel_ft": 0.3806, "ground_speed_ft_s": 0.0734, "vel_north_m_s": 0.01, "vel_east_m_s": -0.02, "vel_down_m_s": -0.02, "battery_remain_pct": 10000.0}
{"t_rx_ms": 1772827123147, "run_id": "20260306_115825", "seq": 73, "pitch_deg": 0.0277, "yaw_deg": 91.9792, "roll_deg": -0.2066, "lat_deg": 47.397971, "lon_deg": 8.546163199999999, "altitude_rel_ft": 0.3806, "ground_speed_ft_s": 0.0734, "vel_north_m_s": 0.01, "vel_east_m_s": -0.02, "vel_down_m_s": -0.02, "battery_remain_pct": 10000.0}
{"t_rx_ms": 1772827123348, "run_id": "20260306_115825", "seq": 74, "pitch_deg": 0.0188, "yaw_deg": 91.9959, "roll_deg": -0.2102, "lat_deg": 47.3979711, "lon_deg": 8.5461633, "altitude_rel_ft": 0.3806, "ground_speed_ft_s": 0.0928, "vel_north_m_s": 0.02, "vel_east_m_s": -0.02, "vel_down_m_s": -0.02, "battery_remain_pct": 10000.0}
{"t_rx_ms": 1772827123549, "run_id": "20260306_115825", "seq": 75, "pitch_deg": 0.0101, "yaw_deg": 92.0086, "roll_deg": -0.2115, "lat_deg": 47.3979711, "lon_deg": 8.5461633, "altitude_rel_ft": 0.3773, "ground_speed_ft_s": 0.0928, "vel_north_m_s": 0.02, "vel_east_m_s": -0.02, "vel_down_m_s": -0.02, "battery_remain_pct": 10000.0}
{"t_rx_ms": 1772827123750, "run_id": "20260306_115825", "seq": 76, "pitch_deg": 0.0073, "yaw_deg": 92.0117, "roll_deg": -0.2087, "lat_deg": 47.3979711, "lon_deg": 8.5461634, "altitude_rel_ft": 0.3773, "ground_speed_ft_s": 0.0928, "vel_north_m_s": 0.02, "vel_east_m_s": -0.02, "vel_down_m_s": -0.02, "battery_remain_pct": 10000.0}
{"t_rx_ms": 1772827123951, "run_id": "20260306_115825", "seq": 77, "pitch_deg": 0.0063, "yaw_deg": 92.0017, "roll_deg": -0.1992, "lat_deg": 47.3979711, "lon_deg": 8.5461634, "altitude_rel_ft": 0.3773, "ground_speed_ft_s": 0.0928, "vel_north_m_s": 0.02, "vel_east_m_s": -0.02, "vel_down_m_s": -0.02, "battery_remain_pct": 10000.0}
{"t_rx_ms": 1772827124152, "run_id": "20260306_115825", "seq": 78, "pitch_deg": 0.006, "yaw_deg": 91.9876, "roll_deg": -0.1855, "lat_deg": 47.3979711, "lon_deg": 8.5461634, "altitude_rel_ft": 0.3773, "ground_speed_ft_s": 0.0928, "vel_north_m_s": 0.02, "vel_east_m_s": -0.02, "vel_down_m_s": -0.02, "battery_remain_pct": 10000.0}
{"t_rx_ms": 1772827124352, "run_id": "20260306_115825", "seq": 79, "pitch_deg": 0.0003, "yaw_deg": 91.9837, "roll_deg": -0.1746, "lat_deg": 47.397971, "lon_deg": 8.5461634, "altitude_rel_ft": 0.374, "ground_speed_ft_s": 0.0928, "vel_north_m_s": 0.02, "vel_east_m_s": -0.02, "vel_down_m_s": -0.02, "battery_remain_pct": 10000.0}
{"t_rx_ms": 1772827124552, "run_id": "20260306_115825", "seq": 80, "pitch_deg": -0.0044, "yaw_deg": 91.9854, "roll_deg": -0.1686, "lat_deg": 47.397971, "lon_deg": 8.5461634, "altitude_rel_ft": 0.374, "ground_speed_ft_s": 0.0734, "vel_north_m_s": 0.01, "vel_east_m_s": -0.02, "vel_down_m_s": -0.02, "battery_remain_pct": 10000.0}
{"t_rx_ms": 1772827124753, "run_id": "20260306_115825", "seq": 81, "pitch_deg": -0.0084, "yaw_deg": 91.9918, "roll_deg": -0.1673, "lat_deg": 47.397971, "lon_deg": 8.5461634, "altitude_rel_ft": 0.374, "ground_speed_ft_s": 0.0734, "vel_north_m_s": 0.01, "vel_east_m_s": -0.02, "vel_down_m_s": -0.02, "battery_remain_pct": 10000.0}
{"t_rx_ms": 1772827124954, "run_id": "20260306_115825", "seq": 82, "pitch_deg": -0.0154, "yaw_deg": 92.0085, "roll_deg": -0.1676, "lat_deg": 47.397971, "lon_deg": 8.5461634, "altitude_rel_ft": 0.3707, "ground_speed_ft_s": 0.0928, "vel_north_m_s": 0.02, "vel_east_m_s": -0.02, "vel_down_m_s": -0.02, "battery_remain_pct": 10000.0}
{"t_rx_ms": 1772827125154, "run_id": "20260306_115825", "seq": 83, "pitch_deg": -0.0245, "yaw_deg": 92.023, "roll_deg": -0.1649, "lat_deg": 47.3979711, "lon_deg": 8.5461635, "altitude_rel_ft": 0.3707, "ground_speed_ft_s": 0.0734, "vel_north_m_s": 0.02, "vel_east_m_s": -0.01, "vel_down_m_s": -0.02, "battery_remain_pct": 10000.0}
{"t_rx_ms": 1772827125356, "run_id": "20260306_115825", "seq": 84, "pitch_deg": -0.0303, "yaw_deg": 92.0309, "roll_deg": -0.1593, "lat_deg": 47.3979711, "lon_deg": 8.5461635, "altitude_rel_ft": 0.3707, "ground_speed_ft_s": 0.0734, "vel_north_m_s": 0.02, "vel_east_m_s": -0.01, "vel_down_m_s": -0.02, "battery_remain_pct": 10000.0}
{"t_rx_ms": 1772827125556, "run_id": "20260306_115825", "seq": 85, "pitch_deg": -0.0338, "yaw_deg": 92.0356, "roll_deg": -0.1554, "lat_deg": 47.3979711, "lon_deg": 8.5461636, "altitude_rel_ft": 0.374, "ground_speed_ft_s": 0.0734, "vel_north_m_s": 0.02, "vel_east_m_s": -0.01, "vel_down_m_s": -0.02, "battery_remain_pct": 10000.0}
{"t_rx_ms": 1772827125757, "run_id": "20260306_115825", "seq": 86, "pitch_deg": -0.04, "yaw_deg": 92.0468, "roll_deg": -0.154, "lat_deg": 47.3979712, "lon_deg": 8.5461637, "altitude_rel_ft": 0.374, "ground_speed_ft_s": 0.0656, "vel_north_m_s": 0.02, "vel_east_m_s": 0.0, "vel_down_m_s": -0.02, "battery_remain_pct": 10000.0}
{"t_rx_ms": 1772827125959, "run_id": "20260306_115825", "seq": 87, "pitch_deg": -0.0448, "yaw_deg": 92.0553, "roll_deg": -0.1535, "lat_deg": 47.3979712, "lon_deg": 8.5461637, "altitude_rel_ft": 0.374, "ground_speed_ft_s": 0.0984, "vel_north_m_s": 0.03, "vel_east_m_s": 0.0, "vel_down_m_s": -0.02, "battery_remain_pct": 10000.0}
{"t_rx_ms": 1772827126159, "run_id": "20260306_115825", "seq": 88, "pitch_deg": -0.0469, "yaw_deg": 92.0598, "roll_deg": -0.1526, "lat_deg": 47.3979712, "lon_deg": 8.5461637, "altitude_rel_ft": 0.374, "ground_speed_ft_s": 0.0984, "vel_north_m_s": 0.03, "vel_east_m_s": 0.0, "vel_down_m_s": -0.02, "battery_remain_pct": 10000.0}
{"t_rx_ms": 1772827126360, "run_id": "20260306_115825", "seq": 89, "pitch_deg": -0.0459, "yaw_deg": 92.0576, "roll_deg": -0.1449, "lat_deg": 47.3979712, "lon_deg": 8.5461637, "altitude_rel_ft": 0.3707, "ground_speed_ft_s": 0.0656, "vel_north_m_s": 0.02, "vel_east_m_s": 0.0, "vel_down_m_s": -0.02, "battery_remain_pct": 10000.0}
{"t_rx_ms": 1772827126561, "run_id": "20260306_115825", "seq": 90, "pitch_deg": -0.0476, "yaw_deg": 92.0572, "roll_deg": -0.1326, "lat_deg": 47.3979712, "lon_deg": 8.5461638, "altitude_rel_ft": 0.3675, "ground_speed_ft_s": 0.0656, "vel_north_m_s": 0.02, "vel_east_m_s": 0.0, "vel_down_m_s": -0.01, "battery_remain_pct": 10000.0}
{"t_rx_ms": 1772827126762, "run_id": "20260306_115825", "seq": 91, "pitch_deg": -0.0509, "yaw_deg": 92.0606, "roll_deg": -0.1222, "lat_deg": 47.3979712, "lon_deg": 8.5461638, "altitude_rel_ft": 0.3675, "ground_speed_ft_s": 0.0328, "vel_north_m_s": 0.01, "vel_east_m_s": 0.0, "vel_down_m_s": -0.02, "battery_remain_pct": 10000.0}
{"t_rx_ms": 1772827126962, "run_id": "20260306_115825", "seq": 92, "pitch_deg": -0.0525, "yaw_deg": 92.063, "roll_deg": -0.1148, "lat_deg": 47.3979711, "lon_deg": 8.5461638, "altitude_rel_ft": 0.3642, "ground_speed_ft_s": 0.0328, "vel_north_m_s": 0.01, "vel_east_m_s": 0.0, "vel_down_m_s": -0.02, "battery_remain_pct": 10000.0}
{"t_rx_ms": 1772827127163, "run_id": "20260306_115825", "seq": 93, "pitch_deg": -0.0525, "yaw_deg": 92.0638, "roll_deg": -0.107, "lat_deg": 47.3979711, "lon_deg": 8.5461638, "altitude_rel_ft": 0.3675, "ground_speed_ft_s": 0.0, "vel_north_m_s": 0.0, "vel_east_m_s": 0.0, "vel_down_m_s": -0.02, "battery_remain_pct": 10000.0}
{"t_rx_ms": 1772827127363, "run_id": "20260306_115825", "seq": 94, "pitch_deg": -0.0516, "yaw_deg": 92.0655, "roll_deg": -0.1007, "lat_deg": 47.397971, "lon_deg": 8.5461638, "altitude_rel_ft": 0.3675, "ground_speed_ft_s": 0.0, "vel_north_m_s": 0.0, "vel_east_m_s": 0.0, "vel_down_m_s": -0.02, "battery_remain_pct": 10000.0}
{"t_rx_ms": 1772827127564, "run_id": "20260306_115825", "seq": 95, "pitch_deg": -0.0489, "yaw_deg": 92.0646, "roll_deg": -0.0991, "lat_deg": 47.397971, "lon_deg": 8.5461638, "altitude_rel_ft": 0.3707, "ground_speed_ft_s": 0.0, "vel_north_m_s": 0.0, "vel_east_m_s": 0.0, "vel_down_m_s": -0.02, "battery_remain_pct": 10000.0}
{"t_rx_ms": 1772827127765, "run_id": "20260306_115825", "seq": 96, "pitch_deg": -0.0452, "yaw_deg": 92.0622, "roll_deg": -0.1002, "lat_deg": 47.397971, "lon_deg": 8.5461638, "altitude_rel_ft": 0.374, "ground_speed_ft_s": 0.0, "vel_north_m_s": 0.0, "vel_east_m_s": 0.0, "vel_down_m_s": -0.02, "battery_remain_pct": 10000.0}
{"t_rx_ms": 1772827127965, "run_id": "20260306_115825", "seq": 97, "pitch_deg": -0.0444, "yaw_deg": 92.0608, "roll_deg": -0.101, "lat_deg": 47.397971, "lon_deg": 8.5461637, "altitude_rel_ft": 0.3773, "ground_speed_ft_s": 0.0, "vel_north_m_s": 0.0, "vel_east_m_s": 0.0, "vel_down_m_s": -0.02, "battery_remain_pct": 10000.0}
{"t_rx_ms": 1772827128166, "run_id": "20260306_115825", "seq": 98, "pitch_deg": -0.0453, "yaw_deg": 92.0582, "roll_deg": -0.1018, "lat_deg": 47.397971, "lon_deg": 8.5461637, "altitude_rel_ft": 0.3773, "ground_speed_ft_s": 0.0, "vel_north_m_s": 0.0, "vel_east_m_s": 0.0, "vel_down_m_s": -0.02, "battery_remain_pct": 10000.0}
{"t_rx_ms": 1772827128368, "run_id": "20260306_115825", "seq": 99, "pitch_deg": -0.047, "yaw_deg": 92.0528, "roll_deg": -0.1041, "lat_deg": 47.3979711, "lon_deg": 8.5461637, "altitude_rel_ft": 0.3806, "ground_speed_ft_s": 0.0, "vel_north_m_s": 0.0, "vel_east_m_s": 0.0, "vel_down_m_s": -0.02, "battery_remain_pct": 10000.0}
{"t_rx_ms": 1772827128567, "run_id": "20260306_115825", "seq": 100, "pitch_deg": -0.0501, "yaw_deg": 92.0464, "roll_deg": -0.1064, "lat_deg": 47.3979711, "lon_deg": 8.5461638, "altitude_rel_ft": 0.3839, "ground_speed_ft_s": 0.0, "vel_north_m_s": 0.0, "vel_east_m_s": 0.0, "vel_down_m_s": -0.02, "battery_remain_pct": 10000.0}
{"t_rx_ms": 1772827128769, "run_id": "20260306_115825", "seq": 101, "pitch_deg": -0.0539, "yaw_deg": 92.0396, "roll_deg": -0.1088, "lat_deg": 47.3979711, "lon_deg": 8.5461638, "altitude_rel_ft": 0.3839, "ground_speed_ft_s": 0.0328, "vel_north_m_s": 0.01, "vel_east_m_s": 0.0, "vel_down_m_s": -0.02, "battery_remain_pct": 10000.0}
{"t_rx_ms": 1772827128969, "run_id": "20260306_115825", "seq": 102, "pitch_deg": -0.0565, "yaw_deg": 92.035, "roll_deg": -0.1085, "lat_deg": 47.3979712, "lon_deg": 8.5461638, "altitude_rel_ft": 0.3839, "ground_speed_ft_s": 0.0328, "vel_north_m_s": 0.01, "vel_east_m_s": 0.0, "vel_down_m_s": -0.02, "battery_remain_pct": 10000.0}
{"t_rx_ms": 1772827129170, "run_id": "20260306_115825", "seq": 103, "pitch_deg": -0.0529, "yaw_deg": 92.0338, "roll_deg": -0.1063, "lat_deg": 47.3979712, "lon_deg": 8.5461638, "altitude_rel_ft": 0.3806, "ground_speed_ft_s": 0.0328, "vel_north_m_s": 0.01, "vel_east_m_s": 0.0, "vel_down_m_s": -0.02, "battery_remain_pct": 10000.0}
{"t_rx_ms": 1772827129371, "run_id": "20260306_115825", "seq": 104, "pitch_deg": -0.0444, "yaw_deg": 92.034, "roll_deg": -0.1051, "lat_deg": 47.3979712, "lon_deg": 8.5461638, "altitude_rel_ft": 0.3773, "ground_speed_ft_s": 0.0328, "vel_north_m_s": 0.01, "vel_east_m_s": 0.0, "vel_down_m_s": -0.02, "battery_remain_pct": 10000.0}
{"t_rx_ms": 1772827129572, "run_id": "20260306_115825", "seq": 105, "pitch_deg": -0.0332, "yaw_deg": 92.0323, "roll_deg": -0.1074, "lat_deg": 47.3979712, "lon_deg": 8.5461637, "altitude_rel_ft": 0.374, "ground_speed_ft_s": 0.0328, "vel_north_m_s": 0.01, "vel_east_m_s": 0.0, "vel_down_m_s": -0.02, "battery_remain_pct": 10000.0}
{"t_rx_ms": 1772827129772, "run_id": "20260306_115825", "seq": 106, "pitch_deg": -0.0258, "yaw_deg": 92.0295, "roll_deg": -0.1099, "lat_deg": 47.397971299999995, "lon_deg": 8.5461636, "altitude_rel_ft": 0.374, "ground_speed_ft_s": 0.0656, "vel_north_m_s": 0.02, "vel_east_m_s": 0.0, "vel_down_m_s": -0.02, "battery_remain_pct": 10000.0}
{"t_rx_ms": 1772827129973, "run_id": "20260306_115825", "seq": 107, "pitch_deg": -0.0224, "yaw_deg": 92.0285, "roll_deg": -0.1077, "lat_deg": 47.397971299999995, "lon_deg": 8.5461636, "altitude_rel_ft": 0.3707, "ground_speed_ft_s": 0.0734, "vel_north_m_s": 0.02, "vel_east_m_s": -0.01, "vel_down_m_s": -0.02, "battery_remain_pct": 10000.0}
{"t_rx_ms": 1772827130176, "run_id": "20260306_115825", "seq": 108, "pitch_deg": -0.0231, "yaw_deg": 92.0283, "roll_deg": -0.103, "lat_deg": 47.397971299999995, "lon_deg": 8.5461636, "altitude_rel_ft": 0.3675, "ground_speed_ft_s": 0.0464, "vel_north_m_s": 0.01, "vel_east_m_s": -0.01, "vel_down_m_s": -0.02, "battery_remain_pct": 10000.0}
{"t_rx_ms": 1772827130376, "run_id": "20260306_115825", "seq": 109, "pitch_deg": -0.0238, "yaw_deg": 92.028, "roll_deg": -0.0948, "lat_deg": 47.397971299999995, "lon_deg": 8.5461635, "altitude_rel_ft": 0.3675, "ground_speed_ft_s": 0.0464, "vel_north_m_s": 0.01, "vel_east_m_s": -0.01, "vel_down_m_s": -0.01, "battery_remain_pct": 10000.0}
{"t_rx_ms": 1772827130577, "run_id": "20260306_115825", "seq": 110, "pitch_deg": -0.0247, "yaw_deg": 92.0269, "roll_deg": -0.0877, "lat_deg": 47.397971299999995, "lon_deg": 8.5461635, "altitude_rel_ft": 0.3642, "ground_speed_ft_s": 0.0328, "vel_north_m_s": 0.0, "vel_east_m_s": -0.01, "vel_down_m_s": -0.01, "battery_remain_pct": 10000.0}
{"t_rx_ms": 1772827130778, "run_id": "20260306_115825", "seq": 111, "pitch_deg": -0.0274, "yaw_deg": 92.0242, "roll_deg": -0.0832, "lat_deg": 47.397971299999995, "lon_deg": 8.5461635, "altitude_rel_ft": 0.3642, "ground_speed_ft_s": 0.0328, "vel_north_m_s": 0.0, "vel_east_m_s": -0.01, "vel_down_m_s": -0.02, "battery_remain_pct": 10000.0}
{"t_rx_ms": 1772827130978, "run_id": "20260306_115825", "seq": 112, "pitch_deg": -0.0316, "yaw_deg": 92.0195, "roll_deg": -0.081, "lat_deg": 47.397971299999995, "lon_deg": 8.5461636, "altitude_rel_ft": 0.3642, "ground_speed_ft_s": 0.0328, "vel_north_m_s": 0.0, "vel_east_m_s": -0.01, "vel_down_m_s": -0.02, "battery_remain_pct": 10000.0}
{"t_rx_ms": 1772827131179, "run_id": "20260306_115825", "seq": 113, "pitch_deg": -0.0345, "yaw_deg": 92.0157, "roll_deg": -0.0781, "lat_deg": 47.397971299999995, "lon_deg": 8.5461636, "altitude_rel_ft": 0.3675, "ground_speed_ft_s": 0.0328, "vel_north_m_s": 0.0, "vel_east_m_s": -0.01, "vel_down_m_s": -0.02, "battery_remain_pct": 10000.0}
{"t_rx_ms": 1772827131381, "run_id": "20260306_115825", "seq": 114, "pitch_deg": -0.0366, "yaw_deg": 92.0118, "roll_deg": -0.0769, "lat_deg": 47.397971299999995, "lon_deg": 8.5461636, "altitude_rel_ft": 0.3675, "ground_speed_ft_s": 0.0328, "vel_north_m_s": 0.0, "vel_east_m_s": -0.01, "vel_down_m_s": -0.02, "battery_remain_pct": 10000.0}
{"t_rx_ms": 1772827131581, "run_id": "20260306_115825", "seq": 115, "pitch_deg": -0.0404, "yaw_deg": 92.0075, "roll_deg": -0.0775, "lat_deg": 47.3979712, "lon_deg": 8.5461636, "altitude_rel_ft": 0.3707, "ground_speed_ft_s": 0.0328, "vel_north_m_s": 0.0, "vel_east_m_s": -0.01, "vel_down_m_s": -0.02, "battery_remain_pct": 10000.0}
{"t_rx_ms": 1772827131782, "run_id": "20260306_115825", "seq": 116, "pitch_deg": -0.0444, "yaw_deg": 92.0029, "roll_deg": -0.0797, "lat_deg": 47.3979712, "lon_deg": 8.5461637, "altitude_rel_ft": 0.3707, "ground_speed_ft_s": 0.0328, "vel_north_m_s": 0.0, "vel_east_m_s": -0.01, "vel_down_m_s": -0.02, "battery_remain_pct": 10000.0}
{"t_rx_ms": 1772827131983, "run_id": "20260306_115825", "seq": 117, "pitch_deg": -0.0489, "yaw_deg": 91.9986, "roll_deg": -0.0806, "lat_deg": 47.3979712, "lon_deg": 8.5461637, "altitude_rel_ft": 0.3707, "ground_speed_ft_s": 0.0328, "vel_north_m_s": 0.0, "vel_east_m_s": -0.01, "vel_down_m_s": -0.02, "battery_remain_pct": 10000.0}
{"t_rx_ms": 1772827132183, "run_id": "20260306_115825", "seq": 118, "pitch_deg": -0.0525, "yaw_deg": 91.9954, "roll_deg": -0.0841, "lat_deg": 47.3979712, "lon_deg": 8.5461638, "altitude_rel_ft": 0.3707, "ground_speed_ft_s": 0.0, "vel_north_m_s": 0.0, "vel_east_m_s": 0.0, "vel_down_m_s": -0.02, "battery_remain_pct": 10000.0}
{"t_rx_ms": 1772827132384, "run_id": "20260306_115825", "seq": 119, "pitch_deg": -0.0593, "yaw_deg": 91.9879, "roll_deg": -0.0858, "lat_deg": 47.3979712, "lon_deg": 8.5461638, "altitude_rel_ft": 0.3707, "ground_speed_ft_s": 0.0, "vel_north_m_s": 0.0, "vel_east_m_s": 0.0, "vel_down_m_s": -0.02, "battery_remain_pct": 10000.0}
{"t_rx_ms": 1772827132585, "run_id": "20260306_115825", "seq": 120, "pitch_deg": -0.0624, "yaw_deg": 91.9842, "roll_deg": -0.0836, "lat_deg": 47.3979712, "lon_deg": 8.5461639, "altitude_rel_ft": 0.3707, "ground_speed_ft_s": 0.0, "vel_north_m_s": 0.0, "vel_east_m_s": 0.0, "vel_down_m_s": -0.02, "battery_remain_pct": 10000.0}
{"t_rx_ms": 1772827132785, "run_id": "20260306_115825", "seq": 121, "pitch_deg": -0.0608, "yaw_deg": 91.982, "roll_deg": -0.0794, "lat_deg": 47.3979712, "lon_deg": 8.5461639, "altitude_rel_ft": 0.3707, "ground_speed_ft_s": 0.0, "vel_north_m_s": 0.0, "vel_east_m_s": 0.0, "vel_down_m_s": -0.02, "battery_remain_pct": 10000.0}
{"t_rx_ms": 1772827132986, "run_id": "20260306_115825", "seq": 122, "pitch_deg": -0.0546, "yaw_deg": 91.9825, "roll_deg": -0.0793, "lat_deg": 47.3979711, "lon_deg": 8.5461638, "altitude_rel_ft": 0.3707, "ground_speed_ft_s": 0.0328, "vel_north_m_s": -0.01, "vel_east_m_s": 0.0, "vel_down_m_s": -0.02, "battery_remain_pct": 10000.0}
{"t_rx_ms": 1772827133188, "run_id": "20260306_115825", "seq": 123, "pitch_deg": -0.0498, "yaw_deg": 91.9829, "roll_deg": -0.08, "lat_deg": 47.3979711, "lon_deg": 8.5461638, "altitude_rel_ft": 0.3675, "ground_speed_ft_s": 0.0464, "vel_north_m_s": -0.01, "vel_east_m_s": -0.01, "vel_down_m_s": -0.01, "battery_remain_pct": 10000.0}
{"t_rx_ms": 1772827133388, "run_id": "20260306_115825", "seq": 124, "pitch_deg": -0.0499, "yaw_deg": 91.9801, "roll_deg": -0.0806, "lat_deg": 47.397971, "lon_deg": 8.5461637, "altitude_rel_ft": 0.3675, "ground_speed_ft_s": 0.0734, "vel_north_m_s": -0.02, "vel_east_m_s": -0.01, "vel_down_m_s": -0.01, "battery_remain_pct": 10000.0}
{"t_rx_ms": 1772827133589, "run_id": "20260306_115825", "seq": 125, "pitch_deg": -0.0539, "yaw_deg": 91.9726, "roll_deg": -0.0817, "lat_deg": 47.397971, "lon_deg": 8.5461637, "altitude_rel_ft": 0.3675, "ground_speed_ft_s": 0.0734, "vel_north_m_s": -0.02, "vel_east_m_s": -0.01, "vel_down_m_s": -0.01, "battery_remain_pct": 10000.0}
{"t_rx_ms": 1772827133790, "run_id": "20260306_115825", "seq": 126, "pitch_deg": -0.0608, "yaw_deg": 91.9629, "roll_deg": -0.085, "lat_deg": 47.3979709, "lon_deg": 8.5461637, "altitude_rel_ft": 0.3642, "ground_speed_ft_s": 0.0734, "vel_north_m_s": -0.02, "vel_east_m_s": -0.01, "vel_down_m_s": -0.01, "battery_remain_pct": 10000.0}
{"t_rx_ms": 1772827133990, "run_id": "20260306_115825", "seq": 127, "pitch_deg": -0.0661, "yaw_deg": 91.9545, "roll_deg": -0.0913, "lat_deg": 47.3979709, "lon_deg": 8.5461638, "altitude_rel_ft": 0.3642, "ground_speed_ft_s": 0.0734, "vel_north_m_s": -0.02, "vel_east_m_s": -0.01, "vel_down_m_s": -0.01, "battery_remain_pct": 10000.0}
{"t_rx_ms": 1772827134191, "run_id": "20260306_115825", "seq": 128, "pitch_deg": -0.0718, "yaw_deg": 91.9471, "roll_deg": -0.0953, "lat_deg": 47.3979709, "lon_deg": 8.5461638, "altitude_rel_ft": 0.3642, "ground_speed_ft_s": 0.0656, "vel_north_m_s": -0.02, "vel_east_m_s": 0.0, "vel_down_m_s": -0.01, "battery_remain_pct": 10000.0}
{"t_rx_ms": 1772827134392, "run_id": "20260306_115825", "seq": 129, "pitch_deg": -0.0769, "yaw_deg": 91.9401, "roll_deg": -0.0981, "lat_deg": 47.3979709, "lon_deg": 8.5461639, "altitude_rel_ft": 0.3576, "ground_speed_ft_s": 0.0656, "vel_north_m_s": -0.02, "vel_east_m_s": 0.0, "vel_down_m_s": -0.01, "battery_remain_pct": 10000.0}
{"t_rx_ms": 1772827134593, "run_id": "20260306_115825", "seq": 130, "pitch_deg": -0.0794, "yaw_deg": 91.9358, "roll_deg": -0.0975, "lat_deg": 47.397970799999996, "lon_deg": 8.5461639, "altitude_rel_ft": 0.3543, "ground_speed_ft_s": 0.0656, "vel_north_m_s": -0.02, "vel_east_m_s": 0.0, "vel_down_m_s": -0.01, "battery_remain_pct": 10000.0}
{"t_rx_ms": 1772827134794, "run_id": "20260306_115825", "seq": 131, "pitch_deg": -0.0798, "yaw_deg": 91.933, "roll_deg": -0.0957, "lat_deg": 47.397970799999996, "lon_deg": 8.5461639, "altitude_rel_ft": 0.351, "ground_speed_ft_s": 0.0656, "vel_north_m_s": -0.02, "vel_east_m_s": 0.0, "vel_down_m_s": -0.01, "battery_remain_pct": 10000.0}
{"t_rx_ms": 1772827134995, "run_id": "20260306_115825", "seq": 132, "pitch_deg": -0.0754, "yaw_deg": 91.9338, "roll_deg": -0.0957, "lat_deg": 47.397970799999996, "lon_deg": 8.5461639, "altitude_rel_ft": 0.3478, "ground_speed_ft_s": 0.0656, "vel_north_m_s": -0.02, "vel_east_m_s": 0.0, "vel_down_m_s": -0.01, "battery_remain_pct": 10000.0}
{"t_rx_ms": 1772827135195, "run_id": "20260306_115825", "seq": 133, "pitch_deg": -0.0673, "yaw_deg": 91.9355, "roll_deg": -0.1014, "lat_deg": 47.397970799999996, "lon_deg": 8.5461638, "altitude_rel_ft": 0.3445, "ground_speed_ft_s": 0.0464, "vel_north_m_s": -0.01, "vel_east_m_s": -0.01, "vel_down_m_s": 0.0, "battery_remain_pct": 10000.0}
{"t_rx_ms": 1772827135396, "run_id": "20260306_115825", "seq": 134, "pitch_deg": -0.0629, "yaw_deg": 91.9369, "roll_deg": -0.1107, "lat_deg": 47.397970799999996, "lon_deg": 8.5461637, "altitude_rel_ft": 0.3412, "ground_speed_ft_s": 0.0464, "vel_north_m_s": -0.01, "vel_east_m_s": -0.01, "vel_down_m_s": 0.0, "battery_remain_pct": 10000.0}
{"t_rx_ms": 1772827135597, "run_id": "20260306_115825", "seq": 135, "pitch_deg": -0.0613, "yaw_deg": 91.9362, "roll_deg": -0.12, "lat_deg": 47.397970799999996, "lon_deg": 8.5461637, "altitude_rel_ft": 0.3412, "ground_speed_ft_s": 0.0328, "vel_north_m_s": 0.0, "vel_east_m_s": -0.01, "vel_down_m_s": 0.0, "battery_remain_pct": 10000.0}
{"t_rx_ms": 1772827135798, "run_id": "20260306_115825", "seq": 136, "pitch_deg": -0.0598, "yaw_deg": 91.9357, "roll_deg": -0.1276, "lat_deg": 47.3979709, "lon_deg": 8.5461636, "altitude_rel_ft": 0.3412, "ground_speed_ft_s": 0.0328, "vel_north_m_s": 0.0, "vel_east_m_s": -0.01, "vel_down_m_s": 0.0, "battery_remain_pct": 10000.0}
{"t_rx_ms": 1772827135998, "run_id": "20260306_115825", "seq": 137, "pitch_deg": -0.0608, "yaw_deg": 91.9357, "roll_deg": -0.1329, "lat_deg": 47.3979709, "lon_deg": 8.5461636, "altitude_rel_ft": 0.3412, "ground_speed_ft_s": 0.0328, "vel_north_m_s": 0.0, "vel_east_m_s": -0.01, "vel_down_m_s": 0.0, "battery_remain_pct": 10000.0}
{"t_rx_ms": 1772827136199, "run_id": "20260306_115825", "seq": 138, "pitch_deg": -0.0581, "yaw_deg": 91.9341, "roll_deg": -0.1328, "lat_deg": 47.3979709, "lon_deg": 8.5461635, "altitude_rel_ft": 0.3379, "ground_speed_ft_s": 0.0328, "vel_north_m_s": 0.0, "vel_east_m_s": -0.01, "vel_down_m_s": 0.0, "battery_remain_pct": 10000.0}
{"t_rx_ms": 1772827136400, "run_id": "20260306_115825", "seq": 139, "pitch_deg": -0.0539, "yaw_deg": 91.932, "roll_deg": -0.131, "lat_deg": 47.397971, "lon_deg": 8.5461634, "altitude_rel_ft": 0.3379, "ground_speed_ft_s": 0.0656, "vel_north_m_s": 0.0, "vel_east_m_s": -0.02, "vel_down_m_s": 0.0, "battery_remain_pct": 10000.0}
{"t_rx_ms": 1772827136600, "run_id": "20260306_115825", "seq": 140, "pitch_deg": -0.051, "yaw_deg": 91.9323, "roll_deg": -0.1275, "lat_deg": 47.397971, "lon_deg": 8.5461634, "altitude_rel_ft": 0.3379, "ground_speed_ft_s": 0.0656, "vel_north_m_s": 0.0, "vel_east_m_s": -0.02, "vel_down_m_s": 0.0, "battery_remain_pct": 10000.0}
{"t_rx_ms": 1772827136802, "run_id": "20260306_115825", "seq": 141, "pitch_deg": -0.0509, "yaw_deg": 91.9357, "roll_deg": -0.1224, "lat_deg": 47.397971, "lon_deg": 8.5461633, "altitude_rel_ft": 0.3346, "ground_speed_ft_s": 0.0656, "vel_north_m_s": 0.0, "vel_east_m_s": -0.02, "vel_down_m_s": 0.0, "battery_remain_pct": 10000.0}
{"t_rx_ms": 1772827137003, "run_id": "20260306_115825", "seq": 142, "pitch_deg": -0.0555, "yaw_deg": 91.942, "roll_deg": -0.1188, "lat_deg": 47.397971, "lon_deg": 8.5461633, "altitude_rel_ft": 0.3314, "ground_speed_ft_s": 0.0656, "vel_north_m_s": 0.0, "vel_east_m_s": -0.02, "vel_down_m_s": 0.0, "battery_remain_pct": 10000.0}
{"t_rx_ms": 1772827137203, "run_id": "20260306_115825", "seq": 143, "pitch_deg": -0.062, "yaw_deg": 91.9493, "roll_deg": -0.1189, "lat_deg": 47.397971, "lon_deg": 8.5461634, "altitude_rel_ft": 0.3281, "ground_speed_ft_s": 0.0328, "vel_north_m_s": 0.0, "vel_east_m_s": -0.01, "vel_down_m_s": 0.0, "battery_remain_pct": 10000.0}
{"t_rx_ms": 1772827137404, "run_id": "20260306_115825", "seq": 144, "pitch_deg": -0.0677, "yaw_deg": 91.9551, "roll_deg": -0.1239, "lat_deg": 47.397971, "lon_deg": 8.5461634, "altitude_rel_ft": 0.3248, "ground_speed_ft_s": 0.0328, "vel_north_m_s": 0.0, "vel_east_m_s": -0.01, "vel_down_m_s": 0.0, "battery_remain_pct": 10000.0}
{"t_rx_ms": 1772827137605, "run_id": "20260306_115825", "seq": 145, "pitch_deg": -0.0726, "yaw_deg": 91.958, "roll_deg": -0.1284, "lat_deg": 47.397971, "lon_deg": 8.5461635, "altitude_rel_ft": 0.3215, "ground_speed_ft_s": 0.0, "vel_north_m_s": 0.0, "vel_east_m_s": 0.0, "vel_down_m_s": 0.0, "battery_remain_pct": 10000.0}
{"t_rx_ms": 1772827137807, "run_id": "20260306_115825", "seq": 146, "pitch_deg": -0.0723, "yaw_deg": 91.9576, "roll_deg": -0.1293, "lat_deg": 47.397971, "lon_deg": 8.5461635, "altitude_rel_ft": 0.3215, "ground_speed_ft_s": 0.0, "vel_north_m_s": 0.0, "vel_east_m_s": 0.0, "vel_down_m_s": 0.0, "battery_remain_pct": 10000.0}
{"t_rx_ms": 1772827138008, "run_id": "20260306_115825", "seq": 147, "pitch_deg": -0.0669, "yaw_deg": 91.952, "roll_deg": -0.1298, "lat_deg": 47.397971, "lon_deg": 8.5461635, "altitude_rel_ft": 0.3215, "ground_speed_ft_s": 0.0, "vel_north_m_s": 0.0, "vel_east_m_s": 0.0, "vel_down_m_s": 0.0, "battery_remain_pct": 10000.0}
{"t_rx_ms": 1772827138208, "run_id": "20260306_115825", "seq": 148, "pitch_deg": -0.0591, "yaw_deg": 91.9436, "roll_deg": -0.1319, "lat_deg": 47.397971, "lon_deg": 8.5461635, "altitude_rel_ft": 0.3215, "ground_speed_ft_s": 0.0464, "vel_north_m_s": 0.01, "vel_east_m_s": -0.01, "vel_down_m_s": 0.0, "battery_remain_pct": 10000.0}
{"t_rx_ms": 1772827138409, "run_id": "20260306_115825", "seq": 149, "pitch_deg": -0.0544, "yaw_deg": 91.9361, "roll_deg": -0.1345, "lat_deg": 47.397971, "lon_deg": 8.5461634, "altitude_rel_ft": 0.3215, "ground_speed_ft_s": 0.0464, "vel_north_m_s": 0.01, "vel_east_m_s": -0.01, "vel_down_m_s": 0.0, "battery_remain_pct": 10000.0}
{"t_rx_ms": 1772827138611, "run_id": "20260306_115825", "seq": 150, "pitch_deg": -0.0533, "yaw_deg": 91.9349, "roll_deg": -0.1362, "lat_deg": 47.3979711, "lon_deg": 8.5461634, "altitude_rel_ft": 0.3215, "ground_speed_ft_s": 0.0464, "vel_north_m_s": 0.01, "vel_east_m_s": -0.01, "vel_down_m_s": 0.0, "battery_remain_pct": 10000.0}
{"t_rx_ms": 1772827138812, "run_id": "20260306_115825", "seq": 151, "pitch_deg": -0.0554, "yaw_deg": 91.9378, "roll_deg": -0.1373, "lat_deg": 47.3979711, "lon_deg": 8.5461634, "altitude_rel_ft": 0.3215, "ground_speed_ft_s": 0.0464, "vel_north_m_s": 0.01, "vel_east_m_s": -0.01, "vel_down_m_s": 0.0, "battery_remain_pct": 10000.0}
{"t_rx_ms": 1772827139012, "run_id": "20260306_115825", "seq": 152, "pitch_deg": -0.0583, "yaw_deg": 91.941, "roll_deg": -0.1374, "lat_deg": 47.3979711, "lon_deg": 8.5461634, "altitude_rel_ft": 0.3182, "ground_speed_ft_s": 0.0464, "vel_north_m_s": 0.01, "vel_east_m_s": -0.01, "vel_down_m_s": 0.0, "battery_remain_pct": 10000.0}
{"t_rx_ms": 1772827139213, "run_id": "20260306_115825", "seq": 153, "pitch_deg": -0.0606, "yaw_deg": 91.9447, "roll_deg": -0.1366, "lat_deg": 47.3979711, "lon_deg": 8.5461634, "altitude_rel_ft": 0.3182, "ground_speed_ft_s": 0.0734, "vel_north_m_s": 0.02, "vel_east_m_s": -0.01, "vel_down_m_s": 0.0, "battery_remain_pct": 10000.0}
{"t_rx_ms": 1772827139413, "run_id": "20260306_115825", "seq": 154, "pitch_deg": -0.0614, "yaw_deg": 91.9482, "roll_deg": -0.1319, "lat_deg": 47.3979711, "lon_deg": 8.5461634, "altitude_rel_ft": 0.3117, "ground_speed_ft_s": 0.0464, "vel_north_m_s": 0.01, "vel_east_m_s": -0.01, "vel_down_m_s": 0.01, "battery_remain_pct": 10000.0}
{"t_rx_ms": 1772827139614, "run_id": "20260306_115825", "seq": 155, "pitch_deg": -0.0601, "yaw_deg": 91.9488, "roll_deg": -0.1271, "lat_deg": 47.3979711, "lon_deg": 8.5461634, "altitude_rel_ft": 0.3084, "ground_speed_ft_s": 0.0464, "vel_north_m_s": 0.01, "vel_east_m_s": -0.01, "vel_down_m_s": 0.01, "battery_remain_pct": 10000.0}
{"t_rx_ms": 1772827139815, "run_id": "20260306_115825", "seq": 156, "pitch_deg": -0.057, "yaw_deg": 91.9495, "roll_deg": -0.1238, "lat_deg": 47.3979711, "lon_deg": 8.5461634, "altitude_rel_ft": 0.3051, "ground_speed_ft_s": 0.0464, "vel_north_m_s": 0.01, "vel_east_m_s": -0.01, "vel_down_m_s": 0.01, "battery_remain_pct": 10000.0}
{"t_rx_ms": 1772827140017, "run_id": "20260306_115825", "seq": 157, "pitch_deg": -0.0584, "yaw_deg": 91.952, "roll_deg": -0.1204, "lat_deg": 47.3979711, "lon_deg": 8.5461634, "altitude_rel_ft": 0.3018, "ground_speed_ft_s": 0.0464, "vel_north_m_s": 0.01, "vel_east_m_s": -0.01, "vel_down_m_s": 0.01, "battery_remain_pct": 10000.0}
{"t_rx_ms": 1772827140219, "run_id": "20260306_115825", "seq": 158, "pitch_deg": -0.0609, "yaw_deg": 91.959, "roll_deg": -0.1143, "lat_deg": 47.3979711, "lon_deg": 8.5461634, "altitude_rel_ft": 0.2986, "ground_speed_ft_s": 0.0464, "vel_north_m_s": 0.01, "vel_east_m_s": -0.01, "vel_down_m_s": 0.01, "battery_remain_pct": 10000.0}
{"t_rx_ms": 1772827140420, "run_id": "20260306_115825", "seq": 159, "pitch_deg": -0.0644, "yaw_deg": 91.9645, "roll_deg": -0.1095, "lat_deg": 47.397971, "lon_deg": 8.5461634, "altitude_rel_ft": 0.2953, "ground_speed_ft_s": 0.0, "vel_north_m_s": 0.0, "vel_east_m_s": 0.0, "vel_down_m_s": 0.01, "battery_remain_pct": 10000.0}
{"t_rx_ms": 1772827140620, "run_id": "20260306_115825", "seq": 160, "pitch_deg": -0.0708, "yaw_deg": 91.9697, "roll_deg": -0.1103, "lat_deg": 47.3979711, "lon_deg": 8.5461634, "altitude_rel_ft": 0.2953, "ground_speed_ft_s": 0.0328, "vel_north_m_s": 0.01, "vel_east_m_s": 0.0, "vel_down_m_s": 0.01, "battery_remain_pct": 10000.0}
{"t_rx_ms": 1772827140821, "run_id": "20260306_115825", "seq": 161, "pitch_deg": -0.0759, "yaw_deg": 91.9746, "roll_deg": -0.1117, "lat_deg": 47.3979711, "lon_deg": 8.5461635, "altitude_rel_ft": 0.292, "ground_speed_ft_s": 0.0328, "vel_north_m_s": 0.01, "vel_east_m_s": 0.0, "vel_down_m_s": 0.01, "battery_remain_pct": 10000.0}
{"t_rx_ms": 1772827141023, "run_id": "20260306_115825", "seq": 162, "pitch_deg": -0.0781, "yaw_deg": 91.9785, "roll_deg": -0.1089, "lat_deg": 47.3979711, "lon_deg": 8.5461636, "altitude_rel_ft": 0.292, "ground_speed_ft_s": 0.0328, "vel_north_m_s": 0.01, "vel_east_m_s": 0.0, "vel_down_m_s": 0.01, "battery_remain_pct": 10000.0}
{"t_rx_ms": 1772827141223, "run_id": "20260306_115825", "seq": 163, "pitch_deg": -0.0796, "yaw_deg": 91.9829, "roll_deg": -0.1057, "lat_deg": 47.3979711, "lon_deg": 8.5461636, "altitude_rel_ft": 0.292, "ground_speed_ft_s": 0.0328, "vel_north_m_s": 0.01, "vel_east_m_s": 0.0, "vel_down_m_s": 0.01, "battery_remain_pct": 10000.0}
{"t_rx_ms": 1772827141423, "run_id": "20260306_115825", "seq": 164, "pitch_deg": -0.0784, "yaw_deg": 91.9833, "roll_deg": -0.1038, "lat_deg": 47.397971, "lon_deg": 8.5461637, "altitude_rel_ft": 0.2953, "ground_speed_ft_s": 0.0328, "vel_north_m_s": 0.01, "vel_east_m_s": 0.0, "vel_down_m_s": 0.01, "battery_remain_pct": 10000.0}
{"t_rx_ms": 1772827141624, "run_id": "20260306_115825", "seq": 165, "pitch_deg": -0.0748, "yaw_deg": 91.9824, "roll_deg": -0.1018, "lat_deg": 47.397971, "lon_deg": 8.5461637, "altitude_rel_ft": 0.2953, "ground_speed_ft_s": 0.0328, "vel_north_m_s": 0.01, "vel_east_m_s": 0.0, "vel_down_m_s": 0.01, "battery_remain_pct": 10000.0}
{"t_rx_ms": 1772827141825, "run_id": "20260306_115825", "seq": 166, "pitch_deg": -0.0689, "yaw_deg": 91.9796, "roll_deg": -0.1004, "lat_deg": 47.397971, "lon_deg": 8.5461636, "altitude_rel_ft": 0.2986, "ground_speed_ft_s": 0.0328, "vel_north_m_s": 0.01, "vel_east_m_s": 0.0, "vel_down_m_s": 0.01, "battery_remain_pct": 10000.0}
{"t_rx_ms": 1772827142025, "run_id": "20260306_115825", "seq": 167, "pitch_deg": -0.068, "yaw_deg": 91.9809, "roll_deg": -0.0986, "lat_deg": 47.397971, "lon_deg": 8.5461636, "altitude_rel_ft": 0.2986, "ground_speed_ft_s": 0.0328, "vel_north_m_s": 0.01, "vel_east_m_s": 0.0, "vel_down_m_s": 0.01, "battery_remain_pct": 10000.0}
{"t_rx_ms": 1772827142227, "run_id": "20260306_115825", "seq": 168, "pitch_deg": -0.0683, "yaw_deg": 91.9829, "roll_deg": -0.0978, "lat_deg": 47.397971, "lon_deg": 8.5461636, "altitude_rel_ft": 0.3018, "ground_speed_ft_s": 0.0328, "vel_north_m_s": 0.01, "vel_east_m_s": 0.0, "vel_down_m_s": 0.01, "battery_remain_pct": 10000.0}
{"t_rx_ms": 1772827142427, "run_id": "20260306_115825", "seq": 169, "pitch_deg": -0.0696, "yaw_deg": 91.9842, "roll_deg": -0.0971, "lat_deg": 47.397971, "lon_deg": 8.5461636, "altitude_rel_ft": 0.3051, "ground_speed_ft_s": 0.0464, "vel_north_m_s": 0.01, "vel_east_m_s": -0.01, "vel_down_m_s": 0.01, "battery_remain_pct": 10000.0}
{"t_rx_ms": 1772827142627, "run_id": "20260306_115825", "seq": 170, "pitch_deg": -0.0716, "yaw_deg": 91.9864, "roll_deg": -0.0929, "lat_deg": 47.397971, "lon_deg": 8.5461636, "altitude_rel_ft": 0.3051, "ground_speed_ft_s": 0.0464, "vel_north_m_s": 0.01, "vel_east_m_s": -0.01, "vel_down_m_s": 0.01, "battery_remain_pct": 10000.0}
{"t_rx_ms": 1772827142829, "run_id": "20260306_115825", "seq": 171, "pitch_deg": -0.074, "yaw_deg": 91.9866, "roll_deg": -0.0853, "lat_deg": 47.397971, "lon_deg": 8.5461636, "altitude_rel_ft": 0.3084, "ground_speed_ft_s": 0.0328, "vel_north_m_s": 0.0, "vel_east_m_s": -0.01, "vel_down_m_s": 0.01, "battery_remain_pct": 10000.0}
{"t_rx_ms": 1772827143029, "run_id": "20260306_115825", "seq": 172, "pitch_deg": -0.0712, "yaw_deg": 91.9843, "roll_deg": -0.0799, "lat_deg": 47.3979709, "lon_deg": 8.5461636, "altitude_rel_ft": 0.3084, "ground_speed_ft_s": 0.0328, "vel_north_m_s": 0.0, "vel_east_m_s": -0.01, "vel_down_m_s": 0.0, "battery_remain_pct": 10000.0}
{"t_rx_ms": 1772827143230, "run_id": "20260306_115825", "seq": 173, "pitch_deg": -0.0662, "yaw_deg": 91.9792, "roll_deg": -0.0738, "lat_deg": 47.3979709, "lon_deg": 8.5461635, "altitude_rel_ft": 0.3117, "ground_speed_ft_s": 0.0656, "vel_north_m_s": 0.0, "vel_east_m_s": -0.02, "vel_down_m_s": 0.0, "battery_remain_pct": 10000.0}
{"t_rx_ms": 1772827143431, "run_id": "20260306_115825", "seq": 174, "pitch_deg": -0.0641, "yaw_deg": 91.9757, "roll_deg": -0.0698, "lat_deg": 47.397970799999996, "lon_deg": 8.5461634, "altitude_rel_ft": 0.315, "ground_speed_ft_s": 0.0656, "vel_north_m_s": 0.0, "vel_east_m_s": -0.02, "vel_down_m_s": 0.0, "battery_remain_pct": 10000.0}
{"t_rx_ms": 1772827143632, "run_id": "20260306_115825", "seq": 175, "pitch_deg": -0.0638, "yaw_deg": 91.9787, "roll_deg": -0.073, "lat_deg": 47.397970799999996, "lon_deg": 8.5461634, "altitude_rel_ft": 0.3182, "ground_speed_ft_s": 0.0984, "vel_north_m_s": 0.0, "vel_east_m_s": -0.03, "vel_down_m_s": 0.0, "battery_remain_pct": 10000.0}
{"t_rx_ms": 1772827143834, "run_id": "20260306_115825", "seq": 176, "pitch_deg": -0.0661, "yaw_deg": 91.9806, "roll_deg": -0.0759, "lat_deg": 47.397970799999996, "lon_deg": 8.5461633, "altitude_rel_ft": 0.3215, "ground_speed_ft_s": 0.0984, "vel_north_m_s": 0.0, "vel_east_m_s": -0.03, "vel_down_m_s": 0.0, "battery_remain_pct": 10000.0}
{"t_rx_ms": 1772827144036, "run_id": "20260306_115825", "seq": 177, "pitch_deg": -0.0699, "yaw_deg": 91.9834, "roll_deg": -0.0775, "lat_deg": 47.397970799999996, "lon_deg": 8.5461633, "altitude_rel_ft": 0.3248, "ground_speed_ft_s": 0.0984, "vel_north_m_s": 0.0, "vel_east_m_s": -0.03, "vel_down_m_s": 0.0, "battery_remain_pct": 10000.0}
{"t_rx_ms": 1772827144236, "run_id": "20260306_115825", "seq": 178, "pitch_deg": -0.0747, "yaw_deg": 91.9845, "roll_deg": -0.0791, "lat_deg": 47.397970799999996, "lon_deg": 8.5461633, "altitude_rel_ft": 0.3281, "ground_speed_ft_s": 0.0984, "vel_north_m_s": 0.0, "vel_east_m_s": -0.03, "vel_down_m_s": 0.0, "battery_remain_pct": 10000.0}
{"t_rx_ms": 1772827144437, "run_id": "20260306_115825", "seq": 179, "pitch_deg": -0.0778, "yaw_deg": 91.9862, "roll_deg": -0.0813, "lat_deg": 47.3979709, "lon_deg": 8.5461633, "altitude_rel_ft": 0.3314, "ground_speed_ft_s": 0.0984, "vel_north_m_s": 0.0, "vel_east_m_s": -0.03, "vel_down_m_s": 0.0, "battery_remain_pct": 10000.0}
{"t_rx_ms": 1772827144639, "run_id": "20260306_115825", "seq": 180, "pitch_deg": -0.0793, "yaw_deg": 91.9861, "roll_deg": -0.0842, "lat_deg": 47.3979709, "lon_deg": 8.546163199999999, "altitude_rel_ft": 0.3346, "ground_speed_ft_s": 0.0984, "vel_north_m_s": 0.0, "vel_east_m_s": -0.03, "vel_down_m_s": 0.0, "battery_remain_pct": 10000.0}
{"t_rx_ms": 1772827144839, "run_id": "20260306_115825", "seq": 181, "pitch_deg": -0.0821, "yaw_deg": 91.9818, "roll_deg": -0.0829, "lat_deg": 47.397971, "lon_deg": 8.546163199999999, "altitude_rel_ft": 0.3379, "ground_speed_ft_s": 0.0984, "vel_north_m_s": 0.0, "vel_east_m_s": -0.03, "vel_down_m_s": 0.0, "battery_remain_pct": 10000.0}
