{"t_rx_ms": 1776453833465, "run_id": "20260417_115956", "seq": 768, "pitch_deg": 10.1975, "yaw_deg": -44.4572, "roll_deg": -6.0515, "lat_deg": 34.0396639, "lon_deg": -117.81645479999999, "altitude_rel_ft": -0.0525, "ground_speed_ft_s": 0.1392, "vel_north_m_s": 0.03, "vel_east_m_s": 0.03, "vel_down_m_s": 0.0, "battery_remain_pct": 9900.0}
{"t_rx_ms": 1776453833664, "run_id": "20260417_115956", "seq": 769, "pitch_deg": 10.1975, "yaw_deg": -44.4572, "roll_deg": -6.0515, "lat_deg": 34.0396639, "lon_deg": -117.81645479999999, "altitude_rel_ft": -0.0525, "ground_speed_ft_s": 0.1392, "vel_north_m_s": 0.03, "vel_east_m_s": 0.03, "vel_down_m_s": 0.0, "battery_remain_pct": 9900.0}
{"t_rx_ms": 1776453833865, "run_id": "20260417_115956", "seq": 770, "pitch_deg": 10.1975, "yaw_deg": -44.4572, "roll_deg": -6.0515, "lat_deg": 34.0396639, "lon_deg": -117.81645479999999, "altitude_rel_ft": -0.0525, "ground_speed_ft_s": 0.1392, "vel_north_m_s": 0.03, "vel_east_m_s": 0.03, "vel_down_m_s": 0.0, "battery_remain_pct": 9900.0}
{"t_rx_ms": 1776453834066, "run_id": "20260417_115956", "seq": 771, "pitch_deg": 10.1975, "yaw_deg": -44.4572, "roll_deg": -6.0515, "lat_deg": 34.0396639, "lon_deg": -117.81645479999999, "altitude_rel_ft": -0.0525, "ground_speed_ft_s": 0.1392, "vel_north_m_s": 0.03, "vel_east_m_s": 0.03, "vel_down_m_s": 0.0, "battery_remain_pct": 9900.0}
{"t_rx_ms": 1776453834266, "run_id": "20260417_115956", "seq": 772, "pitch_deg": 10.2329, "yaw_deg": -44.3897, "roll_deg": -6.0722, "lat_deg": 34.0396639, "lon_deg": -117.8164547, "altitude_rel_ft": -0.1378, "ground_speed_ft_s": 0.164, "vel_north_m_s": 0.04, "vel_east_m_s": 0.03, "vel_down_m_s": 0.0, "battery_remain_pct": 9900.0}
{"t_rx_ms": 1776453834468, "run_id": "20260417_115956", "seq": 773, "pitch_deg": 10.2329, "yaw_deg": -44.3897, "roll_deg": -6.0722, "lat_deg": 34.0396639, "lon_deg": -117.8164547, "altitude_rel_ft": -0.1378, "ground_speed_ft_s": 0.164, "vel_north_m_s": 0.04, "vel_east_m_s": 0.03, "vel_down_m_s": 0.0, "battery_remain_pct": 9900.0}
{"t_rx_ms": 1776453834670, "run_id": "20260417_115956", "seq": 774, "pitch_deg": 10.2329, "yaw_deg": -44.3897, "roll_deg": -6.0722, "lat_deg": 34.0396639, "lon_deg": -117.8164547, "altitude_rel_ft": -0.1378, "ground_speed_ft_s": 0.164, "vel_north_m_s": 0.04, "vel_east_m_s": 0.03, "vel_down_m_s": 0.0, "battery_remain_pct": 9900.0}
{"t_rx_ms": 1776453834871, "run_id": "20260417_115956", "seq": 775, "pitch_deg": 10.2329, "yaw_deg": -44.3897, "roll_deg": -6.0722, "lat_deg": 34.0396639, "lon_deg": -117.8164547, "altitude_rel_ft": -0.1378, "ground_speed_ft_s": 0.164, "vel_north_m_s": 0.04, "vel_east_m_s": 0.03, "vel_down_m_s": 0.0, "battery_remain_pct": 9900.0}
{"t_rx_ms": 1776453835071, "run_id": "20260417_115956", "seq": 776, "pitch_deg": 10.2329, "yaw_deg": -44.3897, "roll_deg": -6.0722, "lat_deg": 34.0396639, "lon_deg": -117.8164547, "altitude_rel_ft": -0.1378, "ground_speed_ft_s": 0.164, "vel_north_m_s": 0.04, "vel_east_m_s": 0.03, "vel_down_m_s": 0.0, "battery_remain_pct": 9900.0}
{"t_rx_ms": 1776453835276, "run_id": "20260417_115956", "seq": 777, "pitch_deg": 10.2238, "yaw_deg": -44.3267, "roll_deg": -6.0718, "lat_deg": 34.0396639, "lon_deg": -117.8164547, "altitude_rel_ft": -0.2526, "ground_speed_ft_s": 0.164, "vel_north_m_s": 0.04, "vel_east_m_s": 0.03, "vel_down_m_s": 0.01, "battery_remain_pct": 9900.0}
{"t_rx_ms": 1776453835473, "run_id": "20260417_115956", "seq": 778, "pitch_deg": 10.2238, "yaw_deg": -44.3267, "roll_deg": -6.0718, "lat_deg": 34.0396639, "lon_deg": -117.8164547, "altitude_rel_ft": -0.2526, "ground_speed_ft_s": 0.164, "vel_north_m_s": 0.04, "vel_east_m_s": 0.03, "vel_down_m_s": 0.01, "battery_remain_pct": 9900.0}
{"t_rx_ms": 1776453835676, "run_id": "20260417_115956", "seq": 779, "pitch_deg": 10.2238, "yaw_deg": -44.3267, "roll_deg": -6.0718, "lat_deg": 34.0396639, "lon_deg": -117.8164547, "altitude_rel_ft": -0.2526, "ground_speed_ft_s": 0.164, "vel_north_m_s": 0.04, "vel_east_m_s": 0.03, "vel_down_m_s": 0.01, "battery_remain_pct": 9900.0}
{"t_rx_ms": 1776453835879, "run_id": "20260417_115956", "seq": 780, "pitch_deg": 10.2238, "yaw_deg": -44.3267, "roll_deg": -6.0718, "lat_deg": 34.0396639, "lon_deg": -117.8164547, "altitude_rel_ft": -0.2526, "ground_speed_ft_s": 0.164, "vel_north_m_s": 0.04, "vel_east_m_s": 0.03, "vel_down_m_s": 0.01, "battery_remain_pct": 9900.0}
{"t_rx_ms": 1776453836079, "run_id": "20260417_115956", "seq": 781, "pitch_deg": 10.2238, "yaw_deg": -44.3267, "roll_deg": -6.0718, "lat_deg": 34.0396639, "lon_deg": -117.8164547, "altitude_rel_ft": -0.2526, "ground_speed_ft_s": 0.164, "vel_north_m_s": 0.04, "vel_east_m_s": 0.03, "vel_down_m_s": 0.01, "battery_remain_pct": 9900.0}
{"t_rx_ms": 1776453836280, "run_id": "20260417_115956", "seq": 782, "pitch_deg": 10.2329, "yaw_deg": -44.2476, "roll_deg": -6.0796, "lat_deg": 34.0396638, "lon_deg": -117.8164547, "altitude_rel_ft": -0.3018, "ground_speed_ft_s": 0.164, "vel_north_m_s": 0.04, "vel_east_m_s": 0.03, "vel_down_m_s": 0.01, "battery_remain_pct": 9900.0}
{"t_rx_ms": 1776453836483, "run_id": "20260417_115956", "seq": 783, "pitch_deg": 10.2329, "yaw_deg": -44.2476, "roll_deg": -6.0796, "lat_deg": 34.0396638, "lon_deg": -117.8164547, "altitude_rel_ft": -0.3018, "ground_speed_ft_s": 0.164, "vel_north_m_s": 0.04, "vel_east_m_s": 0.03, "vel_down_m_s": 0.01, "battery_remain_pct": 9900.0}
{"t_rx_ms": 1776453836684, "run_id": "20260417_115956", "seq": 784, "pitch_deg": 10.2329, "yaw_deg": -44.2476, "roll_deg": -6.0796, "lat_deg": 34.0396638, "lon_deg": -117.8164547, "altitude_rel_ft": -0.3018, "ground_speed_ft_s": 0.164, "vel_north_m_s": 0.04, "vel_east_m_s": 0.03, "vel_down_m_s": 0.01, "battery_remain_pct": 9900.0}
{"t_rx_ms": 1776453836887, "run_id": "20260417_115956", "seq": 785, "pitch_deg": 10.2329, "yaw_deg": -44.2476, "roll_deg": -6.0796, "lat_deg": 34.0396638, "lon_deg": -117.8164547, "altitude_rel_ft": -0.3018, "ground_speed_ft_s": 0.164, "vel_north_m_s": 0.04, "vel_east_m_s": 0.03, "vel_down_m_s": 0.01, "battery_remain_pct": 9900.0}
{"t_rx_ms": 1776453837093, "run_id": "20260417_115956", "seq": 786, "pitch_deg": 10.2329, "yaw_deg": -44.2476, "roll_deg": -6.0796, "lat_deg": 34.0396638, "lon_deg": -117.8164547, "altitude_rel_ft": -0.3018, "ground_speed_ft_s": 0.164, "vel_north_m_s": 0.04, "vel_east_m_s": 0.03, "vel_down_m_s": 0.01, "battery_remain_pct": 9900.0}
{"t_rx_ms": 1776453837293, "run_id": "20260417_115956", "seq": 787, "pitch_deg": 10.2067, "yaw_deg": -44.1567, "roll_deg": -6.0748, "lat_deg": 34.0396637, "lon_deg": -117.8164549, "altitude_rel_ft": -0.3018, "ground_speed_ft_s": 0.1183, "vel_north_m_s": 0.03, "vel_east_m_s": 0.02, "vel_down_m_s": 0.01, "battery_remain_pct": 9900.0}
{"t_rx_ms": 1776453837495, "run_id": "20260417_115956", "seq": 788, "pitch_deg": 10.2067, "yaw_deg": -44.1567, "roll_deg": -6.0748, "lat_deg": 34.0396637, "lon_deg": -117.8164549, "altitude_rel_ft": -0.3018, "ground_speed_ft_s": 0.1183, "vel_north_m_s": 0.03, "vel_east_m_s": 0.02, "vel_down_m_s": 0.01, "battery_remain_pct": 9900.0}
{"t_rx_ms": 1776453837697, "run_id": "20260417_115956", "seq": 789, "pitch_deg": 10.2067, "yaw_deg": -44.1567, "roll_deg": -6.0748, "lat_deg": 34.0396637, "lon_deg": -117.8164549, "altitude_rel_ft": -0.3018, "ground_speed_ft_s": 0.1183, "vel_north_m_s": 0.03, "vel_east_m_s": 0.02, "vel_down_m_s": 0.01, "battery_remain_pct": 9900.0}
{"t_rx_ms": 1776453837898, "run_id": "20260417_115956", "seq": 790, "pitch_deg": 10.2067, "yaw_deg": -44.1567, "roll_deg": -6.0748, "lat_deg": 34.0396637, "lon_deg": -117.8164549, "altitude_rel_ft": -0.3018, "ground_speed_ft_s": 0.1183, "vel_north_m_s": 0.03, "vel_east_m_s": 0.02, "vel_down_m_s": 0.01, "battery_remain_pct": 9900.0}
{"t_rx_ms": 1776453838100, "run_id": "20260417_115956", "seq": 791, "pitch_deg": 10.2067, "yaw_deg": -44.1567, "roll_deg": -6.0748, "lat_deg": 34.0396637, "lon_deg": -117.8164549, "altitude_rel_ft": -0.3018, "ground_speed_ft_s": 0.1183, "vel_north_m_s": 0.03, "vel_east_m_s": 0.02, "vel_down_m_s": 0.01, "battery_remain_pct": 9900.0}
{"t_rx_ms": 1776453838301, "run_id": "20260417_115956", "seq": 792, "pitch_deg": 10.2244, "yaw_deg": -44.075, "roll_deg": -6.1032, "lat_deg": 34.0396633, "lon_deg": -117.8164553, "altitude_rel_ft": -0.3707, "ground_speed_ft_s": 0.0734, "vel_north_m_s": 0.02, "vel_east_m_s": 0.01, "vel_down_m_s": 0.01, "battery_remain_pct": 9900.0}
{"t_rx_ms": 1776453838503, "run_id": "20260417_115956", "seq": 793, "pitch_deg": 10.2244, "yaw_deg": -44.075, "roll_deg": -6.1032, "lat_deg": 34.0396633, "lon_deg": -117.8164553, "altitude_rel_ft": -0.3707, "ground_speed_ft_s": 0.0734, "vel_north_m_s": 0.02, "vel_east_m_s": 0.01, "vel_down_m_s": 0.01, "battery_remain_pct": 9900.0}
{"t_rx_ms": 1776453838704, "run_id": "20260417_115956", "seq": 794, "pitch_deg": 10.2244, "yaw_deg": -44.075, "roll_deg": -6.1032, "lat_deg": 34.0396633, "lon_deg": -117.8164553, "altitude_rel_ft": -0.3707, "ground_speed_ft_s": 0.0734, "vel_north_m_s": 0.02, "vel_east_m_s": 0.01, "vel_down_m_s": 0.01, "battery_remain_pct": 9900.0}
{"t_rx_ms": 1776453838904, "run_id": "20260417_115956", "seq": 795, "pitch_deg": 10.2244, "yaw_deg": -44.075, "roll_deg": -6.1032, "lat_deg": 34.0396633, "lon_deg": -117.8164553, "altitude_rel_ft": -0.3707, "ground_speed_ft_s": 0.0734, "vel_north_m_s": 0.02, "vel_east_m_s": 0.01, "vel_down_m_s": 0.01, "battery_remain_pct": 9900.0}
{"t_rx_ms": 1776453839105, "run_id": "20260417_115956", "seq": 796, "pitch_deg": 10.2244, "yaw_deg": -44.075, "roll_deg": -6.1032, "lat_deg": 34.0396633, "lon_deg": -117.8164553, "altitude_rel_ft": -0.3707, "ground_speed_ft_s": 0.0734, "vel_north_m_s": 0.02, "vel_east_m_s": 0.01, "vel_down_m_s": 0.01, "battery_remain_pct": 9900.0}
{"t_rx_ms": 1776453839305, "run_id": "20260417_115956", "seq": 797, "pitch_deg": 10.1961, "yaw_deg": -43.9517, "roll_deg": -6.1022, "lat_deg": 34.0396631, "lon_deg": -117.8164554, "altitude_rel_ft": -0.1148, "ground_speed_ft_s": 0.0464, "vel_north_m_s": 0.01, "vel_east_m_s": 0.01, "vel_down_m_s": 0.02, "battery_remain_pct": 9900.0}
{"t_rx_ms": 1776453839506, "run_id": "20260417_115956", "seq": 798, "pitch_deg": 10.1961, "yaw_deg": -43.9517, "roll_deg": -6.1022, "lat_deg": 34.0396631, "lon_deg": -117.8164554, "altitude_rel_ft": -0.1148, "ground_speed_ft_s": 0.0464, "vel_north_m_s": 0.01, "vel_east_m_s": 0.01, "vel_down_m_s": 0.02, "battery_remain_pct": 9900.0}
{"t_rx_ms": 1776453839707, "run_id": "20260417_115956", "seq": 799, "pitch_deg": 10.1961, "yaw_deg": -43.9517, "roll_deg": -6.1022, "lat_deg": 34.0396631, "lon_deg": -117.8164554, "altitude_rel_ft": -0.1148, "ground_speed_ft_s": 0.0464, "vel_north_m_s": 0.01, "vel_east_m_s": 0.01, "vel_down_m_s": 0.02, "battery_remain_pct": 9900.0}
{"t_rx_ms": 1776453839908, "run_id": "20260417_115956", "seq": 800, "pitch_deg": 10.1961, "yaw_deg": -43.9517, "roll_deg": -6.1022, "lat_deg": 34.0396631, "lon_deg": -117.8164554, "altitude_rel_ft": -0.1148, "ground_speed_ft_s": 0.0464, "vel_north_m_s": 0.01, "vel_east_m_s": 0.01, "vel_down_m_s": 0.02, "battery_remain_pct": 9900.0}
{"t_rx_ms": 1776453840108, "run_id": "20260417_115956", "seq": 801, "pitch_deg": 10.1961, "yaw_deg": -43.9517, "roll_deg": -6.1022, "lat_deg": 34.0396631, "lon_deg": -117.8164554, "altitude_rel_ft": -0.1148, "ground_speed_ft_s": 0.0464, "vel_north_m_s": 0.01, "vel_east_m_s": 0.01, "vel_down_m_s": 0.02, "battery_remain_pct": 9900.0}
{"t_rx_ms": 1776453840309, "run_id": "20260417_115956", "seq": 802, "pitch_deg": 10.1893, "yaw_deg": -43.8373, "roll_deg": -6.0868, "lat_deg": 34.039662899999996, "lon_deg": -117.8164556, "altitude_rel_ft": -0.1575, "ground_speed_ft_s": 0.0734, "vel_north_m_s": 0.02, "vel_east_m_s": 0.01, "vel_down_m_s": 0.02, "battery_remain_pct": 9900.0}
{"t_rx_ms": 1776453840509, "run_id": "20260417_115956", "seq": 803, "pitch_deg": 10.1893, "yaw_deg": -43.8373, "roll_deg": -6.0868, "lat_deg": 34.039662899999996, "lon_deg": -117.8164556, "altitude_rel_ft": -0.1575, "ground_speed_ft_s": 0.0734, "vel_north_m_s": 0.02, "vel_east_m_s": 0.01, "vel_down_m_s": 0.02, "battery_remain_pct": 9900.0}
{"t_rx_ms": 1776453840713, "run_id": "20260417_115956", "seq": 804, "pitch_deg": 10.1893, "yaw_deg": -43.8373, "roll_deg": -6.0868, "lat_deg": 34.039662899999996, "lon_deg": -117.8164556, "altitude_rel_ft": -0.1575, "ground_speed_ft_s": 0.0734, "vel_north_m_s": 0.02, "vel_east_m_s": 0.01, "vel_down_m_s": 0.02, "battery_remain_pct": 9900.0}
{"t_rx_ms": 1776453840914, "run_id": "20260417_115956", "seq": 805, "pitch_deg": 10.1893, "yaw_deg": -43.8373, "roll_deg": -6.0868, "lat_deg": 34.039662899999996, "lon_deg": -117.8164556, "altitude_rel_ft": -0.1575, "ground_speed_ft_s": 0.0734, "vel_north_m_s": 0.02, "vel_east_m_s": 0.01, "vel_down_m_s": 0.02, "battery_remain_pct": 9900.0}
{"t_rx_ms": 1776453841114, "run_id": "20260417_115956", "seq": 806, "pitch_deg": 10.1893, "yaw_deg": -43.8373, "roll_deg": -6.0868, "lat_deg": 34.039662899999996, "lon_deg": -117.8164556, "altitude_rel_ft": -0.1575, "ground_speed_ft_s": 0.0734, "vel_north_m_s": 0.02, "vel_east_m_s": 0.01, "vel_down_m_s": 0.02, "battery_remain_pct": 9900.0}
{"t_rx_ms": 1776453841315, "run_id": "20260417_115956", "seq": 807, "pitch_deg": 10.2171, "yaw_deg": -43.7035, "roll_deg": -6.0855, "lat_deg": 34.039662899999996, "lon_deg": -117.8164556, "altitude_rel_ft": -0.2264, "ground_speed_ft_s": 0.0928, "vel_north_m_s": 0.02, "vel_east_m_s": 0.02, "vel_down_m_s": 0.02, "battery_remain_pct": 9900.0}
{"t_rx_ms": 1776453841516, "run_id": "20260417_115956", "seq": 808, "pitch_deg": 10.2171, "yaw_deg": -43.7035, "roll_deg": -6.0855, "lat_deg": 34.039662899999996, "lon_deg": -117.8164556, "altitude_rel_ft": -0.2264, "ground_speed_ft_s": 0.0928, "vel_north_m_s": 0.02, "vel_east_m_s": 0.02, "vel_down_m_s": 0.02, "battery_remain_pct": 9900.0}
{"t_rx_ms": 1776453841717, "run_id": "20260417_115956", "seq": 809, "pitch_deg": 10.2171, "yaw_deg": -43.7035, "roll_deg": -6.0855, "lat_deg": 34.039662899999996, "lon_deg": -117.8164556, "altitude_rel_ft": -0.2264, "ground_speed_ft_s": 0.0928, "vel_north_m_s": 0.02, "vel_east_m_s": 0.02, "vel_down_m_s": 0.02, "battery_remain_pct": 9900.0}
{"t_rx_ms": 1776453841917, "run_id": "20260417_115956", "seq": 810, "pitch_deg": 10.2171, "yaw_deg": -43.7035, "roll_deg": -6.0855, "lat_deg": 34.039662899999996, "lon_deg": -117.8164556, "altitude_rel_ft": -0.2264, "ground_speed_ft_s": 0.0928, "vel_north_m_s": 0.02, "vel_east_m_s": 0.02, "vel_down_m_s": 0.02, "battery_remain_pct": 9900.0}
{"t_rx_ms": 1776453842118, "run_id": "20260417_115956", "seq": 811, "pitch_deg": 10.2171, "yaw_deg": -43.7035, "roll_deg": -6.0855, "lat_deg": 34.039662899999996, "lon_deg": -117.8164556, "altitude_rel_ft": -0.2264, "ground_speed_ft_s": 0.0928, "vel_north_m_s": 0.02, "vel_east_m_s": 0.02, "vel_down_m_s": 0.02, "battery_remain_pct": 9900.0}
{"t_rx_ms": 1776453842319, "run_id": "20260417_115956", "seq": 812, "pitch_deg": 10.2151, "yaw_deg": -43.5567, "roll_deg": -6.0846, "lat_deg": 34.039662799999995, "lon_deg": -117.8164556, "altitude_rel_ft": -0.2526, "ground_speed_ft_s": 0.0928, "vel_north_m_s": 0.02, "vel_east_m_s": 0.02, "vel_down_m_s": 0.01, "battery_remain_pct": 9900.0}
{"t_rx_ms": 1776453842520, "run_id": "20260417_115956", "seq": 813, "pitch_deg": 10.2151, "yaw_deg": -43.5567, "roll_deg": -6.0846, "lat_deg": 34.039662799999995, "lon_deg": -117.8164556, "altitude_rel_ft": -0.2526, "ground_speed_ft_s": 0.0928, "vel_north_m_s": 0.02, "vel_east_m_s": 0.02, "vel_down_m_s": 0.01, "battery_remain_pct": 9900.0}
{"t_rx_ms": 1776453842720, "run_id": "20260417_115956", "seq": 814, "pitch_deg": 10.2151, "yaw_deg": -43.5567, "roll_deg": -6.0846, "lat_deg": 34.039662799999995, "lon_deg": -117.8164556, "altitude_rel_ft": -0.2526, "ground_speed_ft_s": 0.0928, "vel_north_m_s": 0.02, "vel_east_m_s": 0.02, "vel_down_m_s": 0.01, "battery_remain_pct": 9900.0}
{"t_rx_ms": 1776453842921, "run_id": "20260417_115956", "seq": 815, "pitch_deg": 10.2151, "yaw_deg": -43.5567, "roll_deg": -6.0846, "lat_deg": 34.039662799999995, "lon_deg": -117.8164556, "altitude_rel_ft": -0.2526, "ground_speed_ft_s": 0.0928, "vel_north_m_s": 0.02, "vel_east_m_s": 0.02, "vel_down_m_s": 0.01, "battery_remain_pct": 9900.0}
{"t_rx_ms": 1776453843122, "run_id": "20260417_115956", "seq": 816, "pitch_deg": 10.2151, "yaw_deg": -43.5567, "roll_deg": -6.0846, "lat_deg": 34.039662799999995, "lon_deg": -117.8164556, "altitude_rel_ft": -0.2526, "ground_speed_ft_s": 0.0928, "vel_north_m_s": 0.02, "vel_east_m_s": 0.02, "vel_down_m_s": 0.01, "battery_remain_pct": 9900.0}
{"t_rx_ms": 1776453843324, "run_id": "20260417_115956", "seq": 817, "pitch_deg": 10.2008, "yaw_deg": -43.414, "roll_deg": -6.0784, "lat_deg": 34.039662799999995, "lon_deg": -117.8164556, "altitude_rel_ft": -0.2428, "ground_speed_ft_s": 0.1183, "vel_north_m_s": 0.03, "vel_east_m_s": 0.02, "vel_down_m_s": 0.01, "battery_remain_pct": 9900.0}
{"t_rx_ms": 1776453843525, "run_id": "20260417_115956", "seq": 818, "pitch_deg": 10.2008, "yaw_deg": -43.414, "roll_deg": -6.0784, "lat_deg": 34.039662799999995, "lon_deg": -117.8164556, "altitude_rel_ft": -0.2428, "ground_speed_ft_s": 0.1183, "vel_north_m_s": 0.03, "vel_east_m_s": 0.02, "vel_down_m_s": 0.01, "battery_remain_pct": 9900.0}
{"t_rx_ms": 1776453843726, "run_id": "20260417_115956", "seq": 819, "pitch_deg": 10.2008, "yaw_deg": -43.414, "roll_deg": -6.0784, "lat_deg": 34.039662799999995, "lon_deg": -117.8164556, "altitude_rel_ft": -0.2428, "ground_speed_ft_s": 0.1183, "vel_north_m_s": 0.03, "vel_east_m_s": 0.02, "vel_down_m_s": 0.01, "battery_remain_pct": 9900.0}
{"t_rx_ms": 1776453843927, "run_id": "20260417_115956", "seq": 820, "pitch_deg": 10.2008, "yaw_deg": -43.414, "roll_deg": -6.0784, "lat_deg": 34.039662799999995, "lon_deg": -117.8164556, "altitude_rel_ft": -0.2428, "ground_speed_ft_s": 0.1183, "vel_north_m_s": 0.03, "vel_east_m_s": 0.02, "vel_down_m_s": 0.01, "battery_remain_pct": 9900.0}
{"t_rx_ms": 1776453844141, "run_id": "20260417_115956", "seq": 821, "pitch_deg": 10.2008, "yaw_deg": -43.414, "roll_deg": -6.0784, "lat_deg": 34.039662799999995, "lon_deg": -117.8164556, "altitude_rel_ft": -0.2428, "ground_speed_ft_s": 0.1183, "vel_north_m_s": 0.03, "vel_east_m_s": 0.02, "vel_down_m_s": 0.01, "battery_remain_pct": 9900.0}
{"t_rx_ms": 1776453844343, "run_id": "20260417_115956", "seq": 822, "pitch_deg": 10.2213, "yaw_deg": -43.2564, "roll_deg": -6.0836, "lat_deg": 34.039662799999995, "lon_deg": -117.81645549999999, "altitude_rel_ft": -0.1411, "ground_speed_ft_s": 0.1392, "vel_north_m_s": 0.03, "vel_east_m_s": 0.03, "vel_down_m_s": 0.01, "battery_remain_pct": 9900.0}
{"t_rx_ms": 1776453844544, "run_id": "20260417_115956", "seq": 823, "pitch_deg": 10.2213, "yaw_deg": -43.2564, "roll_deg": -6.0836, "lat_deg": 34.039662799999995, "lon_deg": -117.81645549999999, "altitude_rel_ft": -0.1411, "ground_speed_ft_s": 0.1392, "vel_north_m_s": 0.03, "vel_east_m_s": 0.03, "vel_down_m_s": 0.01, "battery_remain_pct": 9900.0}
{"t_rx_ms": 1776453844752, "run_id": "20260417_115956", "seq": 824, "pitch_deg": 10.2213, "yaw_deg": -43.2564, "roll_deg": -6.0836, "lat_deg": 34.039662799999995, "lon_deg": -117.81645549999999, "altitude_rel_ft": -0.1411, "ground_speed_ft_s": 0.1392, "vel_north_m_s": 0.03, "vel_east_m_s": 0.03, "vel_down_m_s": 0.01, "battery_remain_pct": 9900.0}
{"t_rx_ms": 1776453844954, "run_id": "20260417_115956", "seq": 825, "pitch_deg": 10.2213, "yaw_deg": -43.2564, "roll_deg": -6.0836, "lat_deg": 34.039662799999995, "lon_deg": -117.81645549999999, "altitude_rel_ft": -0.1411, "ground_speed_ft_s": 0.1392, "vel_north_m_s": 0.03, "vel_east_m_s": 0.03, "vel_down_m_s": 0.01, "battery_remain_pct": 9900.0}
{"t_rx_ms": 1776453845155, "run_id": "20260417_115956", "seq": 826, "pitch_deg": 10.2213, "yaw_deg": -43.2564, "roll_deg": -6.0836, "lat_deg": 34.039662799999995, "lon_deg": -117.81645549999999, "altitude_rel_ft": -0.1411, "ground_speed_ft_s": 0.1392, "vel_north_m_s": 0.03, "vel_east_m_s": 0.03, "vel_down_m_s": 0.01, "battery_remain_pct": 9900.0}
{"t_rx_ms": 1776453845356, "run_id": "20260417_115956", "seq": 827, "pitch_deg": 10.2029, "yaw_deg": -43.1103, "roll_deg": -6.0642, "lat_deg": 34.039662799999995, "lon_deg": -117.8164552, "altitude_rel_ft": -0.1017, "ground_speed_ft_s": 0.164, "vel_north_m_s": 0.03, "vel_east_m_s": 0.04, "vel_down_m_s": 0.02, "battery_remain_pct": 9900.0}
{"t_rx_ms": 1776453845557, "run_id": "20260417_115956", "seq": 828, "pitch_deg": 10.2029, "yaw_deg": -43.1103, "roll_deg": -6.0642, "lat_deg": 34.039662799999995, "lon_deg": -117.8164552, "altitude_rel_ft": -0.1017, "ground_speed_ft_s": 0.164, "vel_north_m_s": 0.03, "vel_east_m_s": 0.04, "vel_down_m_s": 0.02, "battery_remain_pct": 9900.0}
{"t_rx_ms": 1776453845758, "run_id": "20260417_115956", "seq": 829, "pitch_deg": 10.2029, "yaw_deg": -43.1103, "roll_deg": -6.0642, "lat_deg": 34.039662799999995, "lon_deg": -117.8164552, "altitude_rel_ft": -0.1017, "ground_speed_ft_s": 0.164, "vel_north_m_s": 0.03, "vel_east_m_s": 0.04, "vel_down_m_s": 0.02, "battery_remain_pct": 9900.0}
{"t_rx_ms": 1776453845960, "run_id": "20260417_115956", "seq": 830, "pitch_deg": 10.2029, "yaw_deg": -43.1103, "roll_deg": -6.0642, "lat_deg": 34.039662799999995, "lon_deg": -117.8164552, "altitude_rel_ft": -0.1017, "ground_speed_ft_s": 0.164, "vel_north_m_s": 0.03, "vel_east_m_s": 0.04, "vel_down_m_s": 0.02, "battery_remain_pct": 9900.0}
{"t_rx_ms": 1776453846165, "run_id": "20260417_115956", "seq": 831, "pitch_deg": 10.2029, "yaw_deg": -43.1103, "roll_deg": -6.0642, "lat_deg": 34.039662799999995, "lon_deg": -117.8164552, "altitude_rel_ft": -0.1017, "ground_speed_ft_s": 0.164, "vel_north_m_s": 0.03, "vel_east_m_s": 0.04, "vel_down_m_s": 0.02, "battery_remain_pct": 9900.0}
{"t_rx_ms": 1776453846364, "run_id": "20260417_115956", "seq": 832, "pitch_deg": 10.2238, "yaw_deg": -42.9537, "roll_deg": -6.072, "lat_deg": 34.0396627, "lon_deg": -117.8164549, "altitude_rel_ft": -0.2231, "ground_speed_ft_s": 0.1913, "vel_north_m_s": 0.03, "vel_east_m_s": 0.05, "vel_down_m_s": 0.02, "battery_remain_pct": 9900.0}
{"t_rx_ms": 1776453846564, "run_id": "20260417_115956", "seq": 833, "pitch_deg": 10.2238, "yaw_deg": -42.9537, "roll_deg": -6.072, "lat_deg": 34.0396627, "lon_deg": -117.8164549, "altitude_rel_ft": -0.2231, "ground_speed_ft_s": 0.1913, "vel_north_m_s": 0.03, "vel_east_m_s": 0.05, "vel_down_m_s": 0.02, "battery_remain_pct": 9900.0}
{"t_rx_ms": 1776453846770, "run_id": "20260417_115956", "seq": 834, "pitch_deg": 10.2238, "yaw_deg": -42.9537, "roll_deg": -6.072, "lat_deg": 34.0396627, "lon_deg": -117.8164549, "altitude_rel_ft": -0.2231, "ground_speed_ft_s": 0.1913, "vel_north_m_s": 0.03, "vel_east_m_s": 0.05, "vel_down_m_s": 0.02, "battery_remain_pct": 9900.0}
{"t_rx_ms": 1776453846970, "run_id": "20260417_115956", "seq": 835, "pitch_deg": 10.2238, "yaw_deg": -42.9537, "roll_deg": -6.072, "lat_deg": 34.0396627, "lon_deg": -117.8164549, "altitude_rel_ft": -0.2231, "ground_speed_ft_s": 0.1913, "vel_north_m_s": 0.03, "vel_east_m_s": 0.05, "vel_down_m_s": 0.02, "battery_remain_pct": 9900.0}
{"t_rx_ms": 1776453847171, "run_id": "20260417_115956", "seq": 836, "pitch_deg": 10.2238, "yaw_deg": -42.9537, "roll_deg": -6.072, "lat_deg": 34.0396627, "lon_deg": -117.8164549, "altitude_rel_ft": -0.2231, "ground_speed_ft_s": 0.1913, "vel_north_m_s": 0.03, "vel_east_m_s": 0.05, "vel_down_m_s": 0.02, "battery_remain_pct": 9900.0}
{"t_rx_ms": 1776453847374, "run_id": "20260417_115956", "seq": 837, "pitch_deg": 10.2128, "yaw_deg": -42.7808, "roll_deg": -6.0857, "lat_deg": 34.0396625, "lon_deg": -117.81645479999999, "altitude_rel_ft": -0.4462, "ground_speed_ft_s": 0.1467, "vel_north_m_s": 0.02, "vel_east_m_s": 0.04, "vel_down_m_s": 0.03, "battery_remain_pct": 9900.0}
{"t_rx_ms": 1776453847576, "run_id": "20260417_115956", "seq": 838, "pitch_deg": 10.2128, "yaw_deg": -42.7808, "roll_deg": -6.0857, "lat_deg": 34.0396625, "lon_deg": -117.81645479999999, "altitude_rel_ft": -0.4462, "ground_speed_ft_s": 0.1467, "vel_north_m_s": 0.02, "vel_east_m_s": 0.04, "vel_down_m_s": 0.03, "battery_remain_pct": 9900.0}
{"t_rx_ms": 1776453847779, "run_id": "20260417_115956", "seq": 839, "pitch_deg": 10.2128, "yaw_deg": -42.7808, "roll_deg": -6.0857, "lat_deg": 34.0396625, "lon_deg": -117.81645479999999, "altitude_rel_ft": -0.4462, "ground_speed_ft_s": 0.1467, "vel_north_m_s": 0.02, "vel_east_m_s": 0.04, "vel_down_m_s": 0.03, "battery_remain_pct": 9900.0}
{"t_rx_ms": 1776453847983, "run_id": "20260417_115956", "seq": 840, "pitch_deg": 10.2128, "yaw_deg": -42.7808, "roll_deg": -6.0857, "lat_deg": 34.0396625, "lon_deg": -117.81645479999999, "altitude_rel_ft": -0.4462, "ground_speed_ft_s": 0.1467, "vel_north_m_s": 0.02, "vel_east_m_s": 0.04, "vel_down_m_s": 0.03, "battery_remain_pct": 9900.0}
{"t_rx_ms": 1776453848186, "run_id": "20260417_115956", "seq": 841, "pitch_deg": 10.2128, "yaw_deg": -42.7808, "roll_deg": -6.0857, "lat_deg": 34.0396625, "lon_deg": -117.81645479999999, "altitude_rel_ft": -0.4462, "ground_speed_ft_s": 0.1467, "vel_north_m_s": 0.02, "vel_east_m_s": 0.04, "vel_down_m_s": 0.03, "battery_remain_pct": 9900.0}
{"t_rx_ms": 1776453848386, "run_id": "20260417_115956", "seq": 842, "pitch_deg": 10.1904, "yaw_deg": -42.6277, "roll_deg": -6.1155, "lat_deg": 34.039662299999996, "lon_deg": -117.8164549, "altitude_rel_ft": -0.6234, "ground_speed_ft_s": 0.1037, "vel_north_m_s": 0.01, "vel_east_m_s": 0.03, "vel_down_m_s": 0.03, "battery_remain_pct": 9900.0}
{"t_rx_ms": 1776453848592, "run_id": "20260417_115956", "seq": 843, "pitch_deg": 10.1904, "yaw_deg": -42.6277, "roll_deg": -6.1155, "lat_deg": 34.039662299999996, "lon_deg": -117.8164549, "altitude_rel_ft": -0.6234, "ground_speed_ft_s": 0.1037, "vel_north_m_s": 0.01, "vel_east_m_s": 0.03, "vel_down_m_s": 0.03, "battery_remain_pct": 9900.0}
{"t_rx_ms": 1776453848796, "run_id": "20260417_115956", "seq": 844, "pitch_deg": 10.1904, "yaw_deg": -42.6277, "roll_deg": -6.1155, "lat_deg": 34.039662299999996, "lon_deg": -117.8164549, "altitude_rel_ft": -0.6234, "ground_speed_ft_s": 0.1037, "vel_north_m_s": 0.01, "vel_east_m_s": 0.03, "vel_down_m_s": 0.03, "battery_remain_pct": 9900.0}
{"t_rx_ms": 1776453848998, "run_id": "20260417_115956", "seq": 845, "pitch_deg": 10.1904, "yaw_deg": -42.6277, "roll_deg": -6.1155, "lat_deg": 34.039662299999996, "lon_deg": -117.8164549, "altitude_rel_ft": -0.6234, "ground_speed_ft_s": 0.1037, "vel_north_m_s": 0.01, "vel_east_m_s": 0.03, "vel_down_m_s": 0.03, "battery_remain_pct": 9900.0}
{"t_rx_ms": 1776453849199, "run_id": "20260417_115956", "seq": 846, "pitch_deg": 10.1904, "yaw_deg": -42.6277, "roll_deg": -6.1155, "lat_deg": 34.039662299999996, "lon_deg": -117.8164549, "altitude_rel_ft": -0.6234, "ground_speed_ft_s": 0.1037, "vel_north_m_s": 0.01, "vel_east_m_s": 0.03, "vel_down_m_s": 0.03, "battery_remain_pct": 9900.0}
{"t_rx_ms": 1776453849401, "run_id": "20260417_115956", "seq": 847, "pitch_deg": 10.1856, "yaw_deg": -42.4632, "roll_deg": -6.1099, "lat_deg": 34.0396624, "lon_deg": -117.8164551, "altitude_rel_ft": -0.4954, "ground_speed_ft_s": 0.1183, "vel_north_m_s": 0.03, "vel_east_m_s": 0.02, "vel_down_m_s": 0.02, "battery_remain_pct": 9900.0}
{"t_rx_ms": 1776453849604, "run_id": "20260417_115956", "seq": 848, "pitch_deg": 10.1856, "yaw_deg": -42.4632, "roll_deg": -6.1099, "lat_deg": 34.0396624, "lon_deg": -117.8164551, "altitude_rel_ft": -0.4954, "ground_speed_ft_s": 0.1183, "vel_north_m_s": 0.03, "vel_east_m_s": 0.02, "vel_down_m_s": 0.02, "battery_remain_pct": 9900.0}
{"t_rx_ms": 1776453849807, "run_id": "20260417_115956", "seq": 849, "pitch_deg": 10.1856, "yaw_deg": -42.4632, "roll_deg": -6.1099, "lat_deg": 34.0396624, "lon_deg": -117.8164551, "altitude_rel_ft": -0.4954, "ground_speed_ft_s": 0.1183, "vel_north_m_s": 0.03, "vel_east_m_s": 0.02, "vel_down_m_s": 0.02, "battery_remain_pct": 9900.0}
{"t_rx_ms": 1776453850008, "run_id": "20260417_115956", "seq": 850, "pitch_deg": 10.1856, "yaw_deg": -42.4632, "roll_deg": -6.1099, "lat_deg": 34.0396624, "lon_deg": -117.8164551, "altitude_rel_ft": -0.4954, "ground_speed_ft_s": 0.1183, "vel_north_m_s": 0.03, "vel_east_m_s": 0.02, "vel_down_m_s": 0.02, "battery_remain_pct": 9900.0}
{"t_rx_ms": 1776453850210, "run_id": "20260417_115956", "seq": 851, "pitch_deg": 10.1856, "yaw_deg": -42.4632, "roll_deg": -6.1099, "lat_deg": 34.0396624, "lon_deg": -117.8164551, "altitude_rel_ft": -0.4954, "ground_speed_ft_s": 0.1183, "vel_north_m_s": 0.03, "vel_east_m_s": 0.02, "vel_down_m_s": 0.02, "battery_remain_pct": 9900.0}
{"t_rx_ms": 1776453850412, "run_id": "20260417_115956", "seq": 852, "pitch_deg": 10.1607, "yaw_deg": -42.264, "roll_deg": -6.1402, "lat_deg": 34.0396626, "lon_deg": -117.81645549999999, "altitude_rel_ft": 0.0066, "ground_speed_ft_s": 0.1312, "vel_north_m_s": 0.04, "vel_east_m_s": 0.0, "vel_down_m_s": 0.02, "battery_remain_pct": 9900.0}
{"t_rx_ms": 1776453850615, "run_id": "20260417_115956", "seq": 853, "pitch_deg": 10.1607, "yaw_deg": -42.264, "roll_deg": -6.1402, "lat_deg": 34.0396626, "lon_deg": -117.81645549999999, "altitude_rel_ft": 0.0066, "ground_speed_ft_s": 0.1312, "vel_north_m_s": 0.04, "vel_east_m_s": 0.0, "vel_down_m_s": 0.02, "battery_remain_pct": 9900.0}
{"t_rx_ms": 1776453850815, "run_id": "20260417_115956", "seq": 854, "pitch_deg": 10.1607, "yaw_deg": -42.264, "roll_deg": -6.1402, "lat_deg": 34.0396626, "lon_deg": -117.81645549999999, "altitude_rel_ft": 0.0066, "ground_speed_ft_s": 0.1312, "vel_north_m_s": 0.04, "vel_east_m_s": 0.0, "vel_down_m_s": 0.02, "battery_remain_pct": 9900.0}
{"t_rx_ms": 1776453851017, "run_id": "20260417_115956", "seq": 855, "pitch_deg": 10.1607, "yaw_deg": -42.264, "roll_deg": -6.1402, "lat_deg": 34.0396626, "lon_deg": -117.81645549999999, "altitude_rel_ft": 0.0066, "ground_speed_ft_s": 0.1312, "vel_north_m_s": 0.04, "vel_east_m_s": 0.0, "vel_down_m_s": 0.02, "battery_remain_pct": 9900.0}
{"t_rx_ms": 1776453851220, "run_id": "20260417_115956", "seq": 856, "pitch_deg": 10.1607, "yaw_deg": -42.264, "roll_deg": -6.1402, "lat_deg": 34.0396626, "lon_deg": -117.81645549999999, "altitude_rel_ft": 0.0066, "ground_speed_ft_s": 0.1312, "vel_north_m_s": 0.04, "vel_east_m_s": 0.0, "vel_down_m_s": 0.02, "battery_remain_pct": 9900.0}
{"t_rx_ms": 1776453851422, "run_id": "20260417_115956", "seq": 857, "pitch_deg": 10.1513, "yaw_deg": -42.0666, "roll_deg": -6.1348, "lat_deg": 34.0396627, "lon_deg": -117.8164558, "altitude_rel_ft": 0.0591, "ground_speed_ft_s": 0.1312, "vel_north_m_s": 0.04, "vel_east_m_s": 0.0, "vel_down_m_s": 0.01, "battery_remain_pct": 9900.0}
{"t_rx_ms": 1776453851627, "run_id": "20260417_115956", "seq": 858, "pitch_deg": 10.1513, "yaw_deg": -42.0666, "roll_deg": -6.1348, "lat_deg": 34.0396627, "lon_deg": -117.8164558, "altitude_rel_ft": 0.0591, "ground_speed_ft_s": 0.1312, "vel_north_m_s": 0.04, "vel_east_m_s": 0.0, "vel_down_m_s": 0.01, "battery_remain_pct": 9900.0}
{"t_rx_ms": 1776453851829, "run_id": "20260417_115956", "seq": 859, "pitch_deg": 10.1513, "yaw_deg": -42.0666, "roll_deg": -6.1348, "lat_deg": 34.0396627, "lon_deg": -117.8164558, "altitude_rel_ft": 0.0591, "ground_speed_ft_s": 0.1312, "vel_north_m_s": 0.04, "vel_east_m_s": 0.0, "vel_down_m_s": 0.01, "battery_remain_pct": 9900.0}
{"t_rx_ms": 1776453852035, "run_id": "20260417_115956", "seq": 860, "pitch_deg": 10.1513, "yaw_deg": -42.0666, "roll_deg": -6.1348, "lat_deg": 34.0396627, "lon_deg": -117.8164558, "altitude_rel_ft": 0.0591, "ground_speed_ft_s": 0.1312, "vel_north_m_s": 0.04, "vel_east_m_s": 0.0, "vel_down_m_s": 0.01, "battery_remain_pct": 9900.0}
{"t_rx_ms": 1776453852237, "run_id": "20260417_115956", "seq": 861, "pitch_deg": 10.1513, "yaw_deg": -42.0666, "roll_deg": -6.1348, "lat_deg": 34.0396627, "lon_deg": -117.8164558, "altitude_rel_ft": 0.0591, "ground_speed_ft_s": 0.1312, "vel_north_m_s": 0.04, "vel_east_m_s": 0.0, "vel_down_m_s": 0.01, "battery_remain_pct": 9900.0}
{"t_rx_ms": 1776453852440, "run_id": "20260417_115956", "seq": 862, "pitch_deg": 10.156, "yaw_deg": -41.8552, "roll_deg": -6.1306, "lat_deg": 34.039662799999995, "lon_deg": -117.81645619999999, "altitude_rel_ft": 0.164, "ground_speed_ft_s": 0.1312, "vel_north_m_s": 0.04, "vel_east_m_s": 0.0, "vel_down_m_s": 0.0, "battery_remain_pct": 9900.0}
{"t_rx_ms": 1776453852644, "run_id": "20260417_115956", "seq": 863, "pitch_deg": 10.156, "yaw_deg": -41.8552, "roll_deg": -6.1306, "lat_deg": 34.039662799999995, "lon_deg": -117.81645619999999, "altitude_rel_ft": 0.164, "ground_speed_ft_s": 0.1312, "vel_north_m_s": 0.04, "vel_east_m_s": 0.0, "vel_down_m_s": 0.0, "battery_remain_pct": 9900.0}
{"t_rx_ms": 1776453852845, "run_id": "20260417_115956", "seq": 864, "pitch_deg": 10.156, "yaw_deg": -41.8552, "roll_deg": -6.1306, "lat_deg": 34.039662799999995, "lon_deg": -117.81645619999999, "altitude_rel_ft": 0.164, "ground_speed_ft_s": 0.1312, "vel_north_m_s": 0.04, "vel_east_m_s": 0.0, "vel_down_m_s": 0.0, "battery_remain_pct": 9900.0}
{"t_rx_ms": 1776453853047, "run_id": "20260417_115956", "seq": 865, "pitch_deg": 10.156, "yaw_deg": -41.8552, "roll_deg": -6.1306, "lat_deg": 34.039662799999995, "lon_deg": -117.81645619999999, "altitude_rel_ft": 0.164, "ground_speed_ft_s": 0.1312, "vel_north_m_s": 0.04, "vel_east_m_s": 0.0, "vel_down_m_s": 0.0, "battery_remain_pct": 9900.0}
{"t_rx_ms": 1776453853248, "run_id": "20260417_115956", "seq": 866, "pitch_deg": 10.1501, "yaw_deg": -41.6627, "roll_deg": -6.1183, "lat_deg": 34.039662899999996, "lon_deg": -117.8164565, "altitude_rel_ft": 0.2756, "ground_speed_ft_s": 0.1353, "vel_north_m_s": 0.04, "vel_east_m_s": -0.01, "vel_down_m_s": 0.0, "battery_remain_pct": 9900.0}
{"t_rx_ms": 1776453853449, "run_id": "20260417_115956", "seq": 867, "pitch_deg": 10.1501, "yaw_deg": -41.6627, "roll_deg": -6.1183, "lat_deg": 34.039662899999996, "lon_deg": -117.8164565, "altitude_rel_ft": 0.2756, "ground_speed_ft_s": 0.1353, "vel_north_m_s": 0.04, "vel_east_m_s": -0.01, "vel_down_m_s": 0.0, "battery_remain_pct": 9900.0}
{"t_rx_ms": 1776453853649, "run_id": "20260417_115956", "seq": 868, "pitch_deg": 10.1501, "yaw_deg": -41.6627, "roll_deg": -6.1183, "lat_deg": 34.039662899999996, "lon_deg": -117.8164565, "altitude_rel_ft": 0.2756, "ground_speed_ft_s": 0.1353, "vel_north_m_s": 0.04, "vel_east_m_s": -0.01, "vel_down_m_s": 0.0, "battery_remain_pct": 9900.0}
{"t_rx_ms": 1776453853850, "run_id": "20260417_115956", "seq": 869, "pitch_deg": 10.1501, "yaw_deg": -41.6627, "roll_deg": -6.1183, "lat_deg": 34.039662899999996, "lon_deg": -117.8164565, "altitude_rel_ft": 0.2756, "ground_speed_ft_s": 0.1353, "vel_north_m_s": 0.04, "vel_east_m_s": -0.01, "vel_down_m_s": 0.0, "battery_remain_pct": 9900.0}
{"t_rx_ms": 1776453854051, "run_id": "20260417_115956", "seq": 870, "pitch_deg": 10.1501, "yaw_deg": -41.6627, "roll_deg": -6.1183, "lat_deg": 34.039662899999996, "lon_deg": -117.8164565, "altitude_rel_ft": 0.2756, "ground_speed_ft_s": 0.1353, "vel_north_m_s": 0.04, "vel_east_m_s": -0.01, "vel_down_m_s": 0.0, "battery_remain_pct": 9900.0}
{"t_rx_ms": 1776453854251, "run_id": "20260417_115956", "seq": 871, "pitch_deg": 10.1659, "yaw_deg": -41.4579, "roll_deg": -6.1245, "lat_deg": 34.039663, "lon_deg": -117.8164568, "altitude_rel_ft": 0.315, "ground_speed_ft_s": 0.1353, "vel_north_m_s": 0.04, "vel_east_m_s": -0.01, "vel_down_m_s": 0.0, "battery_remain_pct": 9900.0}
{"t_rx_ms": 1776453854453, "run_id": "20260417_115956", "seq": 872, "pitch_deg": 10.1659, "yaw_deg": -41.4579, "roll_deg": -6.1245, "lat_deg": 34.039663, "lon_deg": -117.8164568, "altitude_rel_ft": 0.315, "ground_speed_ft_s": 0.1353, "vel_north_m_s": 0.04, "vel_east_m_s": -0.01, "vel_down_m_s": 0.0, "battery_remain_pct": 9900.0}
{"t_rx_ms": 1776453854655, "run_id": "20260417_115956", "seq": 873, "pitch_deg": 10.1659, "yaw_deg": -41.4579, "roll_deg": -6.1245, "lat_deg": 34.039663, "lon_deg": -117.8164568, "altitude_rel_ft": 0.315, "ground_speed_ft_s": 0.1353, "vel_north_m_s": 0.04, "vel_east_m_s": -0.01, "vel_down_m_s": 0.0, "battery_remain_pct": 9900.0}
{"t_rx_ms": 1776453854854, "run_id": "20260417_115956", "seq": 874, "pitch_deg": 10.1659, "yaw_deg": -41.4579, "roll_deg": -6.1245, "lat_deg": 34.039663, "lon_deg": -117.8164568, "altitude_rel_ft": 0.315, "ground_speed_ft_s": 0.1353, "vel_north_m_s": 0.04, "vel_east_m_s": -0.01, "vel_down_m_s": 0.0, "battery_remain_pct": 9900.0}
{"t_rx_ms": 1776453855056, "run_id": "20260417_115956", "seq": 875, "pitch_deg": 10.1659, "yaw_deg": -41.4579, "roll_deg": -6.1245, "lat_deg": 34.039663, "lon_deg": -117.8164568, "altitude_rel_ft": 0.315, "ground_speed_ft_s": 0.1353, "vel_north_m_s": 0.04, "vel_east_m_s": -0.01, "vel_down_m_s": 0.0, "battery_remain_pct": 9900.0}
{"t_rx_ms": 1776453855258, "run_id": "20260417_115956", "seq": 876, "pitch_deg": 10.1861, "yaw_deg": -41.2213, "roll_deg": -6.1602, "lat_deg": 34.039663, "lon_deg": -117.8164571, "altitude_rel_ft": 0.2592, "ground_speed_ft_s": 0.1353, "vel_north_m_s": 0.04, "vel_east_m_s": -0.01, "vel_down_m_s": 0.0, "battery_remain_pct": 9900.0}
{"t_rx_ms": 1776453855481, "run_id": "20260417_115956", "seq": 877, "pitch_deg": 10.1861, "yaw_deg": -41.2213, "roll_deg": -6.1602, "lat_deg": 34.039663, "lon_deg": -117.8164571, "altitude_rel_ft": 0.2592, "ground_speed_ft_s": 0.1353, "vel_north_m_s": 0.04, "vel_east_m_s": -0.01, "vel_down_m_s": 0.0, "battery_remain_pct": 9900.0}
{"t_rx_ms": 1776453855681, "run_id": "20260417_115956", "seq": 878, "pitch_deg": 10.1861, "yaw_deg": -41.2213, "roll_deg": -6.1602, "lat_deg": 34.039663, "lon_deg": -117.8164571, "altitude_rel_ft": 0.2592, "ground_speed_ft_s": 0.1353, "vel_north_m_s": 0.04, "vel_east_m_s": -0.01, "vel_down_m_s": 0.0, "battery_remain_pct": 9900.0}
{"t_rx_ms": 1776453855920, "run_id": "20260417_115956", "seq": 879, "pitch_deg": 10.1861, "yaw_deg": -41.2213, "roll_deg": -6.1602, "lat_deg": 34.039663, "lon_deg": -117.8164571, "altitude_rel_ft": 0.2592, "ground_speed_ft_s": 0.1353, "vel_north_m_s": 0.04, "vel_east_m_s": -0.01, "vel_down_m_s": 0.0, "battery_remain_pct": 9900.0}
{"t_rx_ms": 1776453856131, "run_id": "20260417_115956", "seq": 880, "pitch_deg": 10.1861, "yaw_deg": -41.2213, "roll_deg": -6.1602, "lat_deg": 34.039663, "lon_deg": -117.8164571, "altitude_rel_ft": 0.2592, "ground_speed_ft_s": 0.1353, "vel_north_m_s": 0.04, "vel_east_m_s": -0.01, "vel_down_m_s": 0.0, "battery_remain_pct": 9900.0}
{"t_rx_ms": 1776453856334, "run_id": "20260417_115956", "seq": 881, "pitch_deg": 10.199, "yaw_deg": -40.9859, "roll_deg": -6.1461, "lat_deg": 34.039662899999996, "lon_deg": -117.81645739999999, "altitude_rel_ft": -0.0098, "ground_speed_ft_s": 0.1037, "vel_north_m_s": 0.03, "vel_east_m_s": -0.01, "vel_down_m_s": 0.0, "battery_remain_pct": 9900.0}
{"t_rx_ms": 1776453856536, "run_id": "20260417_115956", "seq": 882, "pitch_deg": 10.199, "yaw_deg": -40.9859, "roll_deg": -6.1461, "lat_deg": 34.039662899999996, "lon_deg": -117.81645739999999, "altitude_rel_ft": -0.0098, "ground_speed_ft_s": 0.1037, "vel_north_m_s": 0.03, "vel_east_m_s": -0.01, "vel_down_m_s": 0.0, "battery_remain_pct": 9900.0}
{"t_rx_ms": 1776453856739, "run_id": "20260417_115956", "seq": 883, "pitch_deg": 10.199, "yaw_deg": -40.9859, "roll_deg": -6.1461, "lat_deg": 34.039662899999996, "lon_deg": -117.81645739999999, "altitude_rel_ft": -0.0098, "ground_speed_ft_s": 0.1037, "vel_north_m_s": 0.03, "vel_east_m_s": -0.01, "vel_down_m_s": 0.0, "battery_remain_pct": 9900.0}
{"t_rx_ms": 1776453856940, "run_id": "20260417_115956", "seq": 884, "pitch_deg": 10.199, "yaw_deg": -40.9859, "roll_deg": -6.1461, "lat_deg": 34.039662899999996, "lon_deg": -117.81645739999999, "altitude_rel_ft": -0.0098, "ground_speed_ft_s": 0.1037, "vel_north_m_s": 0.03, "vel_east_m_s": -0.01, "vel_down_m_s": 0.0, "battery_remain_pct": 9900.0}
{"t_rx_ms": 1776453857142, "run_id": "20260417_115956", "seq": 885, "pitch_deg": 10.199, "yaw_deg": -40.9859, "roll_deg": -6.1461, "lat_deg": 34.039662899999996, "lon_deg": -117.81645739999999, "altitude_rel_ft": -0.0098, "ground_speed_ft_s": 0.1037, "vel_north_m_s": 0.03, "vel_east_m_s": -0.01, "vel_down_m_s": 0.0, "battery_remain_pct": 9900.0}
{"t_rx_ms": 1776453857342, "run_id": "20260417_115956", "seq": 886, "pitch_deg": 10.1812, "yaw_deg": -40.7704, "roll_deg": -6.0868, "lat_deg": 34.039663, "lon_deg": -117.81645759999999, "altitude_rel_ft": -0.0164, "ground_speed_ft_s": 0.0984, "vel_north_m_s": 0.03, "vel_east_m_s": 0.0, "vel_down_m_s": 0.01, "battery_remain_pct": 9900.0}
{"t_rx_ms": 1776453857543, "run_id": "20260417_115956", "seq": 887, "pitch_deg": 10.1812, "yaw_deg": -40.7704, "roll_deg": -6.0868, "lat_deg": 34.039663, "lon_deg": -117.81645759999999, "altitude_rel_ft": -0.0164, "ground_speed_ft_s": 0.0984, "vel_north_m_s": 0.03, "vel_east_m_s": 0.0, "vel_down_m_s": 0.01, "battery_remain_pct": 9900.0}
{"t_rx_ms": 1776453857746, "run_id": "20260417_115956", "seq": 888, "pitch_deg": 10.1812, "yaw_deg": -40.7704, "roll_deg": -6.0868, "lat_deg": 34.039663, "lon_deg": -117.81645759999999, "altitude_rel_ft": -0.0164, "ground_speed_ft_s": 0.0984, "vel_north_m_s": 0.03, "vel_east_m_s": 0.0, "vel_down_m_s": 0.01, "battery_remain_pct": 9900.0}
{"t_rx_ms": 1776453857947, "run_id": "20260417_115956", "seq": 889, "pitch_deg": 10.1812, "yaw_deg": -40.7704, "roll_deg": -6.0868, "lat_deg": 34.039663, "lon_deg": -117.81645759999999, "altitude_rel_ft": -0.0164, "ground_speed_ft_s": 0.0984, "vel_north_m_s": 0.03, "vel_east_m_s": 0.0, "vel_down_m_s": 0.01, "battery_remain_pct": 9900.0}
{"t_rx_ms": 1776453858148, "run_id": "20260417_115956", "seq": 890, "pitch_deg": 10.1812, "yaw_deg": -40.7704, "roll_deg": -6.0868, "lat_deg": 34.039663, "lon_deg": -117.81645759999999, "altitude_rel_ft": -0.0164, "ground_speed_ft_s": 0.0984, "vel_north_m_s": 0.03, "vel_east_m_s": 0.0, "vel_down_m_s": 0.01, "battery_remain_pct": 9900.0}
{"t_rx_ms": 1776453858350, "run_id": "20260417_115956", "seq": 891, "pitch_deg": 10.208, "yaw_deg": -40.5489, "roll_deg": -6.1063, "lat_deg": 34.0396631, "lon_deg": -117.8164577, "altitude_rel_ft": 0.0, "ground_speed_ft_s": 0.0984, "vel_north_m_s": 0.03, "vel_east_m_s": 0.0, "vel_down_m_s": 0.0, "battery_remain_pct": 9900.0}
{"t_rx_ms": 1776453858555, "run_id": "20260417_115956", "seq": 892, "pitch_deg": 10.208, "yaw_deg": -40.5489, "roll_deg": -6.1063, "lat_deg": 34.0396631, "lon_deg": -117.8164577, "altitude_rel_ft": 0.0, "ground_speed_ft_s": 0.0984, "vel_north_m_s": 0.03, "vel_east_m_s": 0.0, "vel_down_m_s": 0.0, "battery_remain_pct": 9900.0}
{"t_rx_ms": 1776453858756, "run_id": "20260417_115956", "seq": 893, "pitch_deg": 10.208, "yaw_deg": -40.5489, "roll_deg": -6.1063, "lat_deg": 34.0396631, "lon_deg": -117.8164577, "altitude_rel_ft": 0.0, "ground_speed_ft_s": 0.0984, "vel_north_m_s": 0.03, "vel_east_m_s": 0.0, "vel_down_m_s": 0.0, "battery_remain_pct": 9900.0}
{"t_rx_ms": 1776453858957, "run_id": "20260417_115956", "seq": 894, "pitch_deg": 10.208, "yaw_deg": -40.5489, "roll_deg": -6.1063, "lat_deg": 34.0396631, "lon_deg": -117.8164577, "altitude_rel_ft": 0.0, "ground_speed_ft_s": 0.0984, "vel_north_m_s": 0.03, "vel_east_m_s": 0.0, "vel_down_m_s": 0.0, "battery_remain_pct": 9900.0}
{"t_rx_ms": 1776453859159, "run_id": "20260417_115956", "seq": 895, "pitch_deg": 10.208, "yaw_deg": -40.5489, "roll_deg": -6.1063, "lat_deg": 34.0396631, "lon_deg": -117.8164577, "altitude_rel_ft": 0.0, "ground_speed_ft_s": 0.0984, "vel_north_m_s": 0.03, "vel_east_m_s": 0.0, "vel_down_m_s": 0.0, "battery_remain_pct": 9900.0}
{"t_rx_ms": 1776453859361, "run_id": "20260417_115956", "seq": 896, "pitch_deg": 10.1874, "yaw_deg": -40.3051, "roll_deg": -6.0809, "lat_deg": 34.0396632, "lon_deg": -117.8164577, "altitude_rel_ft": -0.0787, "ground_speed_ft_s": 0.1353, "vel_north_m_s": 0.04, "vel_east_m_s": 0.01, "vel_down_m_s": 0.01, "battery_remain_pct": 9900.0}
{"t_rx_ms": 1776453859563, "run_id": "20260417_115956", "seq": 897, "pitch_deg": 10.1874, "yaw_deg": -40.3051, "roll_deg": -6.0809, "lat_deg": 34.0396632, "lon_deg": -117.8164577, "altitude_rel_ft": -0.0787, "ground_speed_ft_s": 0.1353, "vel_north_m_s": 0.04, "vel_east_m_s": 0.01, "vel_down_m_s": 0.01, "battery_remain_pct": 9900.0}
{"t_rx_ms": 1776453859762, "run_id": "20260417_115956", "seq": 898, "pitch_deg": 10.1874, "yaw_deg": -40.3051, "roll_deg": -6.0809, "lat_deg": 34.0396632, "lon_deg": -117.8164577, "altitude_rel_ft": -0.0787, "ground_speed_ft_s": 0.1353, "vel_north_m_s": 0.04, "vel_east_m_s": 0.01, "vel_down_m_s": 0.01, "battery_remain_pct": 9900.0}
{"t_rx_ms": 1776453859964, "run_id": "20260417_115956", "seq": 899, "pitch_deg": 10.1874, "yaw_deg": -40.3051, "roll_deg": -6.0809, "lat_deg": 34.0396632, "lon_deg": -117.8164577, "altitude_rel_ft": -0.0787, "ground_speed_ft_s": 0.1353, "vel_north_m_s": 0.04, "vel_east_m_s": 0.01, "vel_down_m_s": 0.01, "battery_remain_pct": 9900.0}
{"t_rx_ms": 1776453860169, "run_id": "20260417_115956", "seq": 900, "pitch_deg": 10.1874, "yaw_deg": -40.3051, "roll_deg": -6.0809, "lat_deg": 34.0396632, "lon_deg": -117.8164577, "altitude_rel_ft": -0.0787, "ground_speed_ft_s": 0.1353, "vel_north_m_s": 0.04, "vel_east_m_s": 0.01, "vel_down_m_s": 0.01, "battery_remain_pct": 9900.0}
{"t_rx_ms": 1776453860370, "run_id": "20260417_115956", "seq": 901, "pitch_deg": 10.2219, "yaw_deg": -40.0512, "roll_deg": -6.1321, "lat_deg": 34.039663399999995, "lon_deg": -117.8164577, "altitude_rel_ft": -0.1542, "ground_speed_ft_s": 0.1467, "vel_north_m_s": 0.04, "vel_east_m_s": 0.02, "vel_down_m_s": 0.0, "battery_remain_pct": 9900.0}
{"t_rx_ms": 1776453860571, "run_id": "20260417_115956", "seq": 902, "pitch_deg": 10.2219, "yaw_deg": -40.0512, "roll_deg": -6.1321, "lat_deg": 34.039663399999995, "lon_deg": -117.8164577, "altitude_rel_ft": -0.1542, "ground_speed_ft_s": 0.1467, "vel_north_m_s": 0.04, "vel_east_m_s": 0.02, "vel_down_m_s": 0.0, "battery_remain_pct": 9900.0}
{"t_rx_ms": 1776453860772, "run_id": "20260417_115956", "seq": 903, "pitch_deg": 10.2219, "yaw_deg": -40.0512, "roll_deg": -6.1321, "lat_deg": 34.039663399999995, "lon_deg": -117.8164577, "altitude_rel_ft": -0.1542, "ground_speed_ft_s": 0.1467, "vel_north_m_s": 0.04, "vel_east_m_s": 0.02, "vel_down_m_s": 0.0, "battery_remain_pct": 9900.0}
{"t_rx_ms": 1776453860975, "run_id": "20260417_115956", "seq": 904, "pitch_deg": 10.2219, "yaw_deg": -40.0512, "roll_deg": -6.1321, "lat_deg": 34.039663399999995, "lon_deg": -117.8164577, "altitude_rel_ft": -0.1542, "ground_speed_ft_s": 0.1467, "vel_north_m_s": 0.04, "vel_east_m_s": 0.02, "vel_down_m_s": 0.0, "battery_remain_pct": 9900.0}
{"t_rx_ms": 1776453861177, "run_id": "20260417_115956", "seq": 905, "pitch_deg": 10.2219, "yaw_deg": -40.0512, "roll_deg": -6.1321, "lat_deg": 34.039663399999995, "lon_deg": -117.8164577, "altitude_rel_ft": -0.1542, "ground_speed_ft_s": 0.1467, "vel_north_m_s": 0.04, "vel_east_m_s": 0.02, "vel_down_m_s": 0.0, "battery_remain_pct": 9900.0}
{"t_rx_ms": 1776453861381, "run_id": "20260417_115956", "seq": 906, "pitch_deg": 10.2006, "yaw_deg": -39.815, "roll_deg": -6.0668, "lat_deg": 34.039663399999995, "lon_deg": -117.8164575, "altitude_rel_ft": -0.1969, "ground_speed_ft_s": 0.1392, "vel_north_m_s": 0.03, "vel_east_m_s": 0.03, "vel_down_m_s": 0.02, "battery_remain_pct": 9900.0}
{"t_rx_ms": 1776453861583, "run_id": "20260417_115956", "seq": 907, "pitch_deg": 10.2006, "yaw_deg": -39.815, "roll_deg": -6.0668, "lat_deg": 34.039663399999995, "lon_deg": -117.8164575, "altitude_rel_ft": -0.1969, "ground_speed_ft_s": 0.1392, "vel_north_m_s": 0.03, "vel_east_m_s": 0.03, "vel_down_m_s": 0.02, "battery_remain_pct": 9900.0}
{"t_rx_ms": 1776453861787, "run_id": "20260417_115956", "seq": 908, "pitch_deg": 10.2006, "yaw_deg": -39.815, "roll_deg": -6.0668, "lat_deg": 34.039663399999995, "lon_deg": -117.8164575, "altitude_rel_ft": -0.1969, "ground_speed_ft_s": 0.1392, "vel_north_m_s": 0.03, "vel_east_m_s": 0.03, "vel_down_m_s": 0.02, "battery_remain_pct": 9900.0}
{"t_rx_ms": 1776453861988, "run_id": "20260417_115956", "seq": 909, "pitch_deg": 10.2006, "yaw_deg": -39.815, "roll_deg": -6.0668, "lat_deg": 34.039663399999995, "lon_deg": -117.8164575, "altitude_rel_ft": -0.1969, "ground_speed_ft_s": 0.1392, "vel_north_m_s": 0.03, "vel_east_m_s": 0.03, "vel_down_m_s": 0.02, "battery_remain_pct": 9900.0}
{"t_rx_ms": 1776453862190, "run_id": "20260417_115956", "seq": 910, "pitch_deg": 10.2006, "yaw_deg": -39.815, "roll_deg": -6.0668, "lat_deg": 34.039663399999995, "lon_deg": -117.8164575, "altitude_rel_ft": -0.1969, "ground_speed_ft_s": 0.1392, "vel_north_m_s": 0.03, "vel_east_m_s": 0.03, "vel_down_m_s": 0.02, "battery_remain_pct": 9900.0}
{"t_rx_ms": 1776453862390, "run_id": "20260417_115956", "seq": 911, "pitch_deg": 10.2216, "yaw_deg": -39.5621, "roll_deg": -6.1156, "lat_deg": 34.039663399999995, "lon_deg": -117.81645759999999, "altitude_rel_ft": 0.0066, "ground_speed_ft_s": 0.0928, "vel_north_m_s": 0.02, "vel_east_m_s": 0.02, "vel_down_m_s": 0.01, "battery_remain_pct": 9900.0}
{"t_rx_ms": 1776453862592, "run_id": "20260417_115956", "seq": 912, "pitch_deg": 10.2216, "yaw_deg": -39.5621, "roll_deg": -6.1156, "lat_deg": 34.039663399999995, "lon_deg": -117.81645759999999, "altitude_rel_ft": 0.0066, "ground_speed_ft_s": 0.0928, "vel_north_m_s": 0.02, "vel_east_m_s": 0.02, "vel_down_m_s": 0.01, "battery_remain_pct": 9900.0}
{"t_rx_ms": 1776453862792, "run_id": "20260417_115956", "seq": 913, "pitch_deg": 10.2216, "yaw_deg": -39.5621, "roll_deg": -6.1156, "lat_deg": 34.039663399999995, "lon_deg": -117.81645759999999, "altitude_rel_ft": 0.0066, "ground_speed_ft_s": 0.0928, "vel_north_m_s": 0.02, "vel_east_m_s": 0.02, "vel_down_m_s": 0.01, "battery_remain_pct": 9900.0}
{"t_rx_ms": 1776453862993, "run_id": "20260417_115956", "seq": 914, "pitch_deg": 10.2216, "yaw_deg": -39.5621, "roll_deg": -6.1156, "lat_deg": 34.039663399999995, "lon_deg": -117.81645759999999, "altitude_rel_ft": 0.0066, "ground_speed_ft_s": 0.0928, "vel_north_m_s": 0.02, "vel_east_m_s": 0.02, "vel_down_m_s": 0.01, "battery_remain_pct": 9900.0}
{"t_rx_ms": 1776453863195, "run_id": "20260417_115956", "seq": 915, "pitch_deg": 10.2216, "yaw_deg": -39.5621, "roll_deg": -6.1156, "lat_deg": 34.039663399999995, "lon_deg": -117.81645759999999, "altitude_rel_ft": 0.0066, "ground_speed_ft_s": 0.0928, "vel_north_m_s": 0.02, "vel_east_m_s": 0.02, "vel_down_m_s": 0.01, "battery_remain_pct": 9900.0}
{"t_rx_ms": 1776453863397, "run_id": "20260417_115956", "seq": 916, "pitch_deg": 10.21, "yaw_deg": -39.3148, "roll_deg": -6.1336, "lat_deg": 34.0396633, "lon_deg": -117.8164577, "altitude_rel_ft": 0.0394, "ground_speed_ft_s": 0.0464, "vel_north_m_s": 0.01, "vel_east_m_s": 0.01, "vel_down_m_s": 0.02, "battery_remain_pct": 9900.0}
{"t_rx_ms": 1776453863601, "run_id": "20260417_115956", "seq": 917, "pitch_deg": 10.21, "yaw_deg": -39.3148, "roll_deg": -6.1336, "lat_deg": 34.0396633, "lon_deg": -117.8164577, "altitude_rel_ft": 0.0394, "ground_speed_ft_s": 0.0464, "vel_north_m_s": 0.01, "vel_east_m_s": 0.01, "vel_down_m_s": 0.02, "battery_remain_pct": 9900.0}
{"t_rx_ms": 1776453863805, "run_id": "20260417_115956", "seq": 918, "pitch_deg": 10.21, "yaw_deg": -39.3148, "roll_deg": -6.1336, "lat_deg": 34.0396633, "lon_deg": -117.8164577, "altitude_rel_ft": 0.0394, "ground_speed_ft_s": 0.0464, "vel_north_m_s": 0.01, "vel_east_m_s": 0.01, "vel_down_m_s": 0.02, "battery_remain_pct": 9900.0}
{"t_rx_ms": 1776453864014, "run_id": "20260417_115956", "seq": 919, "pitch_deg": 10.21, "yaw_deg": -39.3148, "roll_deg": -6.1336, "lat_deg": 34.0396633, "lon_deg": -117.8164577, "altitude_rel_ft": 0.0394, "ground_speed_ft_s": 0.0464, "vel_north_m_s": 0.01, "vel_east_m_s": 0.01, "vel_down_m_s": 0.02, "battery_remain_pct": 9900.0}
{"t_rx_ms": 1776453864217, "run_id": "20260417_115956", "seq": 920, "pitch_deg": 10.21, "yaw_deg": -39.3148, "roll_deg": -6.1336, "lat_deg": 34.0396633, "lon_deg": -117.8164577, "altitude_rel_ft": 0.0394, "ground_speed_ft_s": 0.0464, "vel_north_m_s": 0.01, "vel_east_m_s": 0.01, "vel_down_m_s": 0.02, "battery_remain_pct": 9900.0}
{"t_rx_ms": 1776453864422, "run_id": "20260417_115956", "seq": 921, "pitch_deg": 10.2416, "yaw_deg": -39.0543, "roll_deg": -6.162, "lat_deg": 34.0396632, "lon_deg": -117.8164578, "altitude_rel_ft": 0.023, "ground_speed_ft_s": 0.0464, "vel_north_m_s": 0.01, "vel_east_m_s": 0.01, "vel_down_m_s": 0.01, "battery_remain_pct": 9900.0}
{"t_rx_ms": 1776453864640, "run_id": "20260417_115956", "seq": 922, "pitch_deg": 10.2416, "yaw_deg": -39.0543, "roll_deg": -6.162, "lat_deg": 34.0396632, "lon_deg": -117.8164578, "altitude_rel_ft": 0.023, "ground_speed_ft_s": 0.0464, "vel_north_m_s": 0.01, "vel_east_m_s": 0.01, "vel_down_m_s": 0.01, "battery_remain_pct": 9900.0}
{"t_rx_ms": 1776453864842, "run_id": "20260417_115956", "seq": 923, "pitch_deg": 10.2416, "yaw_deg": -39.0543, "roll_deg": -6.162, "lat_deg": 34.0396632, "lon_deg": -117.8164578, "altitude_rel_ft": 0.023, "ground_speed_ft_s": 0.0464, "vel_north_m_s": 0.01, "vel_east_m_s": 0.01, "vel_down_m_s": 0.01, "battery_remain_pct": 9900.0}
{"t_rx_ms": 1776453865043, "run_id": "20260417_115956", "seq": 924, "pitch_deg": 10.2416, "yaw_deg": -39.0543, "roll_deg": -6.162, "lat_deg": 34.0396632, "lon_deg": -117.8164578, "altitude_rel_ft": 0.023, "ground_speed_ft_s": 0.0464, "vel_north_m_s": 0.01, "vel_east_m_s": 0.01, "vel_down_m_s": 0.01, "battery_remain_pct": 9900.0}
{"t_rx_ms": 1776453865243, "run_id": "20260417_115956", "seq": 925, "pitch_deg": 10.2295, "yaw_deg": -38.8061, "roll_deg": -6.1763, "lat_deg": 34.0396632, "lon_deg": -117.81645789999999, "altitude_rel_ft": 0.0459, "ground_speed_ft_s": 0.0464, "vel_north_m_s": 0.01, "vel_east_m_s": 0.01, "vel_down_m_s": 0.01, "battery_remain_pct": 9900.0}
{"t_rx_ms": 1776453865445, "run_id": "20260417_115956", "seq": 926, "pitch_deg": 10.2295, "yaw_deg": -38.8061, "roll_deg": -6.1763, "lat_deg": 34.0396632, "lon_deg": -117.81645789999999, "altitude_rel_ft": 0.0459, "ground_speed_ft_s": 0.0464, "vel_north_m_s": 0.01, "vel_east_m_s": 0.01, "vel_down_m_s": 0.01, "battery_remain_pct": 9900.0}
{"t_rx_ms": 1776453865646, "run_id": "20260417_115956", "seq": 927, "pitch_deg": 10.2295, "yaw_deg": -38.8061, "roll_deg": -6.1763, "lat_deg": 34.0396632, "lon_deg": -117.81645789999999, "altitude_rel_ft": 0.0459, "ground_speed_ft_s": 0.0464, "vel_north_m_s": 0.01, "vel_east_m_s": 0.01, "vel_down_m_s": 0.01, "battery_remain_pct": 9900.0}
{"t_rx_ms": 1776453865846, "run_id": "20260417_115956", "seq": 928, "pitch_deg": 10.2295, "yaw_deg": -38.8061, "roll_deg": -6.1763, "lat_deg": 34.0396632, "lon_deg": -117.81645789999999, "altitude_rel_ft": 0.0459, "ground_speed_ft_s": 0.0464, "vel_north_m_s": 0.01, "vel_east_m_s": 0.01, "vel_down_m_s": 0.01, "battery_remain_pct": 9900.0}
{"t_rx_ms": 1776453866051, "run_id": "20260417_115956", "seq": 929, "pitch_deg": 10.2295, "yaw_deg": -38.8061, "roll_deg": -6.1763, "lat_deg": 34.0396632, "lon_deg": -117.81645789999999, "altitude_rel_ft": 0.0459, "ground_speed_ft_s": 0.0464, "vel_north_m_s": 0.01, "vel_east_m_s": 0.01, "vel_down_m_s": 0.01, "battery_remain_pct": 9900.0}
{"t_rx_ms": 1776453866253, "run_id": "20260417_115956", "seq": 930, "pitch_deg": 10.2246, "yaw_deg": -38.5376, "roll_deg": -6.1547, "lat_deg": 34.0396632, "lon_deg": -117.81645789999999, "altitude_rel_ft": 0.0525, "ground_speed_ft_s": 0.0464, "vel_north_m_s": 0.01, "vel_east_m_s": 0.01, "vel_down_m_s": 0.01, "battery_remain_pct": 9900.0}
{"t_rx_ms": 1776453866457, "run_id": "20260417_115956", "seq": 931, "pitch_deg": 10.2246, "yaw_deg": -38.5376, "roll_deg": -6.1547, "lat_deg": 34.0396632, "lon_deg": -117.81645789999999, "altitude_rel_ft": 0.0525, "ground_speed_ft_s": 0.0464, "vel_north_m_s": 0.01, "vel_east_m_s": 0.01, "vel_down_m_s": 0.01, "battery_remain_pct": 9900.0}
{"t_rx_ms": 1776453866657, "run_id": "20260417_115956", "seq": 932, "pitch_deg": 10.2246, "yaw_deg": -38.5376, "roll_deg": -6.1547, "lat_deg": 34.0396632, "lon_deg": -117.81645789999999, "altitude_rel_ft": 0.0525, "ground_speed_ft_s": 0.0464, "vel_north_m_s": 0.01, "vel_east_m_s": 0.01, "vel_down_m_s": 0.01, "battery_remain_pct": 9900.0}
{"t_rx_ms": 1776453866859, "run_id": "20260417_115956", "seq": 933, "pitch_deg": 10.2246, "yaw_deg": -38.5376, "roll_deg": -6.1547, "lat_deg": 34.0396632, "lon_deg": -117.81645789999999, "altitude_rel_ft": 0.0525, "ground_speed_ft_s": 0.0464, "vel_north_m_s": 0.01, "vel_east_m_s": 0.01, "vel_down_m_s": 0.01, "battery_remain_pct": 9900.0}
{"t_rx_ms": 1776453867058, "run_id": "20260417_115956", "seq": 934, "pitch_deg": 10.2246, "yaw_deg": -38.5376, "roll_deg": -6.1547, "lat_deg": 34.0396632, "lon_deg": -117.81645789999999, "altitude_rel_ft": 0.0525, "ground_speed_ft_s": 0.0464, "vel_north_m_s": 0.01, "vel_east_m_s": 0.01, "vel_down_m_s": 0.01, "battery_remain_pct": 9900.0}
{"t_rx_ms": 1776453867260, "run_id": "20260417_115956", "seq": 935, "pitch_deg": 10.2253, "yaw_deg": -38.2629, "roll_deg": -6.1695, "lat_deg": 34.0396632, "lon_deg": -117.81645789999999, "altitude_rel_ft": -0.023, "ground_speed_ft_s": 0.0734, "vel_north_m_s": 0.01, "vel_east_m_s": 0.02, "vel_down_m_s": 0.01, "battery_remain_pct": 9900.0}
{"t_rx_ms": 1776453867464, "run_id": "20260417_115956", "seq": 936, "pitch_deg": 10.2253, "yaw_deg": -38.2629, "roll_deg": -6.1695, "lat_deg": 34.0396632, "lon_deg": -117.81645789999999, "altitude_rel_ft": -0.023, "ground_speed_ft_s": 0.0734, "vel_north_m_s": 0.01, "vel_east_m_s": 0.02, "vel_down_m_s": 0.01, "battery_remain_pct": 9900.0}
{"t_rx_ms": 1776453867666, "run_id": "20260417_115956", "seq": 937, "pitch_deg": 10.2253, "yaw_deg": -38.2629, "roll_deg": -6.1695, "lat_deg": 34.0396632, "lon_deg": -117.81645789999999, "altitude_rel_ft": -0.023, "ground_speed_ft_s": 0.0734, "vel_north_m_s": 0.01, "vel_east_m_s": 0.02, "vel_down_m_s": 0.01, "battery_remain_pct": 9900.0}
{"t_rx_ms": 1776453867867, "run_id": "20260417_115956", "seq": 938, "pitch_deg": 10.2253, "yaw_deg": -38.2629, "roll_deg": -6.1695, "lat_deg": 34.0396632, "lon_deg": -117.81645789999999, "altitude_rel_ft": -0.023, "ground_speed_ft_s": 0.0734, "vel_north_m_s": 0.01, "vel_east_m_s": 0.02, "vel_down_m_s": 0.01, "battery_remain_pct": 9900.0}
{"t_rx_ms": 1776453868069, "run_id": "20260417_115956", "seq": 939, "pitch_deg": 10.2253, "yaw_deg": -38.2629, "roll_deg": -6.1695, "lat_deg": 34.0396632, "lon_deg": -117.81645789999999, "altitude_rel_ft": -0.023, "ground_speed_ft_s": 0.0734, "vel_north_m_s": 0.01, "vel_east_m_s": 0.02, "vel_down_m_s": 0.01, "battery_remain_pct": 9900.0}
{"t_rx_ms": 1776453868269, "run_id": "20260417_115956", "seq": 940, "pitch_deg": 10.1894, "yaw_deg": -37.9951, "roll_deg": -6.1469, "lat_deg": 34.039663399999995, "lon_deg": -117.81645789999999, "altitude_rel_ft": 0.1345, "ground_speed_ft_s": 0.1037, "vel_north_m_s": 0.03, "vel_east_m_s": 0.01, "vel_down_m_s": 0.01, "battery_remain_pct": 9900.0}
{"t_rx_ms": 1776453868470, "run_id": "20260417_115956", "seq": 941, "pitch_deg": 10.1894, "yaw_deg": -37.9951, "roll_deg": -6.1469, "lat_deg": 34.039663399999995, "lon_deg": -117.81645789999999, "altitude_rel_ft": 0.1345, "ground_speed_ft_s": 0.1037, "vel_north_m_s": 0.03, "vel_east_m_s": 0.01, "vel_down_m_s": 0.01, "battery_remain_pct": 9900.0}
{"t_rx_ms": 1776453868674, "run_id": "20260417_115956", "seq": 942, "pitch_deg": 10.1894, "yaw_deg": -37.9951, "roll_deg": -6.1469, "lat_deg": 34.039663399999995, "lon_deg": -117.81645789999999, "altitude_rel_ft": 0.1345, "ground_speed_ft_s": 0.1037, "vel_north_m_s": 0.03, "vel_east_m_s": 0.01, "vel_down_m_s": 0.01, "battery_remain_pct": 9900.0}
{"t_rx_ms": 1776453868872, "run_id": "20260417_115956", "seq": 943, "pitch_deg": 10.1894, "yaw_deg": -37.9951, "roll_deg": -6.1469, "lat_deg": 34.039663399999995, "lon_deg": -117.81645789999999, "altitude_rel_ft": 0.1345, "ground_speed_ft_s": 0.1037, "vel_north_m_s": 0.03, "vel_east_m_s": 0.01, "vel_down_m_s": 0.01, "battery_remain_pct": 9900.0}
{"t_rx_ms": 1776453869073, "run_id": "20260417_115956", "seq": 944, "pitch_deg": 10.1894, "yaw_deg": -37.9951, "roll_deg": -6.1469, "lat_deg": 34.039663399999995, "lon_deg": -117.81645789999999, "altitude_rel_ft": 0.1345, "ground_speed_ft_s": 0.1037, "vel_north_m_s": 0.03, "vel_east_m_s": 0.01, "vel_down_m_s": 0.01, "battery_remain_pct": 9900.0}
