{"t_rx_ms": 1773434441015, "run_id": "20260313_130557", "seq": 66, "pitch_deg": 7.7836, "yaw_deg": 137.7524, "roll_deg": 4.4174, "lat_deg": 34.0395514, "lon_deg": -117.81632809999999, "altitude_rel_ft": 0.0656, "ground_speed_ft_s": 0.0734, "vel_north_m_s": 0.01, "vel_east_m_s": 0.02, "vel_down_m_s": 0.0, "battery_remain_pct": 9900.0}
{"t_rx_ms": 1773434441214, "run_id": "20260313_130557", "seq": 67, "pitch_deg": 7.7836, "yaw_deg": 137.7524, "roll_deg": 4.4174, "lat_deg": 34.0395514, "lon_deg": -117.81632809999999, "altitude_rel_ft": 0.0656, "ground_speed_ft_s": 0.0734, "vel_north_m_s": 0.01, "vel_east_m_s": 0.02, "vel_down_m_s": 0.0, "battery_remain_pct": 9900.0}
{"t_rx_ms": 1773434441415, "run_id": "20260313_130557", "seq": 68, "pitch_deg": 7.7836, "yaw_deg": 137.7524, "roll_deg": 4.4174, "lat_deg": 34.0395514, "lon_deg": -117.81632809999999, "altitude_rel_ft": 0.0656, "ground_speed_ft_s": 0.0734, "vel_north_m_s": 0.01, "vel_east_m_s": 0.02, "vel_down_m_s": 0.0, "battery_remain_pct": 9900.0}
{"t_rx_ms": 1773434441617, "run_id": "20260313_130557", "seq": 69, "pitch_deg": 7.7836, "yaw_deg": 137.7524, "roll_deg": 4.4174, "lat_deg": 34.0395514, "lon_deg": -117.81632809999999, "altitude_rel_ft": 0.0656, "ground_speed_ft_s": 0.0734, "vel_north_m_s": 0.01, "vel_east_m_s": 0.02, "vel_down_m_s": 0.0, "battery_remain_pct": 9900.0}
{"t_rx_ms": 1773434441817, "run_id": "20260313_130557", "seq": 70, "pitch_deg": 7.7836, "yaw_deg": 137.7524, "roll_deg": 4.4174, "lat_deg": 34.0395514, "lon_deg": -117.81632809999999, "altitude_rel_ft": 0.0656, "ground_speed_ft_s": 0.0734, "vel_north_m_s": 0.01, "vel_east_m_s": 0.02, "vel_down_m_s": 0.0, "battery_remain_pct": 9900.0}
{"t_rx_ms": 1773434442018, "run_id": "20260313_130557", "seq": 71, "pitch_deg": 7.7571, "yaw_deg": 137.6644, "roll_deg": 4.4388, "lat_deg": 34.0395514, "lon_deg": -117.81632769999999, "altitude_rel_ft": 0.0656, "ground_speed_ft_s": 0.0984, "vel_north_m_s": 0.0, "vel_east_m_s": 0.03, "vel_down_m_s": 0.04, "battery_remain_pct": 9900.0}
{"t_rx_ms": 1773434442218, "run_id": "20260313_130557", "seq": 72, "pitch_deg": 7.7571, "yaw_deg": 137.6644, "roll_deg": 4.4388, "lat_deg": 34.0395514, "lon_deg": -117.81632769999999, "altitude_rel_ft": 0.0656, "ground_speed_ft_s": 0.0984, "vel_north_m_s": 0.0, "vel_east_m_s": 0.03, "vel_down_m_s": 0.04, "battery_remain_pct": 9900.0}
{"t_rx_ms": 1773434442419, "run_id": "20260313_130557", "seq": 73, "pitch_deg": 7.7571, "yaw_deg": 137.6644, "roll_deg": 4.4388, "lat_deg": 34.0395514, "lon_deg": -117.81632769999999, "altitude_rel_ft": 0.0656, "ground_speed_ft_s": 0.0984, "vel_north_m_s": 0.0, "vel_east_m_s": 0.03, "vel_down_m_s": 0.04, "battery_remain_pct": 9900.0}
{"t_rx_ms": 1773434442619, "run_id": "20260313_130557", "seq": 74, "pitch_deg": 7.7571, "yaw_deg": 137.6644, "roll_deg": 4.4388, "lat_deg": 34.0395514, "lon_deg": -117.81632769999999, "altitude_rel_ft": 0.0656, "ground_speed_ft_s": 0.0984, "vel_north_m_s": 0.0, "vel_east_m_s": 0.03, "vel_down_m_s": 0.04, "battery_remain_pct": 9900.0}
{"t_rx_ms": 1773434442820, "run_id": "20260313_130557", "seq": 75, "pitch_deg": 7.7571, "yaw_deg": 137.6644, "roll_deg": 4.4388, "lat_deg": 34.0395514, "lon_deg": -117.81632769999999, "altitude_rel_ft": 0.0656, "ground_speed_ft_s": 0.0984, "vel_north_m_s": 0.0, "vel_east_m_s": 0.03, "vel_down_m_s": 0.04, "battery_remain_pct": 9900.0}
{"t_rx_ms": 1773434443021, "run_id": "20260313_130557", "seq": 76, "pitch_deg": 7.7024, "yaw_deg": 137.5835, "roll_deg": 4.4722, "lat_deg": 34.039550999999996, "lon_deg": -117.8163276, "altitude_rel_ft": -0.4331, "ground_speed_ft_s": 0.1467, "vel_north_m_s": -0.04, "vel_east_m_s": 0.02, "vel_down_m_s": 0.04, "battery_remain_pct": 9900.0}
{"t_rx_ms": 1773434443221, "run_id": "20260313_130557", "seq": 77, "pitch_deg": 7.7024, "yaw_deg": 137.5835, "roll_deg": 4.4722, "lat_deg": 34.039550999999996, "lon_deg": -117.8163276, "altitude_rel_ft": -0.4331, "ground_speed_ft_s": 0.1467, "vel_north_m_s": -0.04, "vel_east_m_s": 0.02, "vel_down_m_s": 0.04, "battery_remain_pct": 9900.0}
{"t_rx_ms": 1773434443422, "run_id": "20260313_130557", "seq": 78, "pitch_deg": 7.7024, "yaw_deg": 137.5835, "roll_deg": 4.4722, "lat_deg": 34.039550999999996, "lon_deg": -117.8163276, "altitude_rel_ft": -0.4331, "ground_speed_ft_s": 0.1467, "vel_north_m_s": -0.04, "vel_east_m_s": 0.02, "vel_down_m_s": 0.04, "battery_remain_pct": 9900.0}
{"t_rx_ms": 1773434443622, "run_id": "20260313_130557", "seq": 79, "pitch_deg": 7.7024, "yaw_deg": 137.5835, "roll_deg": 4.4722, "lat_deg": 34.039550999999996, "lon_deg": -117.8163276, "altitude_rel_ft": -0.4331, "ground_speed_ft_s": 0.1467, "vel_north_m_s": -0.04, "vel_east_m_s": 0.02, "vel_down_m_s": 0.04, "battery_remain_pct": 9900.0}
{"t_rx_ms": 1773434443822, "run_id": "20260313_130557", "seq": 80, "pitch_deg": 7.7024, "yaw_deg": 137.5835, "roll_deg": 4.4722, "lat_deg": 34.039550999999996, "lon_deg": -117.8163276, "altitude_rel_ft": -0.4331, "ground_speed_ft_s": 0.1467, "vel_north_m_s": -0.04, "vel_east_m_s": 0.02, "vel_down_m_s": 0.04, "battery_remain_pct": 9900.0}
{"t_rx_ms": 1773434444024, "run_id": "20260313_130557", "seq": 81, "pitch_deg": 7.9006, "yaw_deg": 137.5225, "roll_deg": 4.4702, "lat_deg": 34.0395508, "lon_deg": -117.8163275, "altitude_rel_ft": 0.0951, "ground_speed_ft_s": 0.0984, "vel_north_m_s": 0.0, "vel_east_m_s": -0.03, "vel_down_m_s": -0.02, "battery_remain_pct": 9900.0}
{"t_rx_ms": 1773434444224, "run_id": "20260313_130557", "seq": 82, "pitch_deg": 7.9006, "yaw_deg": 137.5225, "roll_deg": 4.4702, "lat_deg": 34.0395508, "lon_deg": -117.8163275, "altitude_rel_ft": 0.0951, "ground_speed_ft_s": 0.0984, "vel_north_m_s": 0.0, "vel_east_m_s": -0.03, "vel_down_m_s": -0.02, "battery_remain_pct": 9900.0}
{"t_rx_ms": 1773434444424, "run_id": "20260313_130557", "seq": 83, "pitch_deg": 7.9006, "yaw_deg": 137.5225, "roll_deg": 4.4702, "lat_deg": 34.0395508, "lon_deg": -117.8163275, "altitude_rel_ft": 0.0951, "ground_speed_ft_s": 0.0984, "vel_north_m_s": 0.0, "vel_east_m_s": -0.03, "vel_down_m_s": -0.02, "battery_remain_pct": 9900.0}
{"t_rx_ms": 1773434444625, "run_id": "20260313_130557", "seq": 84, "pitch_deg": 7.9006, "yaw_deg": 137.5225, "roll_deg": 4.4702, "lat_deg": 34.0395508, "lon_deg": -117.8163275, "altitude_rel_ft": 0.0951, "ground_speed_ft_s": 0.0984, "vel_north_m_s": 0.0, "vel_east_m_s": -0.03, "vel_down_m_s": -0.02, "battery_remain_pct": 9900.0}
{"t_rx_ms": 1773434444825, "run_id": "20260313_130557", "seq": 85, "pitch_deg": 7.9006, "yaw_deg": 137.5225, "roll_deg": 4.4702, "lat_deg": 34.0395508, "lon_deg": -117.8163275, "altitude_rel_ft": 0.0951, "ground_speed_ft_s": 0.0984, "vel_north_m_s": 0.0, "vel_east_m_s": -0.03, "vel_down_m_s": -0.02, "battery_remain_pct": 9900.0}
{"t_rx_ms": 1773434445026, "run_id": "20260313_130557", "seq": 86, "pitch_deg": 8.0513, "yaw_deg": 137.4318, "roll_deg": 4.4835, "lat_deg": 34.0395507, "lon_deg": -117.81632739999999, "altitude_rel_ft": -0.0853, "ground_speed_ft_s": 0.0464, "vel_north_m_s": 0.01, "vel_east_m_s": -0.01, "vel_down_m_s": -0.08, "battery_remain_pct": 9900.0}
{"t_rx_ms": 1773434445227, "run_id": "20260313_130557", "seq": 87, "pitch_deg": 8.0513, "yaw_deg": 137.4318, "roll_deg": 4.4835, "lat_deg": 34.0395507, "lon_deg": -117.81632739999999, "altitude_rel_ft": -0.0853, "ground_speed_ft_s": 0.0464, "vel_north_m_s": 0.01, "vel_east_m_s": -0.01, "vel_down_m_s": -0.08, "battery_remain_pct": 9900.0}
{"t_rx_ms": 1773434445427, "run_id": "20260313_130557", "seq": 88, "pitch_deg": 8.0513, "yaw_deg": 137.4318, "roll_deg": 4.4835, "lat_deg": 34.0395507, "lon_deg": -117.81632739999999, "altitude_rel_ft": -0.0853, "ground_speed_ft_s": 0.0464, "vel_north_m_s": 0.01, "vel_east_m_s": -0.01, "vel_down_m_s": -0.08, "battery_remain_pct": 9900.0}
{"t_rx_ms": 1773434445627, "run_id": "20260313_130557", "seq": 89, "pitch_deg": 8.0513, "yaw_deg": 137.4318, "roll_deg": 4.4835, "lat_deg": 34.0395507, "lon_deg": -117.81632739999999, "altitude_rel_ft": -0.0853, "ground_speed_ft_s": 0.0464, "vel_north_m_s": 0.01, "vel_east_m_s": -0.01, "vel_down_m_s": -0.08, "battery_remain_pct": 9900.0}
{"t_rx_ms": 1773434445828, "run_id": "20260313_130557", "seq": 90, "pitch_deg": 8.0513, "yaw_deg": 137.4318, "roll_deg": 4.4835, "lat_deg": 34.0395507, "lon_deg": -117.81632739999999, "altitude_rel_ft": -0.0853, "ground_speed_ft_s": 0.0464, "vel_north_m_s": 0.01, "vel_east_m_s": -0.01, "vel_down_m_s": -0.08, "battery_remain_pct": 9900.0}
{"t_rx_ms": 1773434446029, "run_id": "20260313_130557", "seq": 91, "pitch_deg": 8.0023, "yaw_deg": 137.3475, "roll_deg": 4.4819, "lat_deg": 34.0395505, "lon_deg": -117.81632739999999, "altitude_rel_ft": 0.4331, "ground_speed_ft_s": 0.1037, "vel_north_m_s": -0.03, "vel_east_m_s": 0.01, "vel_down_m_s": 0.0, "battery_remain_pct": 9900.0}
{"t_rx_ms": 1773434446229, "run_id": "20260313_130557", "seq": 92, "pitch_deg": 8.0023, "yaw_deg": 137.3475, "roll_deg": 4.4819, "lat_deg": 34.0395505, "lon_deg": -117.81632739999999, "altitude_rel_ft": 0.4331, "ground_speed_ft_s": 0.1037, "vel_north_m_s": -0.03, "vel_east_m_s": 0.01, "vel_down_m_s": 0.0, "battery_remain_pct": 9900.0}
{"t_rx_ms": 1773434446430, "run_id": "20260313_130557", "seq": 93, "pitch_deg": 8.0023, "yaw_deg": 137.3475, "roll_deg": 4.4819, "lat_deg": 34.0395505, "lon_deg": -117.81632739999999, "altitude_rel_ft": 0.4331, "ground_speed_ft_s": 0.1037, "vel_north_m_s": -0.03, "vel_east_m_s": 0.01, "vel_down_m_s": 0.0, "battery_remain_pct": 9900.0}
{"t_rx_ms": 1773434446630, "run_id": "20260313_130557", "seq": 94, "pitch_deg": 8.0023, "yaw_deg": 137.3475, "roll_deg": 4.4819, "lat_deg": 34.0395505, "lon_deg": -117.81632739999999, "altitude_rel_ft": 0.4331, "ground_speed_ft_s": 0.1037, "vel_north_m_s": -0.03, "vel_east_m_s": 0.01, "vel_down_m_s": 0.0, "battery_remain_pct": 9900.0}
{"t_rx_ms": 1773434446830, "run_id": "20260313_130557", "seq": 95, "pitch_deg": 8.0023, "yaw_deg": 137.3475, "roll_deg": 4.4819, "lat_deg": 34.0395505, "lon_deg": -117.81632739999999, "altitude_rel_ft": 0.4331, "ground_speed_ft_s": 0.1037, "vel_north_m_s": -0.03, "vel_east_m_s": 0.01, "vel_down_m_s": 0.0, "battery_remain_pct": 9900.0}
{"t_rx_ms": 1773434447032, "run_id": "20260313_130557", "seq": 96, "pitch_deg": 8.0033, "yaw_deg": 137.259, "roll_deg": 4.49, "lat_deg": 34.0395503, "lon_deg": -117.81632719999999, "altitude_rel_ft": 0.7316, "ground_speed_ft_s": 0.0328, "vel_north_m_s": -0.01, "vel_east_m_s": 0.0, "vel_down_m_s": -0.06, "battery_remain_pct": 9900.0}
{"t_rx_ms": 1773434447232, "run_id": "20260313_130557", "seq": 97, "pitch_deg": 8.0033, "yaw_deg": 137.259, "roll_deg": 4.49, "lat_deg": 34.0395503, "lon_deg": -117.81632719999999, "altitude_rel_ft": 0.7316, "ground_speed_ft_s": 0.0328, "vel_north_m_s": -0.01, "vel_east_m_s": 0.0, "vel_down_m_s": -0.06, "battery_remain_pct": 9900.0}
{"t_rx_ms": 1773434447433, "run_id": "20260313_130557", "seq": 98, "pitch_deg": 8.0033, "yaw_deg": 137.259, "roll_deg": 4.49, "lat_deg": 34.0395503, "lon_deg": -117.81632719999999, "altitude_rel_ft": 0.7316, "ground_speed_ft_s": 0.0328, "vel_north_m_s": -0.01, "vel_east_m_s": 0.0, "vel_down_m_s": -0.06, "battery_remain_pct": 9900.0}
{"t_rx_ms": 1773434447634, "run_id": "20260313_130557", "seq": 99, "pitch_deg": 8.0033, "yaw_deg": 137.259, "roll_deg": 4.49, "lat_deg": 34.0395503, "lon_deg": -117.81632719999999, "altitude_rel_ft": 0.7316, "ground_speed_ft_s": 0.0328, "vel_north_m_s": -0.01, "vel_east_m_s": 0.0, "vel_down_m_s": -0.06, "battery_remain_pct": 9900.0}
{"t_rx_ms": 1773434447835, "run_id": "20260313_130557", "seq": 100, "pitch_deg": 8.0033, "yaw_deg": 137.259, "roll_deg": 4.49, "lat_deg": 34.0395503, "lon_deg": -117.81632719999999, "altitude_rel_ft": 0.7316, "ground_speed_ft_s": 0.0328, "vel_north_m_s": -0.01, "vel_east_m_s": 0.0, "vel_down_m_s": -0.06, "battery_remain_pct": 9900.0}
{"t_rx_ms": 1773434448036, "run_id": "20260313_130557", "seq": 101, "pitch_deg": 8.0538, "yaw_deg": 137.1623, "roll_deg": 4.4836, "lat_deg": 34.0395503, "lon_deg": -117.8163271, "altitude_rel_ft": 0.4724, "ground_speed_ft_s": 0.0734, "vel_north_m_s": 0.02, "vel_east_m_s": -0.01, "vel_down_m_s": -0.07, "battery_remain_pct": 9900.0}
