{"t_rx_ms": 1776460220743, "run_id": "20260417_140815", "seq": 0, "pitch_deg": 11.4877, "yaw_deg": -29.2439, "roll_deg": -67.0403, "lat_deg": 34.0407088, "lon_deg": -117.8154682, "altitude_rel_ft": 0.584, "ground_speed_ft_s": 0.0464, "vel_north_m_s": -0.01, "vel_east_m_s": -0.01, "vel_down_m_s": -0.02, "battery_remain_pct": 9900.0}
{"t_rx_ms": 1776460220948, "run_id": "20260417_140815", "seq": 1, "pitch_deg": 11.4877, "yaw_deg": -29.2439, "roll_deg": -67.0403, "lat_deg": 34.0407088, "lon_deg": -117.8154682, "altitude_rel_ft": 0.584, "ground_speed_ft_s": 0.0464, "vel_north_m_s": -0.01, "vel_east_m_s": -0.01, "vel_down_m_s": -0.02, "battery_remain_pct": 9900.0}
{"t_rx_ms": 1776460221152, "run_id": "20260417_140815", "seq": 2, "pitch_deg": 11.4877, "yaw_deg": -29.2439, "roll_deg": -67.0403, "lat_deg": 34.0407088, "lon_deg": -117.8154682, "altitude_rel_ft": 0.584, "ground_speed_ft_s": 0.0464, "vel_north_m_s": -0.01, "vel_east_m_s": -0.01, "vel_down_m_s": -0.02, "battery_remain_pct": 9900.0}
{"t_rx_ms": 1776460221355, "run_id": "20260417_140815", "seq": 3, "pitch_deg": 11.4877, "yaw_deg": -29.2439, "roll_deg": -67.0403, "lat_deg": 34.0407088, "lon_deg": -117.8154682, "altitude_rel_ft": 0.584, "ground_speed_ft_s": 0.0464, "vel_north_m_s": -0.01, "vel_east_m_s": -0.01, "vel_down_m_s": -0.02, "battery_remain_pct": 9900.0}
{"t_rx_ms": 1776460221555, "run_id": "20260417_140815", "seq": 4, "pitch_deg": 11.4877, "yaw_deg": -29.2439, "roll_deg": -67.0403, "lat_deg": 34.0407088, "lon_deg": -117.8154682, "altitude_rel_ft": 0.584, "ground_speed_ft_s": 0.0464, "vel_north_m_s": -0.01, "vel_east_m_s": -0.01, "vel_down_m_s": -0.02, "battery_remain_pct": 9900.0}
{"t_rx_ms": 1776460221756, "run_id": "20260417_140815", "seq": 5, "pitch_deg": 11.4795, "yaw_deg": -29.1917, "roll_deg": -67.1367, "lat_deg": 34.0407088, "lon_deg": -117.81546829999999, "altitude_rel_ft": 0.561, "ground_speed_ft_s": 0.0, "vel_north_m_s": 0.0, "vel_east_m_s": 0.0, "vel_down_m_s": -0.01, "battery_remain_pct": 9900.0}
{"t_rx_ms": 1776460221959, "run_id": "20260417_140815", "seq": 6, "pitch_deg": 11.4795, "yaw_deg": -29.1917, "roll_deg": -67.1367, "lat_deg": 34.0407088, "lon_deg": -117.81546829999999, "altitude_rel_ft": 0.561, "ground_speed_ft_s": 0.0, "vel_north_m_s": 0.0, "vel_east_m_s": 0.0, "vel_down_m_s": -0.01, "battery_remain_pct": 9900.0}
{"t_rx_ms": 1776460222161, "run_id": "20260417_140815", "seq": 7, "pitch_deg": 11.4795, "yaw_deg": -29.1917, "roll_deg": -67.1367, "lat_deg": 34.0407088, "lon_deg": -117.81546829999999, "altitude_rel_ft": 0.561, "ground_speed_ft_s": 0.0, "vel_north_m_s": 0.0, "vel_east_m_s": 0.0, "vel_down_m_s": -0.01, "battery_remain_pct": 9900.0}
{"t_rx_ms": 1776460222361, "run_id": "20260417_140815", "seq": 8, "pitch_deg": 11.4795, "yaw_deg": -29.1917, "roll_deg": -67.1367, "lat_deg": 34.0407088, "lon_deg": -117.81546829999999, "altitude_rel_ft": 0.561, "ground_speed_ft_s": 0.0, "vel_north_m_s": 0.0, "vel_east_m_s": 0.0, "vel_down_m_s": -0.01, "battery_remain_pct": 9900.0}
{"t_rx_ms": 1776460222562, "run_id": "20260417_140815", "seq": 9, "pitch_deg": 11.4795, "yaw_deg": -29.1917, "roll_deg": -67.1367, "lat_deg": 34.0407088, "lon_deg": -117.81546829999999, "altitude_rel_ft": 0.561, "ground_speed_ft_s": 0.0, "vel_north_m_s": 0.0, "vel_east_m_s": 0.0, "vel_down_m_s": -0.01, "battery_remain_pct": 9900.0}
{"t_rx_ms": 1776460222770, "run_id": "20260417_140815", "seq": 10, "pitch_deg": 11.4779, "yaw_deg": -29.1229, "roll_deg": -67.19, "lat_deg": 34.0407088, "lon_deg": -117.8154682, "altitude_rel_ft": 0.0197, "ground_speed_ft_s": 0.0, "vel_north_m_s": 0.0, "vel_east_m_s": 0.0, "vel_down_m_s": -0.01, "battery_remain_pct": 9900.0}
{"t_rx_ms": 1776460222970, "run_id": "20260417_140815", "seq": 11, "pitch_deg": 11.4779, "yaw_deg": -29.1229, "roll_deg": -67.19, "lat_deg": 34.0407088, "lon_deg": -117.8154682, "altitude_rel_ft": 0.0197, "ground_speed_ft_s": 0.0, "vel_north_m_s": 0.0, "vel_east_m_s": 0.0, "vel_down_m_s": -0.01, "battery_remain_pct": 9900.0}
{"t_rx_ms": 1776460223178, "run_id": "20260417_140815", "seq": 12, "pitch_deg": 11.4779, "yaw_deg": -29.1229, "roll_deg": -67.19, "lat_deg": 34.0407088, "lon_deg": -117.8154682, "altitude_rel_ft": 0.0197, "ground_speed_ft_s": 0.0, "vel_north_m_s": 0.0, "vel_east_m_s": 0.0, "vel_down_m_s": -0.01, "battery_remain_pct": 9900.0}
{"t_rx_ms": 1776460223377, "run_id": "20260417_140815", "seq": 13, "pitch_deg": 11.4779, "yaw_deg": -29.1229, "roll_deg": -67.19, "lat_deg": 34.0407088, "lon_deg": -117.8154682, "altitude_rel_ft": 0.0197, "ground_speed_ft_s": 0.0, "vel_north_m_s": 0.0, "vel_east_m_s": 0.0, "vel_down_m_s": -0.01, "battery_remain_pct": 9900.0}
{"t_rx_ms": 1776460223578, "run_id": "20260417_140815", "seq": 14, "pitch_deg": 11.56, "yaw_deg": -29.0075, "roll_deg": -67.1262, "lat_deg": 34.0407088, "lon_deg": -117.8154682, "altitude_rel_ft": 0.0656, "ground_speed_ft_s": 0.0, "vel_north_m_s": 0.0, "vel_east_m_s": 0.0, "vel_down_m_s": -0.01, "battery_remain_pct": 9900.0}
{"t_rx_ms": 1776460223781, "run_id": "20260417_140815", "seq": 15, "pitch_deg": 11.56, "yaw_deg": -29.0075, "roll_deg": -67.1262, "lat_deg": 34.0407088, "lon_deg": -117.8154682, "altitude_rel_ft": 0.0656, "ground_speed_ft_s": 0.0, "vel_north_m_s": 0.0, "vel_east_m_s": 0.0, "vel_down_m_s": -0.01, "battery_remain_pct": 9900.0}
{"t_rx_ms": 1776460223981, "run_id": "20260417_140815", "seq": 16, "pitch_deg": 11.56, "yaw_deg": -29.0075, "roll_deg": -67.1262, "lat_deg": 34.0407088, "lon_deg": -117.8154682, "altitude_rel_ft": 0.0656, "ground_speed_ft_s": 0.0, "vel_north_m_s": 0.0, "vel_east_m_s": 0.0, "vel_down_m_s": -0.01, "battery_remain_pct": 9900.0}
{"t_rx_ms": 1776460224182, "run_id": "20260417_140815", "seq": 17, "pitch_deg": 11.56, "yaw_deg": -29.0075, "roll_deg": -67.1262, "lat_deg": 34.0407088, "lon_deg": -117.8154682, "altitude_rel_ft": 0.0656, "ground_speed_ft_s": 0.0, "vel_north_m_s": 0.0, "vel_east_m_s": 0.0, "vel_down_m_s": -0.01, "battery_remain_pct": 9900.0}
{"t_rx_ms": 1776460224386, "run_id": "20260417_140815", "seq": 18, "pitch_deg": 11.56, "yaw_deg": -29.0075, "roll_deg": -67.1262, "lat_deg": 34.0407088, "lon_deg": -117.8154682, "altitude_rel_ft": 0.0656, "ground_speed_ft_s": 0.0, "vel_north_m_s": 0.0, "vel_east_m_s": 0.0, "vel_down_m_s": -0.01, "battery_remain_pct": 9900.0}
{"t_rx_ms": 1776460224586, "run_id": "20260417_140815", "seq": 19, "pitch_deg": 11.56, "yaw_deg": -29.0075, "roll_deg": -67.1262, "lat_deg": 34.0407088, "lon_deg": -117.8154682, "altitude_rel_ft": 0.0656, "ground_speed_ft_s": 0.0, "vel_north_m_s": 0.0, "vel_east_m_s": 0.0, "vel_down_m_s": -0.01, "battery_remain_pct": 9900.0}
{"t_rx_ms": 1776460224787, "run_id": "20260417_140815", "seq": 20, "pitch_deg": 11.5131, "yaw_deg": -29.0333, "roll_deg": -67.1814, "lat_deg": 34.040708599999995, "lon_deg": -117.8154682, "altitude_rel_ft": 0.1312, "ground_speed_ft_s": 0.0, "vel_north_m_s": 0.0, "vel_east_m_s": 0.0, "vel_down_m_s": -0.01, "battery_remain_pct": 9900.0}
{"t_rx_ms": 1776460224995, "run_id": "20260417_140815", "seq": 21, "pitch_deg": 11.5131, "yaw_deg": -29.0333, "roll_deg": -67.1814, "lat_deg": 34.040708599999995, "lon_deg": -117.8154682, "altitude_rel_ft": 0.1312, "ground_speed_ft_s": 0.0, "vel_north_m_s": 0.0, "vel_east_m_s": 0.0, "vel_down_m_s": -0.01, "battery_remain_pct": 9900.0}
{"t_rx_ms": 1776460225194, "run_id": "20260417_140815", "seq": 22, "pitch_deg": 11.5131, "yaw_deg": -29.0333, "roll_deg": -67.1814, "lat_deg": 34.040708599999995, "lon_deg": -117.8154682, "altitude_rel_ft": 0.1312, "ground_speed_ft_s": 0.0, "vel_north_m_s": 0.0, "vel_east_m_s": 0.0, "vel_down_m_s": -0.01, "battery_remain_pct": 9900.0}
{"t_rx_ms": 1776460225394, "run_id": "20260417_140815", "seq": 23, "pitch_deg": 11.5131, "yaw_deg": -29.0333, "roll_deg": -67.1814, "lat_deg": 34.040708599999995, "lon_deg": -117.8154682, "altitude_rel_ft": 0.1312, "ground_speed_ft_s": 0.0, "vel_north_m_s": 0.0, "vel_east_m_s": 0.0, "vel_down_m_s": -0.01, "battery_remain_pct": 9900.0}
{"t_rx_ms": 1776460225595, "run_id": "20260417_140815", "seq": 24, "pitch_deg": 11.5236, "yaw_deg": -28.9389, "roll_deg": -67.2803, "lat_deg": 34.0407084, "lon_deg": -117.8154682, "altitude_rel_ft": 0.1706, "ground_speed_ft_s": 0.0, "vel_north_m_s": 0.0, "vel_east_m_s": 0.0, "vel_down_m_s": -0.01, "battery_remain_pct": 9900.0}
{"t_rx_ms": 1776460225796, "run_id": "20260417_140815", "seq": 25, "pitch_deg": 11.5236, "yaw_deg": -28.9389, "roll_deg": -67.2803, "lat_deg": 34.0407084, "lon_deg": -117.8154682, "altitude_rel_ft": 0.1706, "ground_speed_ft_s": 0.0, "vel_north_m_s": 0.0, "vel_east_m_s": 0.0, "vel_down_m_s": -0.01, "battery_remain_pct": 9900.0}
{"t_rx_ms": 1776460225997, "run_id": "20260417_140815", "seq": 26, "pitch_deg": 11.5236, "yaw_deg": -28.9389, "roll_deg": -67.2803, "lat_deg": 34.0407084, "lon_deg": -117.8154682, "altitude_rel_ft": 0.1706, "ground_speed_ft_s": 0.0, "vel_north_m_s": 0.0, "vel_east_m_s": 0.0, "vel_down_m_s": -0.01, "battery_remain_pct": 9900.0}
{"t_rx_ms": 1776460226198, "run_id": "20260417_140815", "seq": 27, "pitch_deg": 11.5236, "yaw_deg": -28.9389, "roll_deg": -67.2803, "lat_deg": 34.0407084, "lon_deg": -117.8154682, "altitude_rel_ft": 0.1706, "ground_speed_ft_s": 0.0, "vel_north_m_s": 0.0, "vel_east_m_s": 0.0, "vel_down_m_s": -0.01, "battery_remain_pct": 9900.0}
{"t_rx_ms": 1776460226399, "run_id": "20260417_140815", "seq": 28, "pitch_deg": 11.5236, "yaw_deg": -28.9389, "roll_deg": -67.2803, "lat_deg": 34.0407084, "lon_deg": -117.8154682, "altitude_rel_ft": 0.1706, "ground_speed_ft_s": 0.0, "vel_north_m_s": 0.0, "vel_east_m_s": 0.0, "vel_down_m_s": -0.01, "battery_remain_pct": 9900.0}
{"t_rx_ms": 1776460226600, "run_id": "20260417_140815", "seq": 29, "pitch_deg": 11.5454, "yaw_deg": -28.8247, "roll_deg": -67.239, "lat_deg": 34.040708099999996, "lon_deg": -117.8154682, "altitude_rel_ft": 0.1542, "ground_speed_ft_s": 0.0328, "vel_north_m_s": -0.01, "vel_east_m_s": 0.0, "vel_down_m_s": -0.01, "battery_remain_pct": 9900.0}
{"t_rx_ms": 1776460226801, "run_id": "20260417_140815", "seq": 30, "pitch_deg": 11.5454, "yaw_deg": -28.8247, "roll_deg": -67.239, "lat_deg": 34.040708099999996, "lon_deg": -117.8154682, "altitude_rel_ft": 0.1542, "ground_speed_ft_s": 0.0328, "vel_north_m_s": -0.01, "vel_east_m_s": 0.0, "vel_down_m_s": -0.01, "battery_remain_pct": 9900.0}
{"t_rx_ms": 1776460227001, "run_id": "20260417_140815", "seq": 31, "pitch_deg": 11.5454, "yaw_deg": -28.8247, "roll_deg": -67.239, "lat_deg": 34.040708099999996, "lon_deg": -117.8154682, "altitude_rel_ft": 0.1542, "ground_speed_ft_s": 0.0328, "vel_north_m_s": -0.01, "vel_east_m_s": 0.0, "vel_down_m_s": -0.01, "battery_remain_pct": 9900.0}
{"t_rx_ms": 1776460227202, "run_id": "20260417_140815", "seq": 32, "pitch_deg": 11.5454, "yaw_deg": -28.8247, "roll_deg": -67.239, "lat_deg": 34.040708099999996, "lon_deg": -117.8154682, "altitude_rel_ft": 0.1542, "ground_speed_ft_s": 0.0328, "vel_north_m_s": -0.01, "vel_east_m_s": 0.0, "vel_down_m_s": -0.01, "battery_remain_pct": 9900.0}
{"t_rx_ms": 1776460227404, "run_id": "20260417_140815", "seq": 33, "pitch_deg": 11.5454, "yaw_deg": -28.8247, "roll_deg": -67.239, "lat_deg": 34.040708099999996, "lon_deg": -117.8154682, "altitude_rel_ft": 0.1542, "ground_speed_ft_s": 0.0328, "vel_north_m_s": -0.01, "vel_east_m_s": 0.0, "vel_down_m_s": -0.01, "battery_remain_pct": 9900.0}
{"t_rx_ms": 1776460227609, "run_id": "20260417_140815", "seq": 34, "pitch_deg": 11.5157, "yaw_deg": -28.9232, "roll_deg": -67.231, "lat_deg": 34.0407077, "lon_deg": -117.81546829999999, "altitude_rel_ft": 0.1837, "ground_speed_ft_s": 0.0656, "vel_north_m_s": -0.02, "vel_east_m_s": 0.0, "vel_down_m_s": -0.01, "battery_remain_pct": 9900.0}
{"t_rx_ms": 1776460227810, "run_id": "20260417_140815", "seq": 35, "pitch_deg": 11.5157, "yaw_deg": -28.9232, "roll_deg": -67.231, "lat_deg": 34.0407077, "lon_deg": -117.81546829999999, "altitude_rel_ft": 0.1837, "ground_speed_ft_s": 0.0656, "vel_north_m_s": -0.02, "vel_east_m_s": 0.0, "vel_down_m_s": -0.01, "battery_remain_pct": 9900.0}
{"t_rx_ms": 1776460228011, "run_id": "20260417_140815", "seq": 36, "pitch_deg": 11.5157, "yaw_deg": -28.9232, "roll_deg": -67.231, "lat_deg": 34.0407077, "lon_deg": -117.81546829999999, "altitude_rel_ft": 0.1837, "ground_speed_ft_s": 0.0656, "vel_north_m_s": -0.02, "vel_east_m_s": 0.0, "vel_down_m_s": -0.01, "battery_remain_pct": 9900.0}
{"t_rx_ms": 1776460228211, "run_id": "20260417_140815", "seq": 37, "pitch_deg": 11.5157, "yaw_deg": -28.9232, "roll_deg": -67.231, "lat_deg": 34.0407077, "lon_deg": -117.81546829999999, "altitude_rel_ft": 0.1837, "ground_speed_ft_s": 0.0656, "vel_north_m_s": -0.02, "vel_east_m_s": 0.0, "vel_down_m_s": -0.01, "battery_remain_pct": 9900.0}
{"t_rx_ms": 1776460228420, "run_id": "20260417_140815", "seq": 38, "pitch_deg": 11.5157, "yaw_deg": -28.9232, "roll_deg": -67.231, "lat_deg": 34.0407077, "lon_deg": -117.81546829999999, "altitude_rel_ft": 0.1837, "ground_speed_ft_s": 0.0656, "vel_north_m_s": -0.02, "vel_east_m_s": 0.0, "vel_down_m_s": -0.01, "battery_remain_pct": 9900.0}
{"t_rx_ms": 1776460228621, "run_id": "20260417_140815", "seq": 39, "pitch_deg": 11.5624, "yaw_deg": -28.7829, "roll_deg": -67.3035, "lat_deg": 34.040707399999995, "lon_deg": -117.8154685, "altitude_rel_ft": -0.0262, "ground_speed_ft_s": 0.0656, "vel_north_m_s": -0.02, "vel_east_m_s": 0.0, "vel_down_m_s": -0.01, "battery_remain_pct": 9900.0}
{"t_rx_ms": 1776460228822, "run_id": "20260417_140815", "seq": 40, "pitch_deg": 11.5624, "yaw_deg": -28.7829, "roll_deg": -67.3035, "lat_deg": 34.040707399999995, "lon_deg": -117.8154685, "altitude_rel_ft": -0.0262, "ground_speed_ft_s": 0.0656, "vel_north_m_s": -0.02, "vel_east_m_s": 0.0, "vel_down_m_s": -0.01, "battery_remain_pct": 9900.0}
{"t_rx_ms": 1776460229028, "run_id": "20260417_140815", "seq": 41, "pitch_deg": 11.5624, "yaw_deg": -28.7829, "roll_deg": -67.3035, "lat_deg": 34.040707399999995, "lon_deg": -117.8154685, "altitude_rel_ft": -0.0262, "ground_speed_ft_s": 0.0656, "vel_north_m_s": -0.02, "vel_east_m_s": 0.0, "vel_down_m_s": -0.01, "battery_remain_pct": 9900.0}
{"t_rx_ms": 1776460229230, "run_id": "20260417_140815", "seq": 42, "pitch_deg": 11.5624, "yaw_deg": -28.7829, "roll_deg": -67.3035, "lat_deg": 34.040707399999995, "lon_deg": -117.8154685, "altitude_rel_ft": -0.0262, "ground_speed_ft_s": 0.0656, "vel_north_m_s": -0.02, "vel_east_m_s": 0.0, "vel_down_m_s": -0.01, "battery_remain_pct": 9900.0}
{"t_rx_ms": 1776460229431, "run_id": "20260417_140815", "seq": 43, "pitch_deg": 11.5624, "yaw_deg": -28.7829, "roll_deg": -67.3035, "lat_deg": 34.040707399999995, "lon_deg": -117.8154685, "altitude_rel_ft": -0.0262, "ground_speed_ft_s": 0.0656, "vel_north_m_s": -0.02, "vel_east_m_s": 0.0, "vel_down_m_s": -0.01, "battery_remain_pct": 9900.0}
{"t_rx_ms": 1776460229631, "run_id": "20260417_140815", "seq": 44, "pitch_deg": 11.5032, "yaw_deg": -28.8571, "roll_deg": -67.3552, "lat_deg": 34.0407072, "lon_deg": -117.81546859999999, "altitude_rel_ft": -0.0591, "ground_speed_ft_s": 0.0656, "vel_north_m_s": -0.02, "vel_east_m_s": 0.0, "vel_down_m_s": -0.01, "battery_remain_pct": 9900.0}
{"t_rx_ms": 1776460229832, "run_id": "20260417_140815", "seq": 45, "pitch_deg": 11.5032, "yaw_deg": -28.8571, "roll_deg": -67.3552, "lat_deg": 34.0407072, "lon_deg": -117.81546859999999, "altitude_rel_ft": -0.0591, "ground_speed_ft_s": 0.0656, "vel_north_m_s": -0.02, "vel_east_m_s": 0.0, "vel_down_m_s": -0.01, "battery_remain_pct": 9900.0}
{"t_rx_ms": 1776460230032, "run_id": "20260417_140815", "seq": 46, "pitch_deg": 11.5032, "yaw_deg": -28.8571, "roll_deg": -67.3552, "lat_deg": 34.0407072, "lon_deg": -117.81546859999999, "altitude_rel_ft": -0.0591, "ground_speed_ft_s": 0.0656, "vel_north_m_s": -0.02, "vel_east_m_s": 0.0, "vel_down_m_s": -0.01, "battery_remain_pct": 9900.0}
{"t_rx_ms": 1776460230233, "run_id": "20260417_140815", "seq": 47, "pitch_deg": 11.5032, "yaw_deg": -28.8571, "roll_deg": -67.3552, "lat_deg": 34.0407072, "lon_deg": -117.81546859999999, "altitude_rel_ft": -0.0591, "ground_speed_ft_s": 0.0656, "vel_north_m_s": -0.02, "vel_east_m_s": 0.0, "vel_down_m_s": -0.01, "battery_remain_pct": 9900.0}
{"t_rx_ms": 1776460230434, "run_id": "20260417_140815", "seq": 48, "pitch_deg": 11.5032, "yaw_deg": -28.8571, "roll_deg": -67.3552, "lat_deg": 34.0407072, "lon_deg": -117.81546859999999, "altitude_rel_ft": -0.0591, "ground_speed_ft_s": 0.0656, "vel_north_m_s": -0.02, "vel_east_m_s": 0.0, "vel_down_m_s": -0.01, "battery_remain_pct": 9900.0}
{"t_rx_ms": 1776460230635, "run_id": "20260417_140815", "seq": 49, "pitch_deg": 11.5131, "yaw_deg": -28.7023, "roll_deg": -67.4111, "lat_deg": 34.0407071, "lon_deg": -117.8154687, "altitude_rel_ft": -0.1083, "ground_speed_ft_s": 0.0734, "vel_north_m_s": -0.02, "vel_east_m_s": -0.01, "vel_down_m_s": 0.0, "battery_remain_pct": 9900.0}
{"t_rx_ms": 1776460230838, "run_id": "20260417_140815", "seq": 50, "pitch_deg": 11.5131, "yaw_deg": -28.7023, "roll_deg": -67.4111, "lat_deg": 34.0407071, "lon_deg": -117.8154687, "altitude_rel_ft": -0.1083, "ground_speed_ft_s": 0.0734, "vel_north_m_s": -0.02, "vel_east_m_s": -0.01, "vel_down_m_s": 0.0, "battery_remain_pct": 9900.0}
{"t_rx_ms": 1776460231069, "run_id": "20260417_140815", "seq": 51, "pitch_deg": 11.5131, "yaw_deg": -28.7023, "roll_deg": -67.4111, "lat_deg": 34.0407071, "lon_deg": -117.8154687, "altitude_rel_ft": -0.1083, "ground_speed_ft_s": 0.0734, "vel_north_m_s": -0.02, "vel_east_m_s": -0.01, "vel_down_m_s": 0.0, "battery_remain_pct": 9900.0}
{"t_rx_ms": 1776460231270, "run_id": "20260417_140815", "seq": 52, "pitch_deg": 11.5131, "yaw_deg": -28.7023, "roll_deg": -67.4111, "lat_deg": 34.0407071, "lon_deg": -117.8154687, "altitude_rel_ft": -0.1083, "ground_speed_ft_s": 0.0734, "vel_north_m_s": -0.02, "vel_east_m_s": -0.01, "vel_down_m_s": 0.0, "battery_remain_pct": 9900.0}
{"t_rx_ms": 1776460231472, "run_id": "20260417_140815", "seq": 53, "pitch_deg": 11.5131, "yaw_deg": -28.7023, "roll_deg": -67.4111, "lat_deg": 34.0407071, "lon_deg": -117.8154687, "altitude_rel_ft": -0.1083, "ground_speed_ft_s": 0.0734, "vel_north_m_s": -0.02, "vel_east_m_s": -0.01, "vel_down_m_s": 0.0, "battery_remain_pct": 9900.0}
{"t_rx_ms": 1776460231673, "run_id": "20260417_140815", "seq": 54, "pitch_deg": 11.5027, "yaw_deg": -28.6203, "roll_deg": -67.4065, "lat_deg": 34.0407072, "lon_deg": -117.81546879999999, "altitude_rel_ft": -0.1706, "ground_speed_ft_s": 0.0, "vel_north_m_s": 0.0, "vel_east_m_s": 0.0, "vel_down_m_s": 0.0, "battery_remain_pct": 9900.0}
{"t_rx_ms": 1776460231877, "run_id": "20260417_140815", "seq": 55, "pitch_deg": 11.5027, "yaw_deg": -28.6203, "roll_deg": -67.4065, "lat_deg": 34.0407072, "lon_deg": -117.81546879999999, "altitude_rel_ft": -0.1706, "ground_speed_ft_s": 0.0, "vel_north_m_s": 0.0, "vel_east_m_s": 0.0, "vel_down_m_s": 0.0, "battery_remain_pct": 9900.0}
{"t_rx_ms": 1776460232089, "run_id": "20260417_140815", "seq": 56, "pitch_deg": 11.5027, "yaw_deg": -28.6203, "roll_deg": -67.4065, "lat_deg": 34.0407072, "lon_deg": -117.81546879999999, "altitude_rel_ft": -0.1706, "ground_speed_ft_s": 0.0, "vel_north_m_s": 0.0, "vel_east_m_s": 0.0, "vel_down_m_s": 0.0, "battery_remain_pct": 9900.0}
{"t_rx_ms": 1776460232292, "run_id": "20260417_140815", "seq": 57, "pitch_deg": 11.5027, "yaw_deg": -28.6203, "roll_deg": -67.4065, "lat_deg": 34.0407072, "lon_deg": -117.81546879999999, "altitude_rel_ft": -0.1706, "ground_speed_ft_s": 0.0, "vel_north_m_s": 0.0, "vel_east_m_s": 0.0, "vel_down_m_s": 0.0, "battery_remain_pct": 9900.0}
{"t_rx_ms": 1776460232496, "run_id": "20260417_140815", "seq": 58, "pitch_deg": 11.5027, "yaw_deg": -28.6203, "roll_deg": -67.4065, "lat_deg": 34.0407072, "lon_deg": -117.81546879999999, "altitude_rel_ft": -0.1706, "ground_speed_ft_s": 0.0, "vel_north_m_s": 0.0, "vel_east_m_s": 0.0, "vel_down_m_s": 0.0, "battery_remain_pct": 9900.0}
{"t_rx_ms": 1776460232696, "run_id": "20260417_140815", "seq": 59, "pitch_deg": 11.4609, "yaw_deg": -28.5799, "roll_deg": -67.4531, "lat_deg": 34.0407073, "lon_deg": -117.8154689, "altitude_rel_ft": -0.1214, "ground_speed_ft_s": 0.0, "vel_north_m_s": 0.0, "vel_east_m_s": 0.0, "vel_down_m_s": 0.0, "battery_remain_pct": 9900.0}
{"t_rx_ms": 1776460232897, "run_id": "20260417_140815", "seq": 60, "pitch_deg": 11.4609, "yaw_deg": -28.5799, "roll_deg": -67.4531, "lat_deg": 34.0407073, "lon_deg": -117.8154689, "altitude_rel_ft": -0.1214, "ground_speed_ft_s": 0.0, "vel_north_m_s": 0.0, "vel_east_m_s": 0.0, "vel_down_m_s": 0.0, "battery_remain_pct": 9900.0}
{"t_rx_ms": 1776460233100, "run_id": "20260417_140815", "seq": 61, "pitch_deg": 11.4609, "yaw_deg": -28.5799, "roll_deg": -67.4531, "lat_deg": 34.0407073, "lon_deg": -117.8154689, "altitude_rel_ft": -0.1214, "ground_speed_ft_s": 0.0, "vel_north_m_s": 0.0, "vel_east_m_s": 0.0, "vel_down_m_s": 0.0, "battery_remain_pct": 9900.0}
{"t_rx_ms": 1776460233300, "run_id": "20260417_140815", "seq": 62, "pitch_deg": 11.4609, "yaw_deg": -28.5799, "roll_deg": -67.4531, "lat_deg": 34.0407073, "lon_deg": -117.8154689, "altitude_rel_ft": -0.1214, "ground_speed_ft_s": 0.0, "vel_north_m_s": 0.0, "vel_east_m_s": 0.0, "vel_down_m_s": 0.0, "battery_remain_pct": 9900.0}
{"t_rx_ms": 1776460233501, "run_id": "20260417_140815", "seq": 63, "pitch_deg": 11.4609, "yaw_deg": -28.5799, "roll_deg": -67.4531, "lat_deg": 34.0407073, "lon_deg": -117.8154689, "altitude_rel_ft": -0.1214, "ground_speed_ft_s": 0.0, "vel_north_m_s": 0.0, "vel_east_m_s": 0.0, "vel_down_m_s": 0.0, "battery_remain_pct": 9900.0}
{"t_rx_ms": 1776460233704, "run_id": "20260417_140815", "seq": 64, "pitch_deg": 11.5311, "yaw_deg": -28.3895, "roll_deg": -67.4178, "lat_deg": 34.040707499999996, "lon_deg": -117.8154689, "altitude_rel_ft": -0.0689, "ground_speed_ft_s": 0.0328, "vel_north_m_s": 0.01, "vel_east_m_s": 0.0, "vel_down_m_s": 0.0, "battery_remain_pct": 9900.0}
{"t_rx_ms": 1776460233904, "run_id": "20260417_140815", "seq": 65, "pitch_deg": 11.5311, "yaw_deg": -28.3895, "roll_deg": -67.4178, "lat_deg": 34.040707499999996, "lon_deg": -117.8154689, "altitude_rel_ft": -0.0689, "ground_speed_ft_s": 0.0328, "vel_north_m_s": 0.01, "vel_east_m_s": 0.0, "vel_down_m_s": 0.0, "battery_remain_pct": 9900.0}
{"t_rx_ms": 1776460234106, "run_id": "20260417_140815", "seq": 66, "pitch_deg": 11.5311, "yaw_deg": -28.3895, "roll_deg": -67.4178, "lat_deg": 34.040707499999996, "lon_deg": -117.8154689, "altitude_rel_ft": -0.0689, "ground_speed_ft_s": 0.0328, "vel_north_m_s": 0.01, "vel_east_m_s": 0.0, "vel_down_m_s": 0.0, "battery_remain_pct": 9900.0}
{"t_rx_ms": 1776460234306, "run_id": "20260417_140815", "seq": 67, "pitch_deg": 11.5311, "yaw_deg": -28.3895, "roll_deg": -67.4178, "lat_deg": 34.040707499999996, "lon_deg": -117.8154689, "altitude_rel_ft": -0.0689, "ground_speed_ft_s": 0.0328, "vel_north_m_s": 0.01, "vel_east_m_s": 0.0, "vel_down_m_s": 0.0, "battery_remain_pct": 9900.0}
{"t_rx_ms": 1776460234507, "run_id": "20260417_140815", "seq": 68, "pitch_deg": 11.5311, "yaw_deg": -28.3895, "roll_deg": -67.4178, "lat_deg": 34.040707499999996, "lon_deg": -117.8154689, "altitude_rel_ft": -0.0689, "ground_speed_ft_s": 0.0328, "vel_north_m_s": 0.01, "vel_east_m_s": 0.0, "vel_down_m_s": 0.0, "battery_remain_pct": 9900.0}
{"t_rx_ms": 1776460234709, "run_id": "20260417_140815", "seq": 69, "pitch_deg": 11.4634, "yaw_deg": -28.4669, "roll_deg": -67.4951, "lat_deg": 34.0407078, "lon_deg": -117.8154689, "altitude_rel_ft": -0.1083, "ground_speed_ft_s": 0.0656, "vel_north_m_s": 0.02, "vel_east_m_s": 0.0, "vel_down_m_s": 0.0, "battery_remain_pct": 9900.0}
{"t_rx_ms": 1776460234909, "run_id": "20260417_140815", "seq": 70, "pitch_deg": 11.4634, "yaw_deg": -28.4669, "roll_deg": -67.4951, "lat_deg": 34.0407078, "lon_deg": -117.8154689, "altitude_rel_ft": -0.1083, "ground_speed_ft_s": 0.0656, "vel_north_m_s": 0.02, "vel_east_m_s": 0.0, "vel_down_m_s": 0.0, "battery_remain_pct": 9900.0}
{"t_rx_ms": 1776460235110, "run_id": "20260417_140815", "seq": 71, "pitch_deg": 11.4634, "yaw_deg": -28.4669, "roll_deg": -67.4951, "lat_deg": 34.0407078, "lon_deg": -117.8154689, "altitude_rel_ft": -0.1083, "ground_speed_ft_s": 0.0656, "vel_north_m_s": 0.02, "vel_east_m_s": 0.0, "vel_down_m_s": 0.0, "battery_remain_pct": 9900.0}
{"t_rx_ms": 1776460235311, "run_id": "20260417_140815", "seq": 72, "pitch_deg": 11.4634, "yaw_deg": -28.4669, "roll_deg": -67.4951, "lat_deg": 34.0407078, "lon_deg": -117.8154689, "altitude_rel_ft": -0.1083, "ground_speed_ft_s": 0.0656, "vel_north_m_s": 0.02, "vel_east_m_s": 0.0, "vel_down_m_s": 0.0, "battery_remain_pct": 9900.0}
{"t_rx_ms": 1776460235519, "run_id": "20260417_140815", "seq": 73, "pitch_deg": 11.4634, "yaw_deg": -28.4669, "roll_deg": -67.4951, "lat_deg": 34.0407078, "lon_deg": -117.8154689, "altitude_rel_ft": -0.1083, "ground_speed_ft_s": 0.0656, "vel_north_m_s": 0.02, "vel_east_m_s": 0.0, "vel_down_m_s": 0.0, "battery_remain_pct": 9900.0}
{"t_rx_ms": 1776460235722, "run_id": "20260417_140815", "seq": 74, "pitch_deg": 11.4134, "yaw_deg": -28.493, "roll_deg": -67.6544, "lat_deg": 34.040707999999995, "lon_deg": -117.8154689, "altitude_rel_ft": -0.2789, "ground_speed_ft_s": 0.0984, "vel_north_m_s": 0.03, "vel_east_m_s": 0.0, "vel_down_m_s": 0.01, "battery_remain_pct": 9900.0}
{"t_rx_ms": 1776460235924, "run_id": "20260417_140815", "seq": 75, "pitch_deg": 11.4134, "yaw_deg": -28.493, "roll_deg": -67.6544, "lat_deg": 34.040707999999995, "lon_deg": -117.8154689, "altitude_rel_ft": -0.2789, "ground_speed_ft_s": 0.0984, "vel_north_m_s": 0.03, "vel_east_m_s": 0.0, "vel_down_m_s": 0.01, "battery_remain_pct": 9900.0}
{"t_rx_ms": 1776460236125, "run_id": "20260417_140815", "seq": 76, "pitch_deg": 11.4134, "yaw_deg": -28.493, "roll_deg": -67.6544, "lat_deg": 34.040707999999995, "lon_deg": -117.8154689, "altitude_rel_ft": -0.2789, "ground_speed_ft_s": 0.0984, "vel_north_m_s": 0.03, "vel_east_m_s": 0.0, "vel_down_m_s": 0.01, "battery_remain_pct": 9900.0}
{"t_rx_ms": 1776460236328, "run_id": "20260417_140815", "seq": 77, "pitch_deg": 11.4134, "yaw_deg": -28.493, "roll_deg": -67.6544, "lat_deg": 34.040707999999995, "lon_deg": -117.8154689, "altitude_rel_ft": -0.2789, "ground_speed_ft_s": 0.0984, "vel_north_m_s": 0.03, "vel_east_m_s": 0.0, "vel_down_m_s": 0.01, "battery_remain_pct": 9900.0}
{"t_rx_ms": 1776460236529, "run_id": "20260417_140815", "seq": 78, "pitch_deg": 11.4134, "yaw_deg": -28.493, "roll_deg": -67.6544, "lat_deg": 34.040707999999995, "lon_deg": -117.8154689, "altitude_rel_ft": -0.2789, "ground_speed_ft_s": 0.0984, "vel_north_m_s": 0.03, "vel_east_m_s": 0.0, "vel_down_m_s": 0.01, "battery_remain_pct": 9900.0}
{"t_rx_ms": 1776460236730, "run_id": "20260417_140815", "seq": 79, "pitch_deg": 12.4164, "yaw_deg": -27.092, "roll_deg": -67.2801, "lat_deg": 34.0407082, "lon_deg": -117.8154689, "altitude_rel_ft": -0.4495, "ground_speed_ft_s": 0.0656, "vel_north_m_s": 0.02, "vel_east_m_s": 0.0, "vel_down_m_s": 0.01, "battery_remain_pct": 9900.0}
{"t_rx_ms": 1776460236934, "run_id": "20260417_140815", "seq": 80, "pitch_deg": 12.4164, "yaw_deg": -27.092, "roll_deg": -67.2801, "lat_deg": 34.0407082, "lon_deg": -117.8154689, "altitude_rel_ft": -0.4495, "ground_speed_ft_s": 0.0656, "vel_north_m_s": 0.02, "vel_east_m_s": 0.0, "vel_down_m_s": 0.01, "battery_remain_pct": 9900.0}
{"t_rx_ms": 1776460237134, "run_id": "20260417_140815", "seq": 81, "pitch_deg": 12.4164, "yaw_deg": -27.092, "roll_deg": -67.2801, "lat_deg": 34.0407082, "lon_deg": -117.8154689, "altitude_rel_ft": -0.4495, "ground_speed_ft_s": 0.0656, "vel_north_m_s": 0.02, "vel_east_m_s": 0.0, "vel_down_m_s": 0.01, "battery_remain_pct": 9900.0}
{"t_rx_ms": 1776460237335, "run_id": "20260417_140815", "seq": 82, "pitch_deg": 12.4164, "yaw_deg": -27.092, "roll_deg": -67.2801, "lat_deg": 34.0407082, "lon_deg": -117.8154689, "altitude_rel_ft": -0.4495, "ground_speed_ft_s": 0.0656, "vel_north_m_s": 0.02, "vel_east_m_s": 0.0, "vel_down_m_s": 0.01, "battery_remain_pct": 9900.0}
{"t_rx_ms": 1776460237537, "run_id": "20260417_140815", "seq": 83, "pitch_deg": 12.4164, "yaw_deg": -27.092, "roll_deg": -67.2801, "lat_deg": 34.0407082, "lon_deg": -117.8154689, "altitude_rel_ft": -0.4495, "ground_speed_ft_s": 0.0656, "vel_north_m_s": 0.02, "vel_east_m_s": 0.0, "vel_down_m_s": 0.01, "battery_remain_pct": 9900.0}
{"t_rx_ms": 1776460237738, "run_id": "20260417_140815", "seq": 84, "pitch_deg": 10.4733, "yaw_deg": -27.7517, "roll_deg": -67.9818, "lat_deg": 34.0407082, "lon_deg": -117.8154689, "altitude_rel_ft": -0.5315, "ground_speed_ft_s": 0.0656, "vel_north_m_s": 0.02, "vel_east_m_s": 0.0, "vel_down_m_s": 0.01, "battery_remain_pct": 9900.0}
{"t_rx_ms": 1776460237940, "run_id": "20260417_140815", "seq": 85, "pitch_deg": 10.4733, "yaw_deg": -27.7517, "roll_deg": -67.9818, "lat_deg": 34.0407082, "lon_deg": -117.8154689, "altitude_rel_ft": -0.5315, "ground_speed_ft_s": 0.0656, "vel_north_m_s": 0.02, "vel_east_m_s": 0.0, "vel_down_m_s": 0.01, "battery_remain_pct": 9900.0}
{"t_rx_ms": 1776460238141, "run_id": "20260417_140815", "seq": 86, "pitch_deg": 10.4733, "yaw_deg": -27.7517, "roll_deg": -67.9818, "lat_deg": 34.0407082, "lon_deg": -117.8154689, "altitude_rel_ft": -0.5315, "ground_speed_ft_s": 0.0656, "vel_north_m_s": 0.02, "vel_east_m_s": 0.0, "vel_down_m_s": 0.01, "battery_remain_pct": 9900.0}
{"t_rx_ms": 1776460238354, "run_id": "20260417_140815", "seq": 87, "pitch_deg": 10.4733, "yaw_deg": -27.7517, "roll_deg": -67.9818, "lat_deg": 34.0407082, "lon_deg": -117.8154689, "altitude_rel_ft": -0.5315, "ground_speed_ft_s": 0.0656, "vel_north_m_s": 0.02, "vel_east_m_s": 0.0, "vel_down_m_s": 0.01, "battery_remain_pct": 9900.0}
{"t_rx_ms": 1776460238554, "run_id": "20260417_140815", "seq": 88, "pitch_deg": 10.4733, "yaw_deg": -27.7517, "roll_deg": -67.9818, "lat_deg": 34.0407082, "lon_deg": -117.8154689, "altitude_rel_ft": -0.5315, "ground_speed_ft_s": 0.0656, "vel_north_m_s": 0.02, "vel_east_m_s": 0.0, "vel_down_m_s": 0.01, "battery_remain_pct": 9900.0}
{"t_rx_ms": 1776460238755, "run_id": "20260417_140815", "seq": 89, "pitch_deg": 10.4619, "yaw_deg": -27.9408, "roll_deg": -67.8449, "lat_deg": 34.0407082, "lon_deg": -117.8154691, "altitude_rel_ft": -0.5906, "ground_speed_ft_s": 0.0328, "vel_north_m_s": 0.01, "vel_east_m_s": 0.0, "vel_down_m_s": 0.02, "battery_remain_pct": 9900.0}
{"t_rx_ms": 1776460238957, "run_id": "20260417_140815", "seq": 90, "pitch_deg": 10.4619, "yaw_deg": -27.9408, "roll_deg": -67.8449, "lat_deg": 34.0407082, "lon_deg": -117.8154691, "altitude_rel_ft": -0.5906, "ground_speed_ft_s": 0.0328, "vel_north_m_s": 0.01, "vel_east_m_s": 0.0, "vel_down_m_s": 0.02, "battery_remain_pct": 9900.0}
{"t_rx_ms": 1776460239161, "run_id": "20260417_140815", "seq": 91, "pitch_deg": 10.4619, "yaw_deg": -27.9408, "roll_deg": -67.8449, "lat_deg": 34.0407082, "lon_deg": -117.8154691, "altitude_rel_ft": -0.5906, "ground_speed_ft_s": 0.0328, "vel_north_m_s": 0.01, "vel_east_m_s": 0.0, "vel_down_m_s": 0.02, "battery_remain_pct": 9900.0}
{"t_rx_ms": 1776460239362, "run_id": "20260417_140815", "seq": 92, "pitch_deg": 10.4619, "yaw_deg": -27.9408, "roll_deg": -67.8449, "lat_deg": 34.0407082, "lon_deg": -117.8154691, "altitude_rel_ft": -0.5906, "ground_speed_ft_s": 0.0328, "vel_north_m_s": 0.01, "vel_east_m_s": 0.0, "vel_down_m_s": 0.02, "battery_remain_pct": 9900.0}
{"t_rx_ms": 1776460239566, "run_id": "20260417_140815", "seq": 93, "pitch_deg": 10.4619, "yaw_deg": -27.9408, "roll_deg": -67.8449, "lat_deg": 34.0407082, "lon_deg": -117.8154691, "altitude_rel_ft": -0.5906, "ground_speed_ft_s": 0.0328, "vel_north_m_s": 0.01, "vel_east_m_s": 0.0, "vel_down_m_s": 0.02, "battery_remain_pct": 9900.0}
{"t_rx_ms": 1776460239765, "run_id": "20260417_140815", "seq": 94, "pitch_deg": 10.1885, "yaw_deg": -27.6888, "roll_deg": -68.3653, "lat_deg": 34.0407082, "lon_deg": -117.81546929999999, "altitude_rel_ft": -0.6496, "ground_speed_ft_s": 0.0328, "vel_north_m_s": 0.0, "vel_east_m_s": -0.01, "vel_down_m_s": 0.02, "battery_remain_pct": 9900.0}
{"t_rx_ms": 1776460239969, "run_id": "20260417_140815", "seq": 95, "pitch_deg": 10.1885, "yaw_deg": -27.6888, "roll_deg": -68.3653, "lat_deg": 34.0407082, "lon_deg": -117.81546929999999, "altitude_rel_ft": -0.6496, "ground_speed_ft_s": 0.0328, "vel_north_m_s": 0.0, "vel_east_m_s": -0.01, "vel_down_m_s": 0.02, "battery_remain_pct": 9900.0}
{"t_rx_ms": 1776460240170, "run_id": "20260417_140815", "seq": 96, "pitch_deg": 10.1885, "yaw_deg": -27.6888, "roll_deg": -68.3653, "lat_deg": 34.0407082, "lon_deg": -117.81546929999999, "altitude_rel_ft": -0.6496, "ground_speed_ft_s": 0.0328, "vel_north_m_s": 0.0, "vel_east_m_s": -0.01, "vel_down_m_s": 0.02, "battery_remain_pct": 9900.0}
{"t_rx_ms": 1776460240372, "run_id": "20260417_140815", "seq": 97, "pitch_deg": 10.1885, "yaw_deg": -27.6888, "roll_deg": -68.3653, "lat_deg": 34.0407082, "lon_deg": -117.81546929999999, "altitude_rel_ft": -0.6496, "ground_speed_ft_s": 0.0328, "vel_north_m_s": 0.0, "vel_east_m_s": -0.01, "vel_down_m_s": 0.02, "battery_remain_pct": 9900.0}
{"t_rx_ms": 1776460240573, "run_id": "20260417_140815", "seq": 98, "pitch_deg": 10.1885, "yaw_deg": -27.6888, "roll_deg": -68.3653, "lat_deg": 34.0407082, "lon_deg": -117.81546929999999, "altitude_rel_ft": -0.6496, "ground_speed_ft_s": 0.0328, "vel_north_m_s": 0.0, "vel_east_m_s": -0.01, "vel_down_m_s": 0.02, "battery_remain_pct": 9900.0}
{"t_rx_ms": 1776460240774, "run_id": "20260417_140815", "seq": 99, "pitch_deg": 10.5344, "yaw_deg": -28.4186, "roll_deg": -67.5277, "lat_deg": 34.0407082, "lon_deg": -117.81546949999999, "altitude_rel_ft": -0.082, "ground_speed_ft_s": 0.0328, "vel_north_m_s": 0.0, "vel_east_m_s": -0.01, "vel_down_m_s": 0.02, "battery_remain_pct": 9900.0}
{"t_rx_ms": 1776460240977, "run_id": "20260417_140815", "seq": 100, "pitch_deg": 10.5344, "yaw_deg": -28.4186, "roll_deg": -67.5277, "lat_deg": 34.0407082, "lon_deg": -117.81546949999999, "altitude_rel_ft": -0.082, "ground_speed_ft_s": 0.0328, "vel_north_m_s": 0.0, "vel_east_m_s": -0.01, "vel_down_m_s": 0.02, "battery_remain_pct": 9900.0}
{"t_rx_ms": 1776460241178, "run_id": "20260417_140815", "seq": 101, "pitch_deg": 10.5344, "yaw_deg": -28.4186, "roll_deg": -67.5277, "lat_deg": 34.0407082, "lon_deg": -117.81546949999999, "altitude_rel_ft": -0.082, "ground_speed_ft_s": 0.0328, "vel_north_m_s": 0.0, "vel_east_m_s": -0.01, "vel_down_m_s": 0.02, "battery_remain_pct": 9900.0}
{"t_rx_ms": 1776460241382, "run_id": "20260417_140815", "seq": 102, "pitch_deg": 10.5344, "yaw_deg": -28.4186, "roll_deg": -67.5277, "lat_deg": 34.0407082, "lon_deg": -117.81546949999999, "altitude_rel_ft": -0.082, "ground_speed_ft_s": 0.0328, "vel_north_m_s": 0.0, "vel_east_m_s": -0.01, "vel_down_m_s": 0.02, "battery_remain_pct": 9900.0}
{"t_rx_ms": 1776460241582, "run_id": "20260417_140815", "seq": 103, "pitch_deg": 10.5344, "yaw_deg": -28.4186, "roll_deg": -67.5277, "lat_deg": 34.0407082, "lon_deg": -117.81546949999999, "altitude_rel_ft": -0.082, "ground_speed_ft_s": 0.0328, "vel_north_m_s": 0.0, "vel_east_m_s": -0.01, "vel_down_m_s": 0.02, "battery_remain_pct": 9900.0}
{"t_rx_ms": 1776460241784, "run_id": "20260417_140815", "seq": 104, "pitch_deg": 11.1012, "yaw_deg": -27.3641, "roll_deg": -66.562, "lat_deg": 34.0407082, "lon_deg": -117.8154697, "altitude_rel_ft": -0.1214, "ground_speed_ft_s": 0.0, "vel_north_m_s": 0.0, "vel_east_m_s": 0.0, "vel_down_m_s": 0.01, "battery_remain_pct": 9900.0}
{"t_rx_ms": 1776460241986, "run_id": "20260417_140815", "seq": 105, "pitch_deg": 11.1012, "yaw_deg": -27.3641, "roll_deg": -66.562, "lat_deg": 34.0407082, "lon_deg": -117.8154697, "altitude_rel_ft": -0.1214, "ground_speed_ft_s": 0.0, "vel_north_m_s": 0.0, "vel_east_m_s": 0.0, "vel_down_m_s": 0.01, "battery_remain_pct": 9900.0}
{"t_rx_ms": 1776460242186, "run_id": "20260417_140815", "seq": 106, "pitch_deg": 11.1012, "yaw_deg": -27.3641, "roll_deg": -66.562, "lat_deg": 34.0407082, "lon_deg": -117.8154697, "altitude_rel_ft": -0.1214, "ground_speed_ft_s": 0.0, "vel_north_m_s": 0.0, "vel_east_m_s": 0.0, "vel_down_m_s": 0.01, "battery_remain_pct": 9900.0}
{"t_rx_ms": 1776460242388, "run_id": "20260417_140815", "seq": 107, "pitch_deg": 11.1012, "yaw_deg": -27.3641, "roll_deg": -66.562, "lat_deg": 34.0407082, "lon_deg": -117.8154697, "altitude_rel_ft": -0.1214, "ground_speed_ft_s": 0.0, "vel_north_m_s": 0.0, "vel_east_m_s": 0.0, "vel_down_m_s": 0.01, "battery_remain_pct": 9900.0}
{"t_rx_ms": 1776460242589, "run_id": "20260417_140815", "seq": 108, "pitch_deg": 11.1012, "yaw_deg": -27.3641, "roll_deg": -66.562, "lat_deg": 34.0407082, "lon_deg": -117.8154697, "altitude_rel_ft": -0.1214, "ground_speed_ft_s": 0.0, "vel_north_m_s": 0.0, "vel_east_m_s": 0.0, "vel_down_m_s": 0.01, "battery_remain_pct": 9900.0}
{"t_rx_ms": 1776460242789, "run_id": "20260417_140815", "seq": 109, "pitch_deg": 11.7512, "yaw_deg": -28.626, "roll_deg": -62.6928, "lat_deg": 34.0407082, "lon_deg": -117.8154697, "altitude_rel_ft": -0.1345, "ground_speed_ft_s": 0.0656, "vel_north_m_s": 0.0, "vel_east_m_s": -0.02, "vel_down_m_s": 0.02, "battery_remain_pct": 9900.0}
{"t_rx_ms": 1776460242992, "run_id": "20260417_140815", "seq": 110, "pitch_deg": 11.7512, "yaw_deg": -28.626, "roll_deg": -62.6928, "lat_deg": 34.0407082, "lon_deg": -117.8154697, "altitude_rel_ft": -0.1345, "ground_speed_ft_s": 0.0656, "vel_north_m_s": 0.0, "vel_east_m_s": -0.02, "vel_down_m_s": 0.02, "battery_remain_pct": 9900.0}
{"t_rx_ms": 1776460243195, "run_id": "20260417_140815", "seq": 111, "pitch_deg": 11.7512, "yaw_deg": -28.626, "roll_deg": -62.6928, "lat_deg": 34.0407082, "lon_deg": -117.8154697, "altitude_rel_ft": -0.1345, "ground_speed_ft_s": 0.0656, "vel_north_m_s": 0.0, "vel_east_m_s": -0.02, "vel_down_m_s": 0.02, "battery_remain_pct": 9900.0}
{"t_rx_ms": 1776460243396, "run_id": "20260417_140815", "seq": 112, "pitch_deg": 11.7512, "yaw_deg": -28.626, "roll_deg": -62.6928, "lat_deg": 34.0407082, "lon_deg": -117.8154697, "altitude_rel_ft": -0.1345, "ground_speed_ft_s": 0.0656, "vel_north_m_s": 0.0, "vel_east_m_s": -0.02, "vel_down_m_s": 0.02, "battery_remain_pct": 9900.0}
{"t_rx_ms": 1776460243612, "run_id": "20260417_140815", "seq": 113, "pitch_deg": 11.7512, "yaw_deg": -28.626, "roll_deg": -62.6928, "lat_deg": 34.0407082, "lon_deg": -117.8154697, "altitude_rel_ft": -0.1345, "ground_speed_ft_s": 0.0656, "vel_north_m_s": 0.0, "vel_east_m_s": -0.02, "vel_down_m_s": 0.02, "battery_remain_pct": 9900.0}
{"t_rx_ms": 1776460243816, "run_id": "20260417_140815", "seq": 114, "pitch_deg": 11.8244, "yaw_deg": -29.0534, "roll_deg": -63.9426, "lat_deg": 34.0407082, "lon_deg": -117.8154699, "altitude_rel_ft": -0.1837, "ground_speed_ft_s": 0.0656, "vel_north_m_s": 0.0, "vel_east_m_s": -0.02, "vel_down_m_s": 0.04, "battery_remain_pct": 9900.0}
{"t_rx_ms": 1776460244017, "run_id": "20260417_140815", "seq": 115, "pitch_deg": 11.8244, "yaw_deg": -29.0534, "roll_deg": -63.9426, "lat_deg": 34.0407082, "lon_deg": -117.8154699, "altitude_rel_ft": -0.1837, "ground_speed_ft_s": 0.0656, "vel_north_m_s": 0.0, "vel_east_m_s": -0.02, "vel_down_m_s": 0.04, "battery_remain_pct": 9900.0}
{"t_rx_ms": 1776460244219, "run_id": "20260417_140815", "seq": 116, "pitch_deg": 11.8244, "yaw_deg": -29.0534, "roll_deg": -63.9426, "lat_deg": 34.0407082, "lon_deg": -117.8154699, "altitude_rel_ft": -0.1837, "ground_speed_ft_s": 0.0656, "vel_north_m_s": 0.0, "vel_east_m_s": -0.02, "vel_down_m_s": 0.04, "battery_remain_pct": 9900.0}
{"t_rx_ms": 1776460244421, "run_id": "20260417_140815", "seq": 117, "pitch_deg": 11.8244, "yaw_deg": -29.0534, "roll_deg": -63.9426, "lat_deg": 34.0407082, "lon_deg": -117.8154699, "altitude_rel_ft": -0.1837, "ground_speed_ft_s": 0.0656, "vel_north_m_s": 0.0, "vel_east_m_s": -0.02, "vel_down_m_s": 0.04, "battery_remain_pct": 9900.0}
{"t_rx_ms": 1776460244651, "run_id": "20260417_140815", "seq": 118, "pitch_deg": 11.9726, "yaw_deg": -29.279, "roll_deg": -64.4256, "lat_deg": 34.0407083, "lon_deg": -117.81546999999999, "altitude_rel_ft": -0.1837, "ground_speed_ft_s": 0.0656, "vel_north_m_s": 0.0, "vel_east_m_s": -0.02, "vel_down_m_s": 0.01, "battery_remain_pct": 9900.0}
{"t_rx_ms": 1776460244853, "run_id": "20260417_140815", "seq": 119, "pitch_deg": 11.9726, "yaw_deg": -29.279, "roll_deg": -64.4256, "lat_deg": 34.0407083, "lon_deg": -117.81546999999999, "altitude_rel_ft": -0.1837, "ground_speed_ft_s": 0.0656, "vel_north_m_s": 0.0, "vel_east_m_s": -0.02, "vel_down_m_s": 0.01, "battery_remain_pct": 9900.0}
{"t_rx_ms": 1776460245079, "run_id": "20260417_140815", "seq": 120, "pitch_deg": 11.9726, "yaw_deg": -29.279, "roll_deg": -64.4256, "lat_deg": 34.0407083, "lon_deg": -117.81546999999999, "altitude_rel_ft": -0.1837, "ground_speed_ft_s": 0.0656, "vel_north_m_s": 0.0, "vel_east_m_s": -0.02, "vel_down_m_s": 0.01, "battery_remain_pct": 9900.0}
{"t_rx_ms": 1776460245282, "run_id": "20260417_140815", "seq": 121, "pitch_deg": 11.9726, "yaw_deg": -29.279, "roll_deg": -64.4256, "lat_deg": 34.0407083, "lon_deg": -117.81546999999999, "altitude_rel_ft": -0.1837, "ground_speed_ft_s": 0.0656, "vel_north_m_s": 0.0, "vel_east_m_s": -0.02, "vel_down_m_s": 0.01, "battery_remain_pct": 9900.0}
{"t_rx_ms": 1776460245483, "run_id": "20260417_140815", "seq": 122, "pitch_deg": 11.9726, "yaw_deg": -29.279, "roll_deg": -64.4256, "lat_deg": 34.0407083, "lon_deg": -117.81546999999999, "altitude_rel_ft": -0.1837, "ground_speed_ft_s": 0.0656, "vel_north_m_s": 0.0, "vel_east_m_s": -0.02, "vel_down_m_s": 0.01, "battery_remain_pct": 9900.0}
{"t_rx_ms": 1776460245686, "run_id": "20260417_140815", "seq": 123, "pitch_deg": 12.0815, "yaw_deg": -29.1731, "roll_deg": -64.8353, "lat_deg": 34.0407083, "lon_deg": -117.8154699, "altitude_rel_ft": -0.2428, "ground_speed_ft_s": 0.0328, "vel_north_m_s": 0.0, "vel_east_m_s": -0.01, "vel_down_m_s": 0.01, "battery_remain_pct": 9900.0}
{"t_rx_ms": 1776460245887, "run_id": "20260417_140815", "seq": 124, "pitch_deg": 12.0815, "yaw_deg": -29.1731, "roll_deg": -64.8353, "lat_deg": 34.0407083, "lon_deg": -117.8154699, "altitude_rel_ft": -0.2428, "ground_speed_ft_s": 0.0328, "vel_north_m_s": 0.0, "vel_east_m_s": -0.01, "vel_down_m_s": 0.01, "battery_remain_pct": 9900.0}
{"t_rx_ms": 1776460246088, "run_id": "20260417_140815", "seq": 125, "pitch_deg": 12.0815, "yaw_deg": -29.1731, "roll_deg": -64.8353, "lat_deg": 34.0407083, "lon_deg": -117.8154699, "altitude_rel_ft": -0.2428, "ground_speed_ft_s": 0.0328, "vel_north_m_s": 0.0, "vel_east_m_s": -0.01, "vel_down_m_s": 0.01, "battery_remain_pct": 9900.0}
{"t_rx_ms": 1776460246291, "run_id": "20260417_140815", "seq": 126, "pitch_deg": 12.0815, "yaw_deg": -29.1731, "roll_deg": -64.8353, "lat_deg": 34.0407083, "lon_deg": -117.8154699, "altitude_rel_ft": -0.2428, "ground_speed_ft_s": 0.0328, "vel_north_m_s": 0.0, "vel_east_m_s": -0.01, "vel_down_m_s": 0.01, "battery_remain_pct": 9900.0}
{"t_rx_ms": 1776460246498, "run_id": "20260417_140815", "seq": 127, "pitch_deg": 12.0815, "yaw_deg": -29.1731, "roll_deg": -64.8353, "lat_deg": 34.0407083, "lon_deg": -117.8154699, "altitude_rel_ft": -0.2428, "ground_speed_ft_s": 0.0328, "vel_north_m_s": 0.0, "vel_east_m_s": -0.01, "vel_down_m_s": 0.01, "battery_remain_pct": 9900.0}
{"t_rx_ms": 1776460246698, "run_id": "20260417_140815", "seq": 128, "pitch_deg": 12.0443, "yaw_deg": -29.3518, "roll_deg": -65.1544, "lat_deg": 34.0407085, "lon_deg": -117.8154699, "altitude_rel_ft": 0.0295, "ground_speed_ft_s": 0.0, "vel_north_m_s": 0.0, "vel_east_m_s": 0.0, "vel_down_m_s": 0.0, "battery_remain_pct": 9900.0}
{"t_rx_ms": 1776460246900, "run_id": "20260417_140815", "seq": 129, "pitch_deg": 12.0443, "yaw_deg": -29.3518, "roll_deg": -65.1544, "lat_deg": 34.0407085, "lon_deg": -117.8154699, "altitude_rel_ft": 0.0295, "ground_speed_ft_s": 0.0, "vel_north_m_s": 0.0, "vel_east_m_s": 0.0, "vel_down_m_s": 0.0, "battery_remain_pct": 9900.0}
{"t_rx_ms": 1776460247100, "run_id": "20260417_140815", "seq": 130, "pitch_deg": 12.0443, "yaw_deg": -29.3518, "roll_deg": -65.1544, "lat_deg": 34.0407085, "lon_deg": -117.8154699, "altitude_rel_ft": 0.0295, "ground_speed_ft_s": 0.0, "vel_north_m_s": 0.0, "vel_east_m_s": 0.0, "vel_down_m_s": 0.0, "battery_remain_pct": 9900.0}
{"t_rx_ms": 1776460247300, "run_id": "20260417_140815", "seq": 131, "pitch_deg": 12.0443, "yaw_deg": -29.3518, "roll_deg": -65.1544, "lat_deg": 34.0407085, "lon_deg": -117.8154699, "altitude_rel_ft": 0.0295, "ground_speed_ft_s": 0.0, "vel_north_m_s": 0.0, "vel_east_m_s": 0.0, "vel_down_m_s": 0.0, "battery_remain_pct": 9900.0}
{"t_rx_ms": 1776460247502, "run_id": "20260417_140815", "seq": 132, "pitch_deg": 12.0443, "yaw_deg": -29.3518, "roll_deg": -65.1544, "lat_deg": 34.0407085, "lon_deg": -117.8154699, "altitude_rel_ft": 0.0295, "ground_speed_ft_s": 0.0, "vel_north_m_s": 0.0, "vel_east_m_s": 0.0, "vel_down_m_s": 0.0, "battery_remain_pct": 9900.0}
{"t_rx_ms": 1776460247705, "run_id": "20260417_140815", "seq": 133, "pitch_deg": 12.0217, "yaw_deg": -29.3286, "roll_deg": -65.3898, "lat_deg": 34.0407085, "lon_deg": -117.8154699, "altitude_rel_ft": 0.128, "ground_speed_ft_s": 0.0, "vel_north_m_s": 0.0, "vel_east_m_s": 0.0, "vel_down_m_s": 0.0, "battery_remain_pct": 9900.0}
{"t_rx_ms": 1776460247905, "run_id": "20260417_140815", "seq": 134, "pitch_deg": 12.0217, "yaw_deg": -29.3286, "roll_deg": -65.3898, "lat_deg": 34.0407085, "lon_deg": -117.8154699, "altitude_rel_ft": 0.128, "ground_speed_ft_s": 0.0, "vel_north_m_s": 0.0, "vel_east_m_s": 0.0, "vel_down_m_s": 0.0, "battery_remain_pct": 9900.0}
{"t_rx_ms": 1776460248114, "run_id": "20260417_140815", "seq": 135, "pitch_deg": 12.0217, "yaw_deg": -29.3286, "roll_deg": -65.3898, "lat_deg": 34.0407085, "lon_deg": -117.8154699, "altitude_rel_ft": 0.128, "ground_speed_ft_s": 0.0, "vel_north_m_s": 0.0, "vel_east_m_s": 0.0, "vel_down_m_s": 0.0, "battery_remain_pct": 9900.0}
{"t_rx_ms": 1776460248319, "run_id": "20260417_140815", "seq": 136, "pitch_deg": 12.0217, "yaw_deg": -29.3286, "roll_deg": -65.3898, "lat_deg": 34.0407085, "lon_deg": -117.8154699, "altitude_rel_ft": 0.128, "ground_speed_ft_s": 0.0, "vel_north_m_s": 0.0, "vel_east_m_s": 0.0, "vel_down_m_s": 0.0, "battery_remain_pct": 9900.0}
{"t_rx_ms": 1776460248521, "run_id": "20260417_140815", "seq": 137, "pitch_deg": 12.0217, "yaw_deg": -29.3286, "roll_deg": -65.3898, "lat_deg": 34.0407085, "lon_deg": -117.8154699, "altitude_rel_ft": 0.128, "ground_speed_ft_s": 0.0, "vel_north_m_s": 0.0, "vel_east_m_s": 0.0, "vel_down_m_s": 0.0, "battery_remain_pct": 9900.0}
{"t_rx_ms": 1776460248727, "run_id": "20260417_140815", "seq": 138, "pitch_deg": 12.163, "yaw_deg": -29.295, "roll_deg": -65.523, "lat_deg": 34.0407085, "lon_deg": -117.81546979999999, "altitude_rel_ft": 0.164, "ground_speed_ft_s": 0.0, "vel_north_m_s": 0.0, "vel_east_m_s": 0.0, "vel_down_m_s": 0.0, "battery_remain_pct": 9900.0}
{"t_rx_ms": 1776460248929, "run_id": "20260417_140815", "seq": 139, "pitch_deg": 12.163, "yaw_deg": -29.295, "roll_deg": -65.523, "lat_deg": 34.0407085, "lon_deg": -117.81546979999999, "altitude_rel_ft": 0.164, "ground_speed_ft_s": 0.0, "vel_north_m_s": 0.0, "vel_east_m_s": 0.0, "vel_down_m_s": 0.0, "battery_remain_pct": 9900.0}
{"t_rx_ms": 1776460249138, "run_id": "20260417_140815", "seq": 140, "pitch_deg": 12.163, "yaw_deg": -29.295, "roll_deg": -65.523, "lat_deg": 34.0407085, "lon_deg": -117.81546979999999, "altitude_rel_ft": 0.164, "ground_speed_ft_s": 0.0, "vel_north_m_s": 0.0, "vel_east_m_s": 0.0, "vel_down_m_s": 0.0, "battery_remain_pct": 9900.0}
{"t_rx_ms": 1776460249339, "run_id": "20260417_140815", "seq": 141, "pitch_deg": 12.163, "yaw_deg": -29.295, "roll_deg": -65.523, "lat_deg": 34.0407085, "lon_deg": -117.81546979999999, "altitude_rel_ft": 0.164, "ground_speed_ft_s": 0.0, "vel_north_m_s": 0.0, "vel_east_m_s": 0.0, "vel_down_m_s": 0.0, "battery_remain_pct": 9900.0}
{"t_rx_ms": 1776460249541, "run_id": "20260417_140815", "seq": 142, "pitch_deg": 12.163, "yaw_deg": -29.295, "roll_deg": -65.523, "lat_deg": 34.0407085, "lon_deg": -117.81546979999999, "altitude_rel_ft": 0.164, "ground_speed_ft_s": 0.0, "vel_north_m_s": 0.0, "vel_east_m_s": 0.0, "vel_down_m_s": 0.0, "battery_remain_pct": 9900.0}
{"t_rx_ms": 1776460249743, "run_id": "20260417_140815", "seq": 143, "pitch_deg": 12.0765, "yaw_deg": -29.5695, "roll_deg": -65.7134, "lat_deg": 34.0407085, "lon_deg": -117.8154696, "altitude_rel_ft": 0.1476, "ground_speed_ft_s": 0.0, "vel_north_m_s": 0.0, "vel_east_m_s": 0.0, "vel_down_m_s": 0.0, "battery_remain_pct": 9900.0}
{"t_rx_ms": 1776460249949, "run_id": "20260417_140815", "seq": 144, "pitch_deg": 12.0765, "yaw_deg": -29.5695, "roll_deg": -65.7134, "lat_deg": 34.0407085, "lon_deg": -117.8154696, "altitude_rel_ft": 0.1476, "ground_speed_ft_s": 0.0, "vel_north_m_s": 0.0, "vel_east_m_s": 0.0, "vel_down_m_s": 0.0, "battery_remain_pct": 9900.0}
{"t_rx_ms": 1776460250150, "run_id": "20260417_140815", "seq": 145, "pitch_deg": 12.0765, "yaw_deg": -29.5695, "roll_deg": -65.7134, "lat_deg": 34.0407085, "lon_deg": -117.8154696, "altitude_rel_ft": 0.1476, "ground_speed_ft_s": 0.0, "vel_north_m_s": 0.0, "vel_east_m_s": 0.0, "vel_down_m_s": 0.0, "battery_remain_pct": 9900.0}
{"t_rx_ms": 1776460250352, "run_id": "20260417_140815", "seq": 146, "pitch_deg": 12.0765, "yaw_deg": -29.5695, "roll_deg": -65.7134, "lat_deg": 34.0407085, "lon_deg": -117.8154696, "altitude_rel_ft": 0.1476, "ground_speed_ft_s": 0.0, "vel_north_m_s": 0.0, "vel_east_m_s": 0.0, "vel_down_m_s": 0.0, "battery_remain_pct": 9900.0}
{"t_rx_ms": 1776460250554, "run_id": "20260417_140815", "seq": 147, "pitch_deg": 12.0765, "yaw_deg": -29.5695, "roll_deg": -65.7134, "lat_deg": 34.0407085, "lon_deg": -117.8154696, "altitude_rel_ft": 0.1476, "ground_speed_ft_s": 0.0, "vel_north_m_s": 0.0, "vel_east_m_s": 0.0, "vel_down_m_s": 0.0, "battery_remain_pct": 9900.0}
{"t_rx_ms": 1776460250770, "run_id": "20260417_140815", "seq": 148, "pitch_deg": 12.1139, "yaw_deg": -29.5126, "roll_deg": -65.7629, "lat_deg": 34.0407085, "lon_deg": -117.81546949999999, "altitude_rel_ft": 0.2165, "ground_speed_ft_s": 0.0, "vel_north_m_s": 0.0, "vel_east_m_s": 0.0, "vel_down_m_s": 0.0, "battery_remain_pct": 9900.0}
{"t_rx_ms": 1776460250971, "run_id": "20260417_140815", "seq": 149, "pitch_deg": 12.1139, "yaw_deg": -29.5126, "roll_deg": -65.7629, "lat_deg": 34.0407085, "lon_deg": -117.81546949999999, "altitude_rel_ft": 0.2165, "ground_speed_ft_s": 0.0, "vel_north_m_s": 0.0, "vel_east_m_s": 0.0, "vel_down_m_s": 0.0, "battery_remain_pct": 9900.0}
{"t_rx_ms": 1776460251172, "run_id": "20260417_140815", "seq": 150, "pitch_deg": 12.1139, "yaw_deg": -29.5126, "roll_deg": -65.7629, "lat_deg": 34.0407085, "lon_deg": -117.81546949999999, "altitude_rel_ft": 0.2165, "ground_speed_ft_s": 0.0, "vel_north_m_s": 0.0, "vel_east_m_s": 0.0, "vel_down_m_s": 0.0, "battery_remain_pct": 9900.0}
{"t_rx_ms": 1776460251376, "run_id": "20260417_140815", "seq": 151, "pitch_deg": 12.1139, "yaw_deg": -29.5126, "roll_deg": -65.7629, "lat_deg": 34.0407085, "lon_deg": -117.81546949999999, "altitude_rel_ft": 0.2165, "ground_speed_ft_s": 0.0, "vel_north_m_s": 0.0, "vel_east_m_s": 0.0, "vel_down_m_s": 0.0, "battery_remain_pct": 9900.0}
{"t_rx_ms": 1776460251576, "run_id": "20260417_140815", "seq": 152, "pitch_deg": 12.1139, "yaw_deg": -29.5126, "roll_deg": -65.7629, "lat_deg": 34.0407085, "lon_deg": -117.81546949999999, "altitude_rel_ft": 0.2165, "ground_speed_ft_s": 0.0, "vel_north_m_s": 0.0, "vel_east_m_s": 0.0, "vel_down_m_s": 0.0, "battery_remain_pct": 9900.0}
{"t_rx_ms": 1776460251786, "run_id": "20260417_140815", "seq": 153, "pitch_deg": 12.1083, "yaw_deg": -29.656, "roll_deg": -65.773, "lat_deg": 34.0407085, "lon_deg": -117.8154694, "altitude_rel_ft": 0.2461, "ground_speed_ft_s": 0.0328, "vel_north_m_s": 0.0, "vel_east_m_s": 0.01, "vel_down_m_s": 0.0, "battery_remain_pct": 9900.0}
{"t_rx_ms": 1776460251989, "run_id": "20260417_140815", "seq": 154, "pitch_deg": 12.1083, "yaw_deg": -29.656, "roll_deg": -65.773, "lat_deg": 34.0407085, "lon_deg": -117.8154694, "altitude_rel_ft": 0.2461, "ground_speed_ft_s": 0.0328, "vel_north_m_s": 0.0, "vel_east_m_s": 0.01, "vel_down_m_s": 0.0, "battery_remain_pct": 9900.0}
{"t_rx_ms": 1776460252189, "run_id": "20260417_140815", "seq": 155, "pitch_deg": 12.1083, "yaw_deg": -29.656, "roll_deg": -65.773, "lat_deg": 34.0407085, "lon_deg": -117.8154694, "altitude_rel_ft": 0.2461, "ground_speed_ft_s": 0.0328, "vel_north_m_s": 0.0, "vel_east_m_s": 0.01, "vel_down_m_s": 0.0, "battery_remain_pct": 9900.0}
{"t_rx_ms": 1776460252393, "run_id": "20260417_140815", "seq": 156, "pitch_deg": 12.1083, "yaw_deg": -29.656, "roll_deg": -65.773, "lat_deg": 34.0407085, "lon_deg": -117.8154694, "altitude_rel_ft": 0.2461, "ground_speed_ft_s": 0.0328, "vel_north_m_s": 0.0, "vel_east_m_s": 0.01, "vel_down_m_s": 0.0, "battery_remain_pct": 9900.0}
{"t_rx_ms": 1776460252593, "run_id": "20260417_140815", "seq": 157, "pitch_deg": 12.1083, "yaw_deg": -29.656, "roll_deg": -65.773, "lat_deg": 34.0407085, "lon_deg": -117.8154694, "altitude_rel_ft": 0.2461, "ground_speed_ft_s": 0.0328, "vel_north_m_s": 0.0, "vel_east_m_s": 0.01, "vel_down_m_s": 0.0, "battery_remain_pct": 9900.0}
{"t_rx_ms": 1776460252794, "run_id": "20260417_140815", "seq": 158, "pitch_deg": 12.062, "yaw_deg": -29.7677, "roll_deg": -65.904, "lat_deg": 34.0407084, "lon_deg": -117.81546929999999, "altitude_rel_ft": 0.082, "ground_speed_ft_s": 0.0328, "vel_north_m_s": 0.0, "vel_east_m_s": 0.01, "vel_down_m_s": 0.0, "battery_remain_pct": 9900.0}
{"t_rx_ms": 1776460252995, "run_id": "20260417_140815", "seq": 159, "pitch_deg": 12.062, "yaw_deg": -29.7677, "roll_deg": -65.904, "lat_deg": 34.0407084, "lon_deg": -117.81546929999999, "altitude_rel_ft": 0.082, "ground_speed_ft_s": 0.0328, "vel_north_m_s": 0.0, "vel_east_m_s": 0.01, "vel_down_m_s": 0.0, "battery_remain_pct": 9900.0}
{"t_rx_ms": 1776460253196, "run_id": "20260417_140815", "seq": 160, "pitch_deg": 12.062, "yaw_deg": -29.7677, "roll_deg": -65.904, "lat_deg": 34.0407084, "lon_deg": -117.81546929999999, "altitude_rel_ft": 0.082, "ground_speed_ft_s": 0.0328, "vel_north_m_s": 0.0, "vel_east_m_s": 0.01, "vel_down_m_s": 0.0, "battery_remain_pct": 9900.0}
{"t_rx_ms": 1776460253399, "run_id": "20260417_140815", "seq": 161, "pitch_deg": 12.062, "yaw_deg": -29.7677, "roll_deg": -65.904, "lat_deg": 34.0407084, "lon_deg": -117.81546929999999, "altitude_rel_ft": 0.082, "ground_speed_ft_s": 0.0328, "vel_north_m_s": 0.0, "vel_east_m_s": 0.01, "vel_down_m_s": 0.0, "battery_remain_pct": 9900.0}
{"t_rx_ms": 1776460253601, "run_id": "20260417_140815", "seq": 162, "pitch_deg": 12.062, "yaw_deg": -29.7677, "roll_deg": -65.904, "lat_deg": 34.0407084, "lon_deg": -117.81546929999999, "altitude_rel_ft": 0.082, "ground_speed_ft_s": 0.0328, "vel_north_m_s": 0.0, "vel_east_m_s": 0.01, "vel_down_m_s": 0.0, "battery_remain_pct": 9900.0}
{"t_rx_ms": 1776460253801, "run_id": "20260417_140815", "seq": 163, "pitch_deg": 12.0782, "yaw_deg": -29.7584, "roll_deg": -65.9549, "lat_deg": 34.0407084, "lon_deg": -117.8154692, "altitude_rel_ft": 0.3018, "ground_speed_ft_s": 0.0328, "vel_north_m_s": 0.0, "vel_east_m_s": 0.01, "vel_down_m_s": -0.01, "battery_remain_pct": 9900.0}
{"t_rx_ms": 1776460254004, "run_id": "20260417_140815", "seq": 164, "pitch_deg": 12.0782, "yaw_deg": -29.7584, "roll_deg": -65.9549, "lat_deg": 34.0407084, "lon_deg": -117.8154692, "altitude_rel_ft": 0.3018, "ground_speed_ft_s": 0.0328, "vel_north_m_s": 0.0, "vel_east_m_s": 0.01, "vel_down_m_s": -0.01, "battery_remain_pct": 9900.0}
{"t_rx_ms": 1776460254206, "run_id": "20260417_140815", "seq": 165, "pitch_deg": 12.0782, "yaw_deg": -29.7584, "roll_deg": -65.9549, "lat_deg": 34.0407084, "lon_deg": -117.8154692, "altitude_rel_ft": 0.3018, "ground_speed_ft_s": 0.0328, "vel_north_m_s": 0.0, "vel_east_m_s": 0.01, "vel_down_m_s": -0.01, "battery_remain_pct": 9900.0}
{"t_rx_ms": 1776460254407, "run_id": "20260417_140815", "seq": 166, "pitch_deg": 12.0782, "yaw_deg": -29.7584, "roll_deg": -65.9549, "lat_deg": 34.0407084, "lon_deg": -117.8154692, "altitude_rel_ft": 0.3018, "ground_speed_ft_s": 0.0328, "vel_north_m_s": 0.0, "vel_east_m_s": 0.01, "vel_down_m_s": -0.01, "battery_remain_pct": 9900.0}
{"t_rx_ms": 1776460254610, "run_id": "20260417_140815", "seq": 167, "pitch_deg": 12.0782, "yaw_deg": -29.7584, "roll_deg": -65.9549, "lat_deg": 34.0407084, "lon_deg": -117.8154692, "altitude_rel_ft": 0.3018, "ground_speed_ft_s": 0.0328, "vel_north_m_s": 0.0, "vel_east_m_s": 0.01, "vel_down_m_s": -0.01, "battery_remain_pct": 9900.0}
{"t_rx_ms": 1776460254813, "run_id": "20260417_140815", "seq": 168, "pitch_deg": 12.0329, "yaw_deg": -29.9881, "roll_deg": -66.0043, "lat_deg": 34.0407083, "lon_deg": -117.8154691, "altitude_rel_ft": 0.5348, "ground_speed_ft_s": 0.0328, "vel_north_m_s": 0.0, "vel_east_m_s": 0.01, "vel_down_m_s": -0.02, "battery_remain_pct": 9900.0}
{"t_rx_ms": 1776460255014, "run_id": "20260417_140815", "seq": 169, "pitch_deg": 12.0329, "yaw_deg": -29.9881, "roll_deg": -66.0043, "lat_deg": 34.0407083, "lon_deg": -117.8154691, "altitude_rel_ft": 0.5348, "ground_speed_ft_s": 0.0328, "vel_north_m_s": 0.0, "vel_east_m_s": 0.01, "vel_down_m_s": -0.02, "battery_remain_pct": 9900.0}
{"t_rx_ms": 1776460255216, "run_id": "20260417_140815", "seq": 170, "pitch_deg": 12.0329, "yaw_deg": -29.9881, "roll_deg": -66.0043, "lat_deg": 34.0407083, "lon_deg": -117.8154691, "altitude_rel_ft": 0.5348, "ground_speed_ft_s": 0.0328, "vel_north_m_s": 0.0, "vel_east_m_s": 0.01, "vel_down_m_s": -0.02, "battery_remain_pct": 9900.0}
{"t_rx_ms": 1776460255419, "run_id": "20260417_140815", "seq": 171, "pitch_deg": 12.0329, "yaw_deg": -29.9881, "roll_deg": -66.0043, "lat_deg": 34.0407083, "lon_deg": -117.8154691, "altitude_rel_ft": 0.5348, "ground_speed_ft_s": 0.0328, "vel_north_m_s": 0.0, "vel_east_m_s": 0.01, "vel_down_m_s": -0.02, "battery_remain_pct": 9900.0}
{"t_rx_ms": 1776460255621, "run_id": "20260417_140815", "seq": 172, "pitch_deg": 12.0329, "yaw_deg": -29.9881, "roll_deg": -66.0043, "lat_deg": 34.0407083, "lon_deg": -117.8154691, "altitude_rel_ft": 0.5348, "ground_speed_ft_s": 0.0328, "vel_north_m_s": 0.0, "vel_east_m_s": 0.01, "vel_down_m_s": -0.02, "battery_remain_pct": 9900.0}
{"t_rx_ms": 1776460255823, "run_id": "20260417_140815", "seq": 173, "pitch_deg": 12.0057, "yaw_deg": -30.1331, "roll_deg": -66.0371, "lat_deg": 34.0407082, "lon_deg": -117.8154691, "altitude_rel_ft": 0.6529, "ground_speed_ft_s": 0.0328, "vel_north_m_s": 0.0, "vel_east_m_s": 0.01, "vel_down_m_s": -0.02, "battery_remain_pct": 9900.0}
{"t_rx_ms": 1776460256024, "run_id": "20260417_140815", "seq": 174, "pitch_deg": 12.0057, "yaw_deg": -30.1331, "roll_deg": -66.0371, "lat_deg": 34.0407082, "lon_deg": -117.8154691, "altitude_rel_ft": 0.6529, "ground_speed_ft_s": 0.0328, "vel_north_m_s": 0.0, "vel_east_m_s": 0.01, "vel_down_m_s": -0.02, "battery_remain_pct": 9900.0}
{"t_rx_ms": 1776460256227, "run_id": "20260417_140815", "seq": 175, "pitch_deg": 12.0057, "yaw_deg": -30.1331, "roll_deg": -66.0371, "lat_deg": 34.0407082, "lon_deg": -117.8154691, "altitude_rel_ft": 0.6529, "ground_speed_ft_s": 0.0328, "vel_north_m_s": 0.0, "vel_east_m_s": 0.01, "vel_down_m_s": -0.02, "battery_remain_pct": 9900.0}
{"t_rx_ms": 1776460256428, "run_id": "20260417_140815", "seq": 176, "pitch_deg": 12.0057, "yaw_deg": -30.1331, "roll_deg": -66.0371, "lat_deg": 34.0407082, "lon_deg": -117.8154691, "altitude_rel_ft": 0.6529, "ground_speed_ft_s": 0.0328, "vel_north_m_s": 0.0, "vel_east_m_s": 0.01, "vel_down_m_s": -0.02, "battery_remain_pct": 9900.0}
{"t_rx_ms": 1776460256629, "run_id": "20260417_140815", "seq": 177, "pitch_deg": 12.0057, "yaw_deg": -30.1331, "roll_deg": -66.0371, "lat_deg": 34.0407082, "lon_deg": -117.8154691, "altitude_rel_ft": 0.6529, "ground_speed_ft_s": 0.0328, "vel_north_m_s": 0.0, "vel_east_m_s": 0.01, "vel_down_m_s": -0.02, "battery_remain_pct": 9900.0}
{"t_rx_ms": 1776460256833, "run_id": "20260417_140815", "seq": 178, "pitch_deg": 11.9922, "yaw_deg": -30.1702, "roll_deg": -66.106, "lat_deg": 34.0407082, "lon_deg": -117.8154691, "altitude_rel_ft": 0.7283, "ground_speed_ft_s": 0.0, "vel_north_m_s": 0.0, "vel_east_m_s": 0.0, "vel_down_m_s": -0.02, "battery_remain_pct": 9900.0}
