{"run_id": "SIM_TEST", "kraken_seq": 29, "telemetry_seq": 0, "t_rx_ms": 1775870638809, "dt_ms": 250, "doa_deg": 119.0, "confidence_0_1": 0.2524597632365929, "lat_deg": 33.99738664791404, "lon_deg": -118.00273387239534, "altitude_rel_ft": 87.2845, "yaw_deg": 90.2911, "pitch_deg": 6.357, "roll_deg": 8.6858, "ground_speed_ft_s": 59.0114, "vel_north_m_s": -4.1725, "vel_east_m_s": -1.7355, "vel_down_m_s": 0.9832, "usable_for_triangulation": false, "t_gcs_rx_ms": 1776119935435}
{"run_id": "SIM_TEST", "kraken_seq": 30, "telemetry_seq": 0, "t_rx_ms": 1775870638909, "dt_ms": 150, "doa_deg": 173.0, "confidence_0_1": 0.7993060828542307, "lat_deg": 33.99738664791404, "lon_deg": -118.00273387239534, "altitude_rel_ft": 87.2845, "yaw_deg": 90.2911, "pitch_deg": 6.357, "roll_deg": 8.6858, "ground_speed_ft_s": 59.0114, "vel_north_m_s": -4.1725, "vel_east_m_s": -1.7355, "vel_down_m_s": 0.9832, "usable_for_triangulation": true, "t_gcs_rx_ms": 1776119935857}
{"run_id": "SIM_TEST", "kraken_seq": 31, "telemetry_seq": 0, "t_rx_ms": 1775870639009, "dt_ms": 50, "doa_deg": 27.0, "confidence_0_1": 0.7954543899004577, "lat_deg": 33.99738664791404, "lon_deg": -118.00273387239534, "altitude_rel_ft": 87.2845, "yaw_deg": 90.2911, "pitch_deg": 6.357, "roll_deg": 8.6858, "ground_speed_ft_s": 59.0114, "vel_north_m_s": -4.1725, "vel_east_m_s": -1.7355, "vel_down_m_s": 0.9832, "usable_for_triangulation": true, "t_gcs_rx_ms": 1776119936346}
{"run_id": "SIM_TEST", "kraken_seq": 32, "telemetry_seq": 1, "t_rx_ms": 1775870639110, "dt_ms": 49, "doa_deg": 46.0, "confidence_0_1": 0.2929818960322844, "lat_deg": 33.996552957470726, "lon_deg": -117.99904997456646, "altitude_rel_ft": 80.9238, "yaw_deg": 38.935, "pitch_deg": -7.0396, "roll_deg": -14.4884, "ground_speed_ft_s": 14.7703, "vel_north_m_s": -2.2633, "vel_east_m_s": -0.9031, "vel_down_m_s": 0.8263, "usable_for_triangulation": false, "t_gcs_rx_ms": 1776119936870}
{"run_id": "SIM_TEST", "kraken_seq": 33, "telemetry_seq": 2, "t_rx_ms": 1775870639211, "dt_ms": 49, "doa_deg": 93.0, "confidence_0_1": 0.44809193106524625, "lat_deg": 34.00098390466181, "lon_deg": -118.00023750673044, "altitude_rel_ft": 40.7128, "yaw_deg": 123.3694, "pitch_deg": -6.4396, "roll_deg": -7.9816, "ground_speed_ft_s": 36.0353, "vel_north_m_s": 9.1912, "vel_east_m_s": -3.15, "vel_down_m_s": 0.3969, "usable_for_triangulation": true, "t_gcs_rx_ms": 1776119937050}
{"run_id": "SIM_TEST", "kraken_seq": 34, "telemetry_seq": 3, "t_rx_ms": 1775870639311, "dt_ms": 49, "doa_deg": 29.0, "confidence_0_1": 0.12676189904883883, "lat_deg": 34.00384866291889, "lon_deg": -117.99370510001917, "altitude_rel_ft": 61.7536, "yaw_deg": 6.4957, "pitch_deg": -8.4926, "roll_deg": 2.1029, "ground_speed_ft_s": 20.6351, "vel_north_m_s": 9.1473, "vel_east_m_s": -4.5827, "vel_down_m_s": -0.5204, "usable_for_triangulation": false, "t_gcs_rx_ms": 1776119937457}
{"run_id": "SIM_TEST", "kraken_seq": 35, "telemetry_seq": 4, "t_rx_ms": 1775870639412, "dt_ms": 49, "doa_deg": 81.0, "confidence_0_1": 0.5213864385306459, "lat_deg": 34.00152327943577, "lon_deg": -117.99642268933617, "altitude_rel_ft": 34.2195, "yaw_deg": 182.4756, "pitch_deg": 8.2693, "roll_deg": 14.6486, "ground_speed_ft_s": 19.713, "vel_north_m_s": 1.5028, "vel_east_m_s": -6.6081, "vel_down_m_s": 0.9117, "usable_for_triangulation": true, "t_gcs_rx_ms": 1776119937842}
{"run_id": "SIM_TEST", "kraken_seq": 36, "telemetry_seq": 5, "t_rx_ms": 1775870639513, "dt_ms": 48, "doa_deg": 220.0, "confidence_0_1": 0.9357573622320984, "lat_deg": 34.00259081708327, "lon_deg": -117.99858514700756, "altitude_rel_ft": 38.0807, "yaw_deg": 125.1939, "pitch_deg": -4.5875, "roll_deg": 14.7268, "ground_speed_ft_s": 56.859, "vel_north_m_s": 1.4643, "vel_east_m_s": 7.335, "vel_down_m_s": -0.5787, "usable_for_triangulation": true, "t_gcs_rx_ms": 1776119938283}
{"run_id": "SIM_TEST", "kraken_seq": 37, "telemetry_seq": 6, "t_rx_ms": 1775870639613, "dt_ms": 49, "doa_deg": 127.0, "confidence_0_1": 0.4786225553734491, "lat_deg": 33.99937267806925, "lon_deg": -117.9913355631728, "altitude_rel_ft": 44.7737, "yaw_deg": 187.9885, "pitch_deg": -3.3801, "roll_deg": -3.9373, "ground_speed_ft_s": 7.3274, "vel_north_m_s": -5.0443, "vel_east_m_s": -2.972, "vel_down_m_s": 0.671, "usable_for_triangulation": true, "t_gcs_rx_ms": 1776119938816}
{"run_id": "SIM_TEST", "kraken_seq": 38, "telemetry_seq": 7, "t_rx_ms": 1775870639716, "dt_ms": 47, "doa_deg": 312.0, "confidence_0_1": 0.5096317059373865, "lat_deg": 34.00764368493283, "lon_deg": -117.99392026219374, "altitude_rel_ft": 97.6403, "yaw_deg": 15.3599, "pitch_deg": 8.0046, "roll_deg": 7.1466, "ground_speed_ft_s": 52.4676, "vel_north_m_s": 2.032, "vel_east_m_s": -2.3412, "vel_down_m_s": 0.323, "usable_for_triangulation": true, "t_gcs_rx_ms": 1776119939068}
{"run_id": "SIM_TEST", "kraken_seq": 39, "telemetry_seq": 8, "t_rx_ms": 1775870639816, "dt_ms": 47, "doa_deg": 214.0, "confidence_0_1": 0.18587191006806403, "lat_deg": 33.993632723941325, "lon_deg": -118.00913770016727, "altitude_rel_ft": 91.5703, "yaw_deg": 95.0315, "pitch_deg": -0.7442, "roll_deg": -6.4654, "ground_speed_ft_s": 50.4067, "vel_north_m_s": -7.2466, "vel_east_m_s": 1.8513, "vel_down_m_s": 0.1189, "usable_for_triangulation": false, "t_gcs_rx_ms": 1776119939566}
{"run_id": "SIM_TEST", "kraken_seq": 40, "telemetry_seq": 9, "t_rx_ms": 1775870639917, "dt_ms": 49, "doa_deg": 358.0, "confidence_0_1": 0.5039948297184184, "lat_deg": 34.00541608464603, "lon_deg": -117.9919727366152, "altitude_rel_ft": 84.6034, "yaw_deg": 259.0594, "pitch_deg": -7.5065, "roll_deg": 11.3005, "ground_speed_ft_s": 22.2254, "vel_north_m_s": -0.9415, "vel_east_m_s": 1.2927, "vel_down_m_s": -0.6904, "usable_for_triangulation": true, "t_gcs_rx_ms": 1776119939878}
{"run_id": "SIM_TEST", "kraken_seq": 41, "telemetry_seq": 10, "t_rx_ms": 1775870640021, "dt_ms": 46, "doa_deg": 107.0, "confidence_0_1": 0.3170062829326078, "lat_deg": 34.00600244999155, "lon_deg": -118.00182738110865, "altitude_rel_ft": 52.773, "yaw_deg": 56.9413, "pitch_deg": 3.7088, "roll_deg": -10.7662, "ground_speed_ft_s": 55.0111, "vel_north_m_s": -8.0785, "vel_east_m_s": -0.6878, "vel_down_m_s": -0.209, "usable_for_triangulation": true, "t_gcs_rx_ms": 1776119940413}
{"run_id": "SIM_TEST", "kraken_seq": 42, "telemetry_seq": 11, "t_rx_ms": 1775870640122, "dt_ms": 46, "doa_deg": 352.0, "confidence_0_1": 0.6336225508690858, "lat_deg": 34.00444524987606, "lon_deg": -118.00768162252511, "altitude_rel_ft": 33.161, "yaw_deg": 299.5594, "pitch_deg": 8.7934, "roll_deg": -12.5832, "ground_speed_ft_s": 49.2927, "vel_north_m_s": -2.3001, "vel_east_m_s": 8.7946, "vel_down_m_s": 0.0302, "usable_for_triangulation": true, "t_gcs_rx_ms": 1776119940861}
{"run_id": "SIM_TEST", "kraken_seq": 43, "telemetry_seq": 12, "t_rx_ms": 1775870640222, "dt_ms": 46, "doa_deg": 85.0, "confidence_0_1": 0.44751576934392245, "lat_deg": 34.00759666428896, "lon_deg": -118.00828433737897, "altitude_rel_ft": 27.3318, "yaw_deg": 168.8612, "pitch_deg": -6.3617, "roll_deg": -12.6884, "ground_speed_ft_s": 30.9819, "vel_north_m_s": -8.7466, "vel_east_m_s": -1.2937, "vel_down_m_s": 0.1679, "usable_for_triangulation": true, "t_gcs_rx_ms": 1776119941223}
{"run_id": "SIM_TEST", "kraken_seq": 44, "telemetry_seq": 13, "t_rx_ms": 1775870640323, "dt_ms": 46, "doa_deg": 320.0, "confidence_0_1": 0.4530306687937886, "lat_deg": 33.995633069337984, "lon_deg": -117.99122897909315, "altitude_rel_ft": 50.5099, "yaw_deg": 254.4856, "pitch_deg": -9.7076, "roll_deg": 14.0194, "ground_speed_ft_s": 59.2992, "vel_north_m_s": -0.7827, "vel_east_m_s": 2.0911, "vel_down_m_s": -0.545, "usable_for_triangulation": true, "t_gcs_rx_ms": 1776119941495}
{"run_id": "SIM_TEST", "kraken_seq": 45, "telemetry_seq": 14, "t_rx_ms": 1775870640425, "dt_ms": 45, "doa_deg": 35.0, "confidence_0_1": 0.6911027476118252, "lat_deg": 33.99657913199164, "lon_deg": -118.00257323107934, "altitude_rel_ft": 27.678, "yaw_deg": 180.4567, "pitch_deg": 5.5138, "roll_deg": 2.5493, "ground_speed_ft_s": 6.0924, "vel_north_m_s": 3.2791, "vel_east_m_s": 4.8236, "vel_down_m_s": -0.3283, "usable_for_triangulation": true, "t_gcs_rx_ms": 1776119942024}
{"run_id": "SIM_TEST", "kraken_seq": 46, "telemetry_seq": 15, "t_rx_ms": 1775870640526, "dt_ms": 45, "doa_deg": 124.0, "confidence_0_1": 0.37212807944984727, "lat_deg": 34.00331292519113, "lon_deg": -118.00579284305961, "altitude_rel_ft": 84.1574, "yaw_deg": 183.5822, "pitch_deg": -4.8772, "roll_deg": -5.5003, "ground_speed_ft_s": 24.4767, "vel_north_m_s": -3.4725, "vel_east_m_s": -9.7963, "vel_down_m_s": -0.6947, "usable_for_triangulation": true, "t_gcs_rx_ms": 1776119942382}
{"run_id": "SIM_TEST", "kraken_seq": 47, "telemetry_seq": 16, "t_rx_ms": 1775870640626, "dt_ms": 47, "doa_deg": 179.0, "confidence_0_1": 0.05303664104375516, "lat_deg": 34.007967057118265, "lon_deg": -118.0007358436228, "altitude_rel_ft": 22.1722, "yaw_deg": 79.0895, "pitch_deg": 7.278, "roll_deg": -8.6959, "ground_speed_ft_s": 40.839, "vel_north_m_s": 1.1448, "vel_east_m_s": 3.5421, "vel_down_m_s": 0.5115, "usable_for_triangulation": false, "t_gcs_rx_ms": 1776119942815}
{"run_id": "SIM_TEST", "kraken_seq": 48, "telemetry_seq": 17, "t_rx_ms": 1775870640728, "dt_ms": 47, "doa_deg": 45.0, "confidence_0_1": 0.13582538757750728, "lat_deg": 34.002988002127246, "lon_deg": -117.99784248112485, "altitude_rel_ft": 42.1745, "yaw_deg": 190.1155, "pitch_deg": 0.6769, "roll_deg": -13.2425, "ground_speed_ft_s": 20.0292, "vel_north_m_s": -5.2812, "vel_east_m_s": -5.1524, "vel_down_m_s": -0.0126, "usable_for_triangulation": false, "t_gcs_rx_ms": 1776119943101}
{"run_id": "SIM_TEST", "kraken_seq": 49, "telemetry_seq": 18, "t_rx_ms": 1775870640829, "dt_ms": 47, "doa_deg": 44.0, "confidence_0_1": 0.16277981619126847, "lat_deg": 33.990188982979646, "lon_deg": -117.99804719728668, "altitude_rel_ft": 79.2749, "yaw_deg": 95.2233, "pitch_deg": 3.6769, "roll_deg": -13.1583, "ground_speed_ft_s": 49.3077, "vel_north_m_s": 5.5103, "vel_east_m_s": 6.5478, "vel_down_m_s": 0.9273, "usable_for_triangulation": false, "t_gcs_rx_ms": 1776119943664}
{"run_id": "SIM_TEST", "kraken_seq": 50, "telemetry_seq": 19, "t_rx_ms": 1775870640930, "dt_ms": 46, "doa_deg": 77.0, "confidence_0_1": 0.4438104974366822, "lat_deg": 34.00012345236742, "lon_deg": -118.0088522162844, "altitude_rel_ft": 30.0524, "yaw_deg": 330.5677, "pitch_deg": -7.5574, "roll_deg": 3.1078, "ground_speed_ft_s": 39.6438, "vel_north_m_s": -5.5801, "vel_east_m_s": 0.7205, "vel_down_m_s": -0.624, "usable_for_triangulation": true, "t_gcs_rx_ms": 1776119943965}
{"run_id": "SIM_TEST", "kraken_seq": 51, "telemetry_seq": 20, "t_rx_ms": 1775870641030, "dt_ms": 47, "doa_deg": 157.0, "confidence_0_1": 0.9689569316467967, "lat_deg": 34.00830881908271, "lon_deg": -117.99031609028793, "altitude_rel_ft": 51.2604, "yaw_deg": 353.0358, "pitch_deg": 3.3052, "roll_deg": 2.9737, "ground_speed_ft_s": 11.9194, "vel_north_m_s": 1.1896, "vel_east_m_s": 7.2379, "vel_down_m_s": -0.1022, "usable_for_triangulation": true, "t_gcs_rx_ms": 1776119944416}
{"run_id": "SIM_TEST", "kraken_seq": 52, "telemetry_seq": 21, "t_rx_ms": 1775870641131, "dt_ms": 47, "doa_deg": 252.0, "confidence_0_1": 0.11973777186685974, "lat_deg": 34.00001538055487, "lon_deg": -117.99608779240123, "altitude_rel_ft": 62.3959, "yaw_deg": 79.9351, "pitch_deg": -5.4164, "roll_deg": 2.3152, "ground_speed_ft_s": 23.9715, "vel_north_m_s": -7.8941, "vel_east_m_s": -5.7445, "vel_down_m_s": 0.6483, "usable_for_triangulation": false, "t_gcs_rx_ms": 1776119944889}
{"run_id": "SIM_TEST", "kraken_seq": 53, "telemetry_seq": 22, "t_rx_ms": 1775870641233, "dt_ms": 46, "doa_deg": 219.0, "confidence_0_1": 0.7872544762162896, "lat_deg": 34.00030637548697, "lon_deg": -118.00636369245089, "altitude_rel_ft": 96.192, "yaw_deg": 279.8828, "pitch_deg": 7.1873, "roll_deg": 4.9009, "ground_speed_ft_s": 18.0045, "vel_north_m_s": -2.8064, "vel_east_m_s": -9.3856, "vel_down_m_s": 0.2805, "usable_for_triangulation": true, "t_gcs_rx_ms": 1776119945233}
{"run_id": "SIM_TEST", "kraken_seq": 54, "telemetry_seq": 23, "t_rx_ms": 1775870641333, "dt_ms": 46, "doa_deg": 341.0, "confidence_0_1": 0.11581302209321198, "lat_deg": 33.99551337959144, "lon_deg": -118.00102156497066, "altitude_rel_ft": 34.7511, "yaw_deg": 345.3038, "pitch_deg": 6.5649, "roll_deg": 11.1274, "ground_speed_ft_s": 19.0606, "vel_north_m_s": 9.7994, "vel_east_m_s": 8.5005, "vel_down_m_s": -0.6116, "usable_for_triangulation": false, "t_gcs_rx_ms": 1776119945592}
{"run_id": "SIM_TEST", "kraken_seq": 55, "telemetry_seq": 24, "t_rx_ms": 1775870641433, "dt_ms": 52, "doa_deg": 46.0, "confidence_0_1": 0.5908721845179697, "lat_deg": 33.99550346732124, "lon_deg": -117.99490127226768, "altitude_rel_ft": 78.6788, "yaw_deg": 278.0775, "pitch_deg": 5.0649, "roll_deg": -11.1372, "ground_speed_ft_s": 10.4601, "vel_north_m_s": 7.9968, "vel_east_m_s": 0.7163, "vel_down_m_s": -0.1965, "usable_for_triangulation": true, "t_gcs_rx_ms": 1776119946015}
{"run_id": "SIM_TEST", "kraken_seq": 56, "telemetry_seq": 24, "t_rx_ms": 1775870641533, "dt_ms": -48, "doa_deg": 189.0, "confidence_0_1": 0.8944325438181252, "lat_deg": 33.99550346732124, "lon_deg": -117.99490127226768, "altitude_rel_ft": 78.6788, "yaw_deg": 278.0775, "pitch_deg": 5.0649, "roll_deg": -11.1372, "ground_speed_ft_s": 10.4601, "vel_north_m_s": 7.9968, "vel_east_m_s": 0.7163, "vel_down_m_s": -0.1965, "usable_for_triangulation": true, "t_gcs_rx_ms": 1776119946373}
{"run_id": "SIM_TEST", "kraken_seq": 57, "telemetry_seq": 25, "t_rx_ms": 1775870641634, "dt_ms": -49, "doa_deg": 268.0, "confidence_0_1": 0.8378215302600301, "lat_deg": 34.006411696166744, "lon_deg": -117.99910710937581, "altitude_rel_ft": 93.9531, "yaw_deg": 273.6028, "pitch_deg": -9.6876, "roll_deg": -2.8667, "ground_speed_ft_s": 46.427, "vel_north_m_s": 0.0727, "vel_east_m_s": 1.448, "vel_down_m_s": 0.818, "usable_for_triangulation": true, "t_gcs_rx_ms": 1776119946824}
{"run_id": "SIM_TEST", "kraken_seq": 58, "telemetry_seq": 27, "t_rx_ms": 1775870641738, "dt_ms": 48, "doa_deg": 20.0, "confidence_0_1": 0.026689536816261294, "lat_deg": 33.99647646092842, "lon_deg": -117.99124623722285, "altitude_rel_ft": 82.1198, "yaw_deg": 285.1977, "pitch_deg": 1.2535, "roll_deg": 11.7318, "ground_speed_ft_s": 38.331, "vel_north_m_s": -7.5714, "vel_east_m_s": -8.5195, "vel_down_m_s": 0.931, "usable_for_triangulation": false, "t_gcs_rx_ms": 1776119947215}
{"run_id": "SIM_TEST", "kraken_seq": 59, "telemetry_seq": 28, "t_rx_ms": 1775870641840, "dt_ms": 46, "doa_deg": 186.0, "confidence_0_1": 0.4852870997058234, "lat_deg": 34.00721859909676, "lon_deg": -117.99275061789326, "altitude_rel_ft": 44.6986, "yaw_deg": 74.5781, "pitch_deg": -0.5573, "roll_deg": -11.8315, "ground_speed_ft_s": 24.501, "vel_north_m_s": -2.4899, "vel_east_m_s": 3.017, "vel_down_m_s": -0.3805, "usable_for_triangulation": true, "t_gcs_rx_ms": 1776119947683}
{"run_id": "SIM_TEST", "kraken_seq": 60, "telemetry_seq": 29, "t_rx_ms": 1775870641940, "dt_ms": 48, "doa_deg": 85.0, "confidence_0_1": 0.638380263305159, "lat_deg": 33.99502967821861, "lon_deg": -118.00838348367395, "altitude_rel_ft": 86.5093, "yaw_deg": 112.4282, "pitch_deg": -2.3033, "roll_deg": -6.8042, "ground_speed_ft_s": 17.488, "vel_north_m_s": 6.8608, "vel_east_m_s": -6.7607, "vel_down_m_s": 0.7288, "usable_for_triangulation": true, "t_gcs_rx_ms": 1776119947993}
{"run_id": "SIM_TEST", "kraken_seq": 61, "telemetry_seq": 30, "t_rx_ms": 1775870642041, "dt_ms": 48, "doa_deg": 271.0, "confidence_0_1": 0.9212048575416429, "lat_deg": 34.000323656650636, "lon_deg": -118.00157104893512, "altitude_rel_ft": 53.1569, "yaw_deg": 281.6297, "pitch_deg": 1.8014, "roll_deg": 2.6587, "ground_speed_ft_s": 35.1705, "vel_north_m_s": 3.2337, "vel_east_m_s": -1.8876, "vel_down_m_s": 0.492, "usable_for_triangulation": true, "t_gcs_rx_ms": 1776119948431}
{"run_id": "SIM_TEST", "kraken_seq": 62, "telemetry_seq": 31, "t_rx_ms": 1775870642141, "dt_ms": 48, "doa_deg": 149.0, "confidence_0_1": 0.9320870980663212, "lat_deg": 33.99251017895512, "lon_deg": -118.00279242287269, "altitude_rel_ft": 78.426, "yaw_deg": 193.6907, "pitch_deg": -3.8221, "roll_deg": -13.7362, "ground_speed_ft_s": 55.4139, "vel_north_m_s": -4.793, "vel_east_m_s": -9.4873, "vel_down_m_s": -0.7296, "usable_for_triangulation": true, "t_gcs_rx_ms": 1776119948802}
{"run_id": "SIM_TEST", "kraken_seq": 63, "telemetry_seq": 32, "t_rx_ms": 1775870642242, "dt_ms": 49, "doa_deg": 225.0, "confidence_0_1": 0.8164710700667547, "lat_deg": 34.001687130935174, "lon_deg": -118.00264109491721, "altitude_rel_ft": 89.2888, "yaw_deg": 246.7439, "pitch_deg": -3.4887, "roll_deg": -10.4542, "ground_speed_ft_s": 5.6552, "vel_north_m_s": 7.2748, "vel_east_m_s": 4.7741, "vel_down_m_s": 0.6894, "usable_for_triangulation": true, "t_gcs_rx_ms": 1776119949228}
{"run_id": "SIM_TEST", "kraken_seq": 64, "telemetry_seq": 33, "t_rx_ms": 1775870642344, "dt_ms": 49, "doa_deg": 17.0, "confidence_0_1": 0.4668693742604867, "lat_deg": 33.99582505974034, "lon_deg": -117.99626446613428, "altitude_rel_ft": 22.5324, "yaw_deg": 233.7632, "pitch_deg": 0.4399, "roll_deg": 5.3416, "ground_speed_ft_s": 27.6076, "vel_north_m_s": -1.3812, "vel_east_m_s": -2.5513, "vel_down_m_s": 0.2236, "usable_for_triangulation": true, "t_gcs_rx_ms": 1776119949709}
{"run_id": "SIM_TEST", "kraken_seq": 65, "telemetry_seq": 34, "t_rx_ms": 1775870642444, "dt_ms": 50, "doa_deg": 135.0, "confidence_0_1": 0.6767132629113563, "lat_deg": 34.00622691848169, "lon_deg": -117.99450972861277, "altitude_rel_ft": 53.8468, "yaw_deg": 283.1057, "pitch_deg": -8.7563, "roll_deg": -10.0797, "ground_speed_ft_s": 14.1552, "vel_north_m_s": -9.2605, "vel_east_m_s": 6.4069, "vel_down_m_s": -0.3493, "usable_for_triangulation": true, "t_gcs_rx_ms": 1776119950034}
{"run_id": "SIM_TEST", "kraken_seq": 66, "telemetry_seq": 35, "t_rx_ms": 1775870642547, "dt_ms": 47, "doa_deg": 6.0, "confidence_0_1": 0.562134017482089, "lat_deg": 33.992088982820114, "lon_deg": -117.99321708804864, "altitude_rel_ft": 77.0686, "yaw_deg": 213.5411, "pitch_deg": -1.1507, "roll_deg": 3.3245, "ground_speed_ft_s": 16.9989, "vel_north_m_s": -5.0789, "vel_east_m_s": -0.1757, "vel_down_m_s": 0.9103, "usable_for_triangulation": true, "t_gcs_rx_ms": 1776119950406}
{"run_id": "SIM_TEST", "kraken_seq": 67, "telemetry_seq": 36, "t_rx_ms": 1775870642651, "dt_ms": 43, "doa_deg": 227.0, "confidence_0_1": 0.21224608957267688, "lat_deg": 33.99314951041245, "lon_deg": -118.00776094380551, "altitude_rel_ft": 88.2171, "yaw_deg": 83.2485, "pitch_deg": -4.288, "roll_deg": 2.2547, "ground_speed_ft_s": 33.5103, "vel_north_m_s": -0.8461, "vel_east_m_s": -3.8118, "vel_down_m_s": -0.9761, "usable_for_triangulation": false, "t_gcs_rx_ms": 1776119950813}
{"run_id": "SIM_TEST", "kraken_seq": 68, "telemetry_seq": 37, "t_rx_ms": 1775870642753, "dt_ms": 43, "doa_deg": 225.0, "confidence_0_1": 0.05929992340503798, "lat_deg": 33.99467141797785, "lon_deg": -117.99360628738971, "altitude_rel_ft": 22.435, "yaw_deg": 133.6344, "pitch_deg": -3.4496, "roll_deg": 3.2362, "ground_speed_ft_s": 35.884, "vel_north_m_s": -3.2938, "vel_east_m_s": 8.9905, "vel_down_m_s": -0.2033, "usable_for_triangulation": false, "t_gcs_rx_ms": 1776119951185}
{"run_id": "SIM_TEST", "kraken_seq": 69, "telemetry_seq": 38, "t_rx_ms": 1775870642855, "dt_ms": 41, "doa_deg": 237.0, "confidence_0_1": 0.020009254351624928, "lat_deg": 33.99800126175484, "lon_deg": -118.0028398247745, "altitude_rel_ft": 79.0863, "yaw_deg": 170.0084, "pitch_deg": 6.0424, "roll_deg": 7.6783, "ground_speed_ft_s": 58.9317, "vel_north_m_s": 4.8475, "vel_east_m_s": -4.6876, "vel_down_m_s": -0.5468, "usable_for_triangulation": false, "t_gcs_rx_ms": 1776119951839}
{"run_id": "SIM_TEST", "kraken_seq": 70, "telemetry_seq": 39, "t_rx_ms": 1775870642955, "dt_ms": 44, "doa_deg": 347.0, "confidence_0_1": 0.0759504382027586, "lat_deg": 34.00547038511223, "lon_deg": -118.00048561870943, "altitude_rel_ft": 20.7499, "yaw_deg": 248.3858, "pitch_deg": 1.1354, "roll_deg": -10.2844, "ground_speed_ft_s": 33.8183, "vel_north_m_s": -7.9121, "vel_east_m_s": 9.7212, "vel_down_m_s": 0.1608, "usable_for_triangulation": false, "t_gcs_rx_ms": 1776119952024}
{"run_id": "SIM_TEST", "kraken_seq": 71, "telemetry_seq": 40, "t_rx_ms": 1775870643056, "dt_ms": 43, "doa_deg": 332.0, "confidence_0_1": 0.3329076703942946, "lat_deg": 34.00350114001831, "lon_deg": -118.00410389159374, "altitude_rel_ft": 96.0992, "yaw_deg": 340.637, "pitch_deg": 1.3917, "roll_deg": -8.2579, "ground_speed_ft_s": 16.9555, "vel_north_m_s": 2.0437, "vel_east_m_s": 4.8128, "vel_down_m_s": 0.1758, "usable_for_triangulation": true, "t_gcs_rx_ms": 1776119952444}
{"run_id": "SIM_TEST", "kraken_seq": 72, "telemetry_seq": 41, "t_rx_ms": 1775870643157, "dt_ms": 43, "doa_deg": 250.0, "confidence_0_1": 0.42401419876192237, "lat_deg": 34.00626826933411, "lon_deg": -118.00784827096297, "altitude_rel_ft": 89.5565, "yaw_deg": 232.5468, "pitch_deg": 8.1852, "roll_deg": -4.7534, "ground_speed_ft_s": 23.3487, "vel_north_m_s": 4.0501, "vel_east_m_s": -5.093, "vel_down_m_s": -0.4172, "usable_for_triangulation": true, "t_gcs_rx_ms": 1776119952835}
{"run_id": "SIM_TEST", "kraken_seq": 73, "telemetry_seq": 42, "t_rx_ms": 1775870643259, "dt_ms": 43, "doa_deg": 45.0, "confidence_0_1": 0.5750966349489481, "lat_deg": 33.99798682686712, "lon_deg": -118.00333885918893, "altitude_rel_ft": 30.9099, "yaw_deg": 238.0873, "pitch_deg": -5.4186, "roll_deg": -1.7181, "ground_speed_ft_s": 34.2748, "vel_north_m_s": -0.2519, "vel_east_m_s": -2.2562, "vel_down_m_s": -0.1348, "usable_for_triangulation": true, "t_gcs_rx_ms": 1776119953270}
{"run_id": "SIM_TEST", "kraken_seq": 74, "telemetry_seq": 43, "t_rx_ms": 1775870643360, "dt_ms": 42, "doa_deg": 228.0, "confidence_0_1": 0.5261711713114167, "lat_deg": 33.994938873731954, "lon_deg": -117.99956702621634, "altitude_rel_ft": 58.0954, "yaw_deg": 107.1056, "pitch_deg": -4.5085, "roll_deg": 4.6505, "ground_speed_ft_s": 13.4753, "vel_north_m_s": -3.4367, "vel_east_m_s": 4.7985, "vel_down_m_s": -0.2372, "usable_for_triangulation": true, "t_gcs_rx_ms": 1776119953846}
{"run_id": "SIM_TEST", "kraken_seq": 75, "telemetry_seq": 44, "t_rx_ms": 1775870643460, "dt_ms": 43, "doa_deg": 91.0, "confidence_0_1": 0.5345586688572261, "lat_deg": 33.99143718558933, "lon_deg": -118.00479093407469, "altitude_rel_ft": 31.8753, "yaw_deg": 2.0038, "pitch_deg": -4.8944, "roll_deg": -1.5557, "ground_speed_ft_s": 9.5172, "vel_north_m_s": 7.1281, "vel_east_m_s": -1.1063, "vel_down_m_s": -0.8647, "usable_for_triangulation": true, "t_gcs_rx_ms": 1776119954045}
{"run_id": "SIM_TEST", "kraken_seq": 76, "telemetry_seq": 45, "t_rx_ms": 1775870643560, "dt_ms": 43, "doa_deg": 109.0, "confidence_0_1": 0.40532915303430106, "lat_deg": 34.00982836441675, "lon_deg": -117.99524091761917, "altitude_rel_ft": 28.645, "yaw_deg": 128.7921, "pitch_deg": 4.2773, "roll_deg": -1.524, "ground_speed_ft_s": 8.471, "vel_north_m_s": -2.9888, "vel_east_m_s": -8.3735, "vel_down_m_s": -0.5705, "usable_for_triangulation": true, "t_gcs_rx_ms": 1776119954431}
{"run_id": "SIM_TEST", "kraken_seq": 77, "telemetry_seq": 46, "t_rx_ms": 1775870643660, "dt_ms": 44, "doa_deg": 298.0, "confidence_0_1": 0.6813495137721256, "lat_deg": 33.99616524249751, "lon_deg": -118.00565060701025, "altitude_rel_ft": 88.1193, "yaw_deg": 146.3212, "pitch_deg": 1.775, "roll_deg": 14.6749, "ground_speed_ft_s": 49.2566, "vel_north_m_s": 5.2712, "vel_east_m_s": -0.9571, "vel_down_m_s": 0.3268, "usable_for_triangulation": true, "t_gcs_rx_ms": 1776119954836}
{"run_id": "SIM_TEST", "kraken_seq": 78, "telemetry_seq": 47, "t_rx_ms": 1775870643761, "dt_ms": 46, "doa_deg": 168.0, "confidence_0_1": 0.6130357731497549, "lat_deg": 34.007280054219656, "lon_deg": -118.00830744650496, "altitude_rel_ft": 32.3271, "yaw_deg": 316.0702, "pitch_deg": 6.4113, "roll_deg": -0.2068, "ground_speed_ft_s": 33.5005, "vel_north_m_s": -3.2474, "vel_east_m_s": -3.6783, "vel_down_m_s": -0.1723, "usable_for_triangulation": true, "t_gcs_rx_ms": 1776119955227}
{"run_id": "SIM_TEST", "kraken_seq": 79, "telemetry_seq": 48, "t_rx_ms": 1775870643862, "dt_ms": 47, "doa_deg": 178.0, "confidence_0_1": 0.019063294508903983, "lat_deg": 33.990634300986365, "lon_deg": -117.9937868614181, "altitude_rel_ft": 65.6473, "yaw_deg": 181.7279, "pitch_deg": -4.6372, "roll_deg": 13.126, "ground_speed_ft_s": 40.1477, "vel_north_m_s": 9.4841, "vel_east_m_s": 3.4214, "vel_down_m_s": 0.0277, "usable_for_triangulation": false, "t_gcs_rx_ms": 1776119955854}
{"run_id": "SIM_TEST", "kraken_seq": 80, "telemetry_seq": 49, "t_rx_ms": 1775870643965, "dt_ms": 44, "doa_deg": 217.0, "confidence_0_1": 0.7999468040753204, "lat_deg": 34.00101601546747, "lon_deg": -118.0061695328681, "altitude_rel_ft": 25.6861, "yaw_deg": 218.4174, "pitch_deg": -5.5681, "roll_deg": 3.9025, "ground_speed_ft_s": 37.5598, "vel_north_m_s": -6.4889, "vel_east_m_s": -3.4213, "vel_down_m_s": -0.1382, "usable_for_triangulation": true, "t_gcs_rx_ms": 1776119956037}
{"run_id": "SIM_TEST", "kraken_seq": 81, "telemetry_seq": 50, "t_rx_ms": 1775870644066, "dt_ms": 44, "doa_deg": 324.0, "confidence_0_1": 0.1995283672060877, "lat_deg": 34.00751873399952, "lon_deg": -117.99253089090033, "altitude_rel_ft": 89.2269, "yaw_deg": 351.5179, "pitch_deg": 9.9128, "roll_deg": 5.7388, "ground_speed_ft_s": 13.6495, "vel_north_m_s": 3.9477, "vel_east_m_s": -9.3425, "vel_down_m_s": 0.679, "usable_for_triangulation": false, "t_gcs_rx_ms": 1776119956457}
{"run_id": "SIM_TEST", "kraken_seq": 82, "telemetry_seq": 51, "t_rx_ms": 1775870644166, "dt_ms": 45, "doa_deg": 138.0, "confidence_0_1": 0.7437073909933921, "lat_deg": 34.00187300821765, "lon_deg": -117.99189237084965, "altitude_rel_ft": 66.4703, "yaw_deg": 213.7903, "pitch_deg": -5.3328, "roll_deg": -12.0969, "ground_speed_ft_s": 11.1434, "vel_north_m_s": -2.1968, "vel_east_m_s": 7.708, "vel_down_m_s": 0.0491, "usable_for_triangulation": true, "t_gcs_rx_ms": 1776119956844}
{"run_id": "SIM_TEST", "kraken_seq": 83, "telemetry_seq": 52, "t_rx_ms": 1775870644266, "dt_ms": 45, "doa_deg": 162.0, "confidence_0_1": 0.6937515691003135, "lat_deg": 34.0057214884111, "lon_deg": -117.99034737924384, "altitude_rel_ft": 44.0796, "yaw_deg": 310.3375, "pitch_deg": 9.7673, "roll_deg": 7.0934, "ground_speed_ft_s": 43.0239, "vel_north_m_s": -7.3411, "vel_east_m_s": -6.6988, "vel_down_m_s": -0.0961, "usable_for_triangulation": true, "t_gcs_rx_ms": 1776119957242}
{"run_id": "SIM_TEST", "kraken_seq": 84, "telemetry_seq": 53, "t_rx_ms": 1775870644369, "dt_ms": 43, "doa_deg": 18.0, "confidence_0_1": 0.15134990511489232, "lat_deg": 34.00375502651035, "lon_deg": -117.99499754414822, "altitude_rel_ft": 85.9684, "yaw_deg": 219.6173, "pitch_deg": 4.0231, "roll_deg": -8.7102, "ground_speed_ft_s": 9.8368, "vel_north_m_s": 2.0039, "vel_east_m_s": -2.2865, "vel_down_m_s": 0.9474, "usable_for_triangulation": false, "t_gcs_rx_ms": 1776119957850}
{"run_id": "SIM_TEST", "kraken_seq": 85, "telemetry_seq": 54, "t_rx_ms": 1775870644469, "dt_ms": 43, "doa_deg": 105.0, "confidence_0_1": 0.614038620648139, "lat_deg": 33.99113060670035, "lon_deg": -118.00937471165966, "altitude_rel_ft": 63.965, "yaw_deg": 342.3601, "pitch_deg": 4.157, "roll_deg": -10.5124, "ground_speed_ft_s": 24.4921, "vel_north_m_s": 2.3393, "vel_east_m_s": 5.6618, "vel_down_m_s": 0.6742, "usable_for_triangulation": true, "t_gcs_rx_ms": 1776119958050}
{"run_id": "SIM_TEST", "kraken_seq": 86, "telemetry_seq": 55, "t_rx_ms": 1775870644569, "dt_ms": 44, "doa_deg": 350.0, "confidence_0_1": 0.003382728851332062, "lat_deg": 33.999256096218026, "lon_deg": -117.99163758453935, "altitude_rel_ft": 40.1344, "yaw_deg": 207.2716, "pitch_deg": -3.0451, "roll_deg": 14.9496, "ground_speed_ft_s": 47.8604, "vel_north_m_s": -5.721, "vel_east_m_s": 0.3105, "vel_down_m_s": -0.0708, "usable_for_triangulation": false, "t_gcs_rx_ms": 1776119958421}
{"run_id": "SIM_TEST", "kraken_seq": 87, "telemetry_seq": 56, "t_rx_ms": 1775870644670, "dt_ms": 43, "doa_deg": 211.0, "confidence_0_1": 0.6724886523265723, "lat_deg": 34.00561634216908, "lon_deg": -118.0025746496523, "altitude_rel_ft": 67.2996, "yaw_deg": 180.992, "pitch_deg": 8.4937, "roll_deg": 14.5494, "ground_speed_ft_s": 31.7955, "vel_north_m_s": -1.1693, "vel_east_m_s": -5.3167, "vel_down_m_s": -0.1396, "usable_for_triangulation": true, "t_gcs_rx_ms": 1776119958871}
{"run_id": "SIM_TEST", "kraken_seq": 88, "telemetry_seq": 57, "t_rx_ms": 1775870644770, "dt_ms": 44, "doa_deg": 185.0, "confidence_0_1": 0.4021609071177017, "lat_deg": 34.00522782771584, "lon_deg": -118.00870480882793, "altitude_rel_ft": 61.8566, "yaw_deg": 90.4197, "pitch_deg": 6.7363, "roll_deg": -8.4471, "ground_speed_ft_s": 40.8378, "vel_north_m_s": -4.2502, "vel_east_m_s": 0.2819, "vel_down_m_s": 0.5363, "usable_for_triangulation": true, "t_gcs_rx_ms": 1776119959245}
{"run_id": "SIM_TEST", "kraken_seq": 89, "telemetry_seq": 58, "t_rx_ms": 1775870644871, "dt_ms": 44, "doa_deg": 21.0, "confidence_0_1": 0.05273251958563796, "lat_deg": 34.00811746912538, "lon_deg": -117.99835828936679, "altitude_rel_ft": 80.5655, "yaw_deg": 55.4242, "pitch_deg": -8.5679, "roll_deg": -5.2249, "ground_speed_ft_s": 35.7947, "vel_north_m_s": 6.5499, "vel_east_m_s": -9.2231, "vel_down_m_s": 0.1965, "usable_for_triangulation": false, "t_gcs_rx_ms": 1776119959870}
{"run_id": "SIM_TEST", "kraken_seq": 90, "telemetry_seq": 59, "t_rx_ms": 1775870644971, "dt_ms": 45, "doa_deg": 159.0, "confidence_0_1": 0.329548563620245, "lat_deg": 34.00516811151285, "lon_deg": -117.99914846639514, "altitude_rel_ft": 49.3717, "yaw_deg": 34.6304, "pitch_deg": 9.2391, "roll_deg": -14.5499, "ground_speed_ft_s": 37.1317, "vel_north_m_s": -5.4295, "vel_east_m_s": 1.7924, "vel_down_m_s": -0.695, "usable_for_triangulation": true, "t_gcs_rx_ms": 1776119960054}
{"run_id": "SIM_TEST", "kraken_seq": 91, "telemetry_seq": 60, "t_rx_ms": 1775870645073, "dt_ms": 44, "doa_deg": 333.0, "confidence_0_1": 0.7312593088784533, "lat_deg": 34.00777201968182, "lon_deg": -118.00068588502744, "altitude_rel_ft": 95.9895, "yaw_deg": 118.8649, "pitch_deg": -8.2329, "roll_deg": 4.0036, "ground_speed_ft_s": 7.1802, "vel_north_m_s": -7.2238, "vel_east_m_s": 3.582, "vel_down_m_s": 0.3661, "usable_for_triangulation": true, "t_gcs_rx_ms": 1776119960461}
{"run_id": "SIM_TEST", "kraken_seq": 92, "telemetry_seq": 61, "t_rx_ms": 1775870645174, "dt_ms": 45, "doa_deg": 23.0, "confidence_0_1": 0.27995083847783386, "lat_deg": 33.99913873549339, "lon_deg": -118.0055238482395, "altitude_rel_ft": 77.8632, "yaw_deg": 280.0635, "pitch_deg": 1.6956, "roll_deg": -12.0411, "ground_speed_ft_s": 48.8131, "vel_north_m_s": 4.1756, "vel_east_m_s": -0.142, "vel_down_m_s": -0.2587, "usable_for_triangulation": false, "t_gcs_rx_ms": 1776119960848}
{"run_id": "SIM_TEST", "kraken_seq": 93, "telemetry_seq": 62, "t_rx_ms": 1775870645274, "dt_ms": 45, "doa_deg": 269.0, "confidence_0_1": 0.06785202375291643, "lat_deg": 34.004277190215674, "lon_deg": -117.99578258178869, "altitude_rel_ft": 45.9761, "yaw_deg": 40.9196, "pitch_deg": 9.759, "roll_deg": 1.8986, "ground_speed_ft_s": 36.18, "vel_north_m_s": -8.8166, "vel_east_m_s": -6.8216, "vel_down_m_s": -0.0735, "usable_for_triangulation": false, "t_gcs_rx_ms": 1776119961266}
{"run_id": "SIM_TEST", "kraken_seq": 94, "telemetry_seq": 63, "t_rx_ms": 1775870645374, "dt_ms": 46, "doa_deg": 150.0, "confidence_0_1": 0.34541926944847334, "lat_deg": 33.99047046739198, "lon_deg": -118.0036834265925, "altitude_rel_ft": 49.1785, "yaw_deg": 281.6937, "pitch_deg": -7.6536, "roll_deg": 9.1313, "ground_speed_ft_s": 11.5048, "vel_north_m_s": 7.5757, "vel_east_m_s": 1.346, "vel_down_m_s": -0.9728, "usable_for_triangulation": true, "t_gcs_rx_ms": 1776119961905}
{"run_id": "SIM_TEST", "kraken_seq": 95, "telemetry_seq": 64, "t_rx_ms": 1775870645475, "dt_ms": 46, "doa_deg": 188.0, "confidence_0_1": 0.5321728391599669, "lat_deg": 34.00516722300944, "lon_deg": -117.99854993136233, "altitude_rel_ft": 50.2262, "yaw_deg": 196.4872, "pitch_deg": -2.3705, "roll_deg": -14.4613, "ground_speed_ft_s": 22.6611, "vel_north_m_s": 9.3919, "vel_east_m_s": -0.8261, "vel_down_m_s": 0.3322, "usable_for_triangulation": true, "t_gcs_rx_ms": 1776119962102}
{"run_id": "SIM_TEST", "kraken_seq": 96, "telemetry_seq": 65, "t_rx_ms": 1775870645575, "dt_ms": 50, "doa_deg": 333.0, "confidence_0_1": 0.852822843064855, "lat_deg": 34.00360596817647, "lon_deg": -118.00257369736491, "altitude_rel_ft": 52.4827, "yaw_deg": 155.6633, "pitch_deg": -0.3546, "roll_deg": -7.293, "ground_speed_ft_s": 39.3175, "vel_north_m_s": 9.2942, "vel_east_m_s": -1.926, "vel_down_m_s": 0.3262, "usable_for_triangulation": true, "t_gcs_rx_ms": 1776119962441}
{"run_id": "SIM_TEST", "kraken_seq": 97, "telemetry_seq": 65, "t_rx_ms": 1775870645675, "dt_ms": -50, "doa_deg": 233.0, "confidence_0_1": 0.06176676099366696, "lat_deg": 34.00360596817647, "lon_deg": -118.00257369736491, "altitude_rel_ft": 52.4827, "yaw_deg": 155.6633, "pitch_deg": -0.3546, "roll_deg": -7.293, "ground_speed_ft_s": 39.3175, "vel_north_m_s": 9.2942, "vel_east_m_s": -1.926, "vel_down_m_s": 0.3262, "usable_for_triangulation": false, "t_gcs_rx_ms": 1776119962873}
{"run_id": "SIM_TEST", "kraken_seq": 98, "telemetry_seq": 66, "t_rx_ms": 1775870645775, "dt_ms": -50, "doa_deg": 193.0, "confidence_0_1": 0.42573629666103885, "lat_deg": 34.00147381227225, "lon_deg": -117.9958343660796, "altitude_rel_ft": 84.7853, "yaw_deg": 251.3036, "pitch_deg": 3.5526, "roll_deg": 1.241, "ground_speed_ft_s": 51.4353, "vel_north_m_s": -6.1328, "vel_east_m_s": 8.734, "vel_down_m_s": -0.3263, "usable_for_triangulation": true, "t_gcs_rx_ms": 1776119963431}
{"run_id": "SIM_TEST", "kraken_seq": 99, "telemetry_seq": 67, "t_rx_ms": 1775870645876, "dt_ms": -50, "doa_deg": 159.0, "confidence_0_1": 0.9148076586992312, "lat_deg": 34.00150927057025, "lon_deg": -118.00659346899393, "altitude_rel_ft": 79.2254, "yaw_deg": 230.429, "pitch_deg": 2.7706, "roll_deg": -1.7877, "ground_speed_ft_s": 11.2813, "vel_north_m_s": -4.3015, "vel_east_m_s": 5.4124, "vel_down_m_s": -0.9423, "usable_for_triangulation": true, "t_gcs_rx_ms": 1776119963872}
{"run_id": "SIM_TEST", "kraken_seq": 100, "telemetry_seq": 68, "t_rx_ms": 1775870645976, "dt_ms": -49, "doa_deg": 11.0, "confidence_0_1": 0.34717548878895566, "lat_deg": 33.99696772053966, "lon_deg": -117.99276056306054, "altitude_rel_ft": 37.9597, "yaw_deg": 232.0957, "pitch_deg": 5.0828, "roll_deg": -1.9664, "ground_speed_ft_s": 50.0243, "vel_north_m_s": -6.8141, "vel_east_m_s": -0.3367, "vel_down_m_s": -0.7205, "usable_for_triangulation": true, "t_gcs_rx_ms": 1776119964210}
{"run_id": "SIM_TEST", "kraken_seq": 101, "telemetry_seq": 69, "t_rx_ms": 1775870646077, "dt_ms": -50, "doa_deg": 240.0, "confidence_0_1": 0.155987763257865, "lat_deg": 33.994276278648364, "lon_deg": -117.99994014329414, "altitude_rel_ft": 69.0473, "yaw_deg": 202.4362, "pitch_deg": -1.3468, "roll_deg": 8.8697, "ground_speed_ft_s": 13.0338, "vel_north_m_s": 2.4406, "vel_east_m_s": 7.2259, "vel_down_m_s": -0.6046, "usable_for_triangulation": false, "t_gcs_rx_ms": 1776119964490}
{"run_id": "SIM_TEST", "kraken_seq": 102, "telemetry_seq": 70, "t_rx_ms": 1775870646178, "dt_ms": -50, "doa_deg": 354.0, "confidence_0_1": 0.09132417961750816, "lat_deg": 33.99482820882609, "lon_deg": -117.99430594314238, "altitude_rel_ft": 76.0327, "yaw_deg": 214.7136, "pitch_deg": 1.4809, "roll_deg": 3.6076, "ground_speed_ft_s": 33.9595, "vel_north_m_s": -0.7148, "vel_east_m_s": -5.882, "vel_down_m_s": -0.5665, "usable_for_triangulation": false, "t_gcs_rx_ms": 1776119964864}
{"run_id": "SIM_TEST", "kraken_seq": 103, "telemetry_seq": 71, "t_rx_ms": 1775870646281, "dt_ms": -51, "doa_deg": 79.0, "confidence_0_1": 0.2728377083299838, "lat_deg": 33.995046050519754, "lon_deg": -117.99517946820679, "altitude_rel_ft": 25.8238, "yaw_deg": 190.2879, "pitch_deg": -2.2813, "roll_deg": 8.6771, "ground_speed_ft_s": 7.1317, "vel_north_m_s": 2.0307, "vel_east_m_s": 3.8994, "vel_down_m_s": -0.3529, "usable_for_triangulation": false, "t_gcs_rx_ms": 1776119965268}
{"run_id": "SIM_TEST", "kraken_seq": 104, "telemetry_seq": 72, "t_rx_ms": 1775870646381, "dt_ms": -48, "doa_deg": 97.0, "confidence_0_1": 0.6104201647832938, "lat_deg": 34.00909201580795, "lon_deg": -118.00249689159884, "altitude_rel_ft": 46.7402, "yaw_deg": 122.8291, "pitch_deg": 1.658, "roll_deg": -6.1256, "ground_speed_ft_s": 24.9752, "vel_north_m_s": -1.8531, "vel_east_m_s": -0.7221, "vel_down_m_s": -0.7572, "usable_for_triangulation": true, "t_gcs_rx_ms": 1776119965772}
{"run_id": "SIM_TEST", "kraken_seq": 105, "telemetry_seq": 73, "t_rx_ms": 1775870646483, "dt_ms": -47, "doa_deg": 135.0, "confidence_0_1": 0.2742268642366026, "lat_deg": 33.99417426123649, "lon_deg": -118.0046543301857, "altitude_rel_ft": 60.0364, "yaw_deg": 41.5562, "pitch_deg": 9.8979, "roll_deg": 2.2178, "ground_speed_ft_s": 44.3713, "vel_north_m_s": 0.9909, "vel_east_m_s": 4.7616, "vel_down_m_s": 0.0815, "usable_for_triangulation": false, "t_gcs_rx_ms": 1776119966108}
{"run_id": "SIM_TEST", "kraken_seq": 106, "telemetry_seq": 74, "t_rx_ms": 1775870646583, "dt_ms": -46, "doa_deg": 38.0, "confidence_0_1": 0.9170134703797577, "lat_deg": 33.99267073317103, "lon_deg": -118.00467507509667, "altitude_rel_ft": 62.6843, "yaw_deg": 245.6268, "pitch_deg": 1.4857, "roll_deg": -1.4875, "ground_speed_ft_s": 39.4452, "vel_north_m_s": -0.3948, "vel_east_m_s": 5.5982, "vel_down_m_s": -0.5521, "usable_for_triangulation": true, "t_gcs_rx_ms": 1776119966481}
{"run_id": "SIM_TEST", "kraken_seq": 107, "telemetry_seq": 75, "t_rx_ms": 1775870646684, "dt_ms": -47, "doa_deg": 304.0, "confidence_0_1": 0.004880658174191921, "lat_deg": 34.0042421486672, "lon_deg": -117.9926105291514, "altitude_rel_ft": 43.9575, "yaw_deg": 79.3103, "pitch_deg": -8.0553, "roll_deg": -13.0174, "ground_speed_ft_s": 45.1568, "vel_north_m_s": -5.5162, "vel_east_m_s": -5.0155, "vel_down_m_s": -0.6652, "usable_for_triangulation": false, "t_gcs_rx_ms": 1776119967009}
{"run_id": "SIM_TEST", "kraken_seq": 108, "telemetry_seq": 76, "t_rx_ms": 1775870646784, "dt_ms": -47, "doa_deg": 83.0, "confidence_0_1": 0.27529232490078703, "lat_deg": 34.00683452246951, "lon_deg": -117.99538839686629, "altitude_rel_ft": 32.6088, "yaw_deg": 130.9459, "pitch_deg": 6.3075, "roll_deg": 2.6544, "ground_speed_ft_s": 55.9976, "vel_north_m_s": -3.4595, "vel_east_m_s": -3.4425, "vel_down_m_s": 0.2268, "usable_for_triangulation": false, "t_gcs_rx_ms": 1776119967413}
{"run_id": "SIM_TEST", "kraken_seq": 109, "telemetry_seq": 77, "t_rx_ms": 1775870646887, "dt_ms": -49, "doa_deg": 328.0, "confidence_0_1": 0.25578396670778447, "lat_deg": 33.995588125665506, "lon_deg": -117.99430132657766, "altitude_rel_ft": 42.4643, "yaw_deg": 308.6465, "pitch_deg": -9.0357, "roll_deg": 0.4246, "ground_speed_ft_s": 29.6046, "vel_north_m_s": -4.706, "vel_east_m_s": 8.4448, "vel_down_m_s": -0.3999, "usable_for_triangulation": false, "t_gcs_rx_ms": 1776119967892}
{"run_id": "SIM_TEST", "kraken_seq": 110, "telemetry_seq": 78, "t_rx_ms": 1775870646988, "dt_ms": -50, "doa_deg": 28.0, "confidence_0_1": 0.27878491554112783, "lat_deg": 34.009367028993815, "lon_deg": -117.99792230781749, "altitude_rel_ft": 47.2388, "yaw_deg": 106.1297, "pitch_deg": -0.1387, "roll_deg": -2.835, "ground_speed_ft_s": 18.7751, "vel_north_m_s": -9.7571, "vel_east_m_s": 6.9681, "vel_down_m_s": -0.4334, "usable_for_triangulation": false, "t_gcs_rx_ms": 1776119968213}
{"run_id": "SIM_TEST", "kraken_seq": 111, "telemetry_seq": 79, "t_rx_ms": 1775870647088, "dt_ms": -49, "doa_deg": 91.0, "confidence_0_1": 0.8342361290783946, "lat_deg": 33.998204338784696, "lon_deg": -118.00159255549369, "altitude_rel_ft": 21.0588, "yaw_deg": 30.9735, "pitch_deg": 3.3303, "roll_deg": 0.2015, "ground_speed_ft_s": 51.515, "vel_north_m_s": 4.7623, "vel_east_m_s": -4.865, "vel_down_m_s": -0.1774, "usable_for_triangulation": true, "t_gcs_rx_ms": 1776119968492}
{"run_id": "SIM_TEST", "kraken_seq": 112, "telemetry_seq": 80, "t_rx_ms": 1775870647188, "dt_ms": -49, "doa_deg": 298.0, "confidence_0_1": 0.554181519618088, "lat_deg": 33.995342331569454, "lon_deg": -118.0096943573781, "altitude_rel_ft": 28.873, "yaw_deg": 143.3885, "pitch_deg": -6.9985, "roll_deg": 14.8814, "ground_speed_ft_s": 56.8004, "vel_north_m_s": -0.8223, "vel_east_m_s": -2.5011, "vel_down_m_s": 0.0872, "usable_for_triangulation": true, "t_gcs_rx_ms": 1776119969035}
{"run_id": "SIM_TEST", "kraken_seq": 113, "telemetry_seq": 81, "t_rx_ms": 1775870647288, "dt_ms": -48, "doa_deg": 21.0, "confidence_0_1": 0.7316874766809465, "lat_deg": 33.99277308705332, "lon_deg": -118.00093744000625, "altitude_rel_ft": 61.7454, "yaw_deg": 321.6349, "pitch_deg": 8.1454, "roll_deg": 13.3997, "ground_speed_ft_s": 24.1519, "vel_north_m_s": 4.9721, "vel_east_m_s": -6.0751, "vel_down_m_s": -0.1946, "usable_for_triangulation": true, "t_gcs_rx_ms": 1776119969319}
{"run_id": "SIM_TEST", "kraken_seq": 114, "telemetry_seq": 82, "t_rx_ms": 1775870647390, "dt_ms": -44, "doa_deg": 37.0, "confidence_0_1": 0.10646899309358515, "lat_deg": 34.0089222787254, "lon_deg": -118.00213216991521, "altitude_rel_ft": 22.205, "yaw_deg": 225.4364, "pitch_deg": 5.1658, "roll_deg": -11.7744, "ground_speed_ft_s": 46.6146, "vel_north_m_s": -1.8164, "vel_east_m_s": 0.8111, "vel_down_m_s": -0.0953, "usable_for_triangulation": false, "t_gcs_rx_ms": 1776119969800}
{"run_id": "SIM_TEST", "kraken_seq": 115, "telemetry_seq": 83, "t_rx_ms": 1775870647490, "dt_ms": -43, "doa_deg": 240.0, "confidence_0_1": 0.9612945116917301, "lat_deg": 33.992230751641685, "lon_deg": -117.9921260721547, "altitude_rel_ft": 32.0211, "yaw_deg": 33.9834, "pitch_deg": -5.0118, "roll_deg": 6.0164, "ground_speed_ft_s": 11.7988, "vel_north_m_s": 9.0224, "vel_east_m_s": -7.2139, "vel_down_m_s": -0.314, "usable_for_triangulation": true, "t_gcs_rx_ms": 1776119970208}
{"run_id": "SIM_TEST", "kraken_seq": 116, "telemetry_seq": 84, "t_rx_ms": 1775870647592, "dt_ms": -43, "doa_deg": 327.0, "confidence_0_1": 0.8052391054355089, "lat_deg": 34.00655881854918, "lon_deg": -118.0055442946374, "altitude_rel_ft": 34.3561, "yaw_deg": 107.3718, "pitch_deg": 9.2701, "roll_deg": -1.945, "ground_speed_ft_s": 36.8156, "vel_north_m_s": 9.5551, "vel_east_m_s": -3.0457, "vel_down_m_s": 0.8777, "usable_for_triangulation": true, "t_gcs_rx_ms": 1776119970700}
{"run_id": "SIM_TEST", "kraken_seq": 117, "telemetry_seq": 85, "t_rx_ms": 1775870647692, "dt_ms": -43, "doa_deg": 161.0, "confidence_0_1": 0.15920201432293724, "lat_deg": 33.99703329406294, "lon_deg": -117.99035128958269, "altitude_rel_ft": 61.1544, "yaw_deg": 38.6346, "pitch_deg": 9.4031, "roll_deg": -2.5131, "ground_speed_ft_s": 26.0631, "vel_north_m_s": 2.6628, "vel_east_m_s": -9.3611, "vel_down_m_s": -0.1239, "usable_for_triangulation": false, "t_gcs_rx_ms": 1776119971006}
{"run_id": "SIM_TEST", "kraken_seq": 118, "telemetry_seq": 86, "t_rx_ms": 1775870647795, "dt_ms": -41, "doa_deg": 324.0, "confidence_0_1": 0.32581506471547683, "lat_deg": 33.99141203525194, "lon_deg": -118.00381243056914, "altitude_rel_ft": 56.9943, "yaw_deg": 237.0314, "pitch_deg": 9.789, "roll_deg": -14.0118, "ground_speed_ft_s": 15.9684, "vel_north_m_s": -2.0699, "vel_east_m_s": -9.4262, "vel_down_m_s": 0.1352, "usable_for_triangulation": true, "t_gcs_rx_ms": 1776119971450}
{"run_id": "SIM_TEST", "kraken_seq": 119, "telemetry_seq": 87, "t_rx_ms": 1775870647896, "dt_ms": -40, "doa_deg": 212.0, "confidence_0_1": 0.2139862733416893, "lat_deg": 34.000370312362406, "lon_deg": -118.00149803840601, "altitude_rel_ft": 63.4731, "yaw_deg": 163.4992, "pitch_deg": 0.5381, "roll_deg": -10.0041, "ground_speed_ft_s": 22.1629, "vel_north_m_s": -5.8735, "vel_east_m_s": -4.5424, "vel_down_m_s": 0.0272, "usable_for_triangulation": false, "t_gcs_rx_ms": 1776119971816}
{"run_id": "SIM_TEST", "kraken_seq": 120, "telemetry_seq": 88, "t_rx_ms": 1775870647997, "dt_ms": -41, "doa_deg": 78.0, "confidence_0_1": 0.9962634032739861, "lat_deg": 33.99870710257922, "lon_deg": -117.99177889105187, "altitude_rel_ft": 79.1496, "yaw_deg": 257.5207, "pitch_deg": -6.0606, "roll_deg": -4.0078, "ground_speed_ft_s": 23.4828, "vel_north_m_s": -1.505, "vel_east_m_s": -0.3669, "vel_down_m_s": 0.1773, "usable_for_triangulation": true, "t_gcs_rx_ms": 1776119972267}
{"run_id": "SIM_TEST", "kraken_seq": 121, "telemetry_seq": 89, "t_rx_ms": 1775870648098, "dt_ms": -39, "doa_deg": 16.0, "confidence_0_1": 0.13279766967574147, "lat_deg": 34.00253836289621, "lon_deg": -117.99430232963827, "altitude_rel_ft": 86.8126, "yaw_deg": 200.4748, "pitch_deg": 1.6656, "roll_deg": 8.2594, "ground_speed_ft_s": 15.2559, "vel_north_m_s": -8.8661, "vel_east_m_s": -5.8646, "vel_down_m_s": -0.9798, "usable_for_triangulation": false, "t_gcs_rx_ms": 1776119972525}
{"run_id": "SIM_TEST", "kraken_seq": 122, "telemetry_seq": 90, "t_rx_ms": 1775870648198, "dt_ms": -39, "doa_deg": 235.0, "confidence_0_1": 0.32191538666948094, "lat_deg": 33.991366587896096, "lon_deg": -117.99088381363173, "altitude_rel_ft": 20.0261, "yaw_deg": 156.6942, "pitch_deg": 6.2049, "roll_deg": -9.2194, "ground_speed_ft_s": 11.9005, "vel_north_m_s": -0.0477, "vel_east_m_s": -3.91, "vel_down_m_s": 0.9772, "usable_for_triangulation": true, "t_gcs_rx_ms": 1776119973067}
{"run_id": "SIM_TEST", "kraken_seq": 123, "telemetry_seq": 91, "t_rx_ms": 1775870648298, "dt_ms": -39, "doa_deg": 18.0, "confidence_0_1": 0.9718121699390407, "lat_deg": 33.9948873260433, "lon_deg": -117.99852939869409, "altitude_rel_ft": 91.4771, "yaw_deg": 245.6344, "pitch_deg": -6.0184, "roll_deg": -10.4473, "ground_speed_ft_s": 14.9328, "vel_north_m_s": -3.8467, "vel_east_m_s": -3.992, "vel_down_m_s": 0.399, "usable_for_triangulation": true, "t_gcs_rx_ms": 1776119973390}
{"run_id": "SIM_TEST", "kraken_seq": 124, "telemetry_seq": 92, "t_rx_ms": 1775870648398, "dt_ms": -37, "doa_deg": 188.0, "confidence_0_1": 0.4192915922628102, "lat_deg": 33.99073430813199, "lon_deg": -118.00990498601993, "altitude_rel_ft": 26.6867, "yaw_deg": 33.6118, "pitch_deg": 7.3203, "roll_deg": -12.1057, "ground_speed_ft_s": 14.1659, "vel_north_m_s": -2.3577, "vel_east_m_s": 0.4797, "vel_down_m_s": 0.384, "usable_for_triangulation": true, "t_gcs_rx_ms": 1776119973787}
{"run_id": "SIM_TEST", "kraken_seq": 125, "telemetry_seq": 93, "t_rx_ms": 1775870648499, "dt_ms": -37, "doa_deg": 28.0, "confidence_0_1": 0.8923966430242807, "lat_deg": 33.9987268705736, "lon_deg": -117.99678913607289, "altitude_rel_ft": 53.1095, "yaw_deg": 214.9584, "pitch_deg": -5.7284, "roll_deg": -2.3627, "ground_speed_ft_s": 48.7671, "vel_north_m_s": -0.6056, "vel_east_m_s": 2.7138, "vel_down_m_s": -0.4539, "usable_for_triangulation": true, "t_gcs_rx_ms": 1776119974216}
{"run_id": "SIM_TEST", "kraken_seq": 126, "telemetry_seq": 94, "t_rx_ms": 1775870648602, "dt_ms": -40, "doa_deg": 234.0, "confidence_0_1": 0.5892093350227893, "lat_deg": 34.005339842695, "lon_deg": -118.00227927066882, "altitude_rel_ft": 21.1154, "yaw_deg": 152.9163, "pitch_deg": -4.3591, "roll_deg": 1.4017, "ground_speed_ft_s": 17.9956, "vel_north_m_s": 6.7013, "vel_east_m_s": -5.5104, "vel_down_m_s": -0.3717, "usable_for_triangulation": true, "t_gcs_rx_ms": 1776119974716}
{"run_id": "SIM_TEST", "kraken_seq": 127, "telemetry_seq": 95, "t_rx_ms": 1775870648704, "dt_ms": -38, "doa_deg": 174.0, "confidence_0_1": 0.7755158736864894, "lat_deg": 33.99836102275909, "lon_deg": -118.0023326639962, "altitude_rel_ft": 28.9492, "yaw_deg": 121.9349, "pitch_deg": 8.3778, "roll_deg": -5.6571, "ground_speed_ft_s": 8.9279, "vel_north_m_s": 6.9748, "vel_east_m_s": 8.652, "vel_down_m_s": 0.1403, "usable_for_triangulation": true, "t_gcs_rx_ms": 1776119975050}
{"run_id": "SIM_TEST", "kraken_seq": 128, "telemetry_seq": 96, "t_rx_ms": 1775870648805, "dt_ms": -38, "doa_deg": 172.0, "confidence_0_1": 0.24401027735845704, "lat_deg": 34.00245207341516, "lon_deg": -118.00895957147479, "altitude_rel_ft": 96.6501, "yaw_deg": 131.121, "pitch_deg": 6.1558, "roll_deg": -12.8185, "ground_speed_ft_s": 19.8562, "vel_north_m_s": 4.9261, "vel_east_m_s": -6.8111, "vel_down_m_s": -0.9592, "usable_for_triangulation": false, "t_gcs_rx_ms": 1776119975414}
{"run_id": "SIM_TEST", "kraken_seq": 129, "telemetry_seq": 97, "t_rx_ms": 1775870648905, "dt_ms": -38, "doa_deg": 161.0, "confidence_0_1": 0.09468911477449382, "lat_deg": 34.00719879581279, "lon_deg": -118.00153996926383, "altitude_rel_ft": 99.238, "yaw_deg": 76.7158, "pitch_deg": -4.2047, "roll_deg": 2.6605, "ground_speed_ft_s": 48.9411, "vel_north_m_s": 9.2738, "vel_east_m_s": -4.8538, "vel_down_m_s": 0.5097, "usable_for_triangulation": false, "t_gcs_rx_ms": 1776119975792}
{"run_id": "SIM_TEST", "kraken_seq": 130, "telemetry_seq": 98, "t_rx_ms": 1775870649005, "dt_ms": -36, "doa_deg": 24.0, "confidence_0_1": 0.06665564722850226, "lat_deg": 34.0000076764889, "lon_deg": -117.99926272264446, "altitude_rel_ft": 74.8284, "yaw_deg": 212.8746, "pitch_deg": -9.2814, "roll_deg": 2.053, "ground_speed_ft_s": 37.03, "vel_north_m_s": 1.1656, "vel_east_m_s": -1.2277, "vel_down_m_s": 0.6974, "usable_for_triangulation": false, "t_gcs_rx_ms": 1776119976266}
{"run_id": "SIM_TEST", "kraken_seq": 131, "telemetry_seq": 99, "t_rx_ms": 1775870649106, "dt_ms": -37, "doa_deg": 278.0, "confidence_0_1": 0.9176433828570837, "lat_deg": 34.005490286122004, "lon_deg": -117.99569685711444, "altitude_rel_ft": 64.7939, "yaw_deg": 125.8607, "pitch_deg": 5.9069, "roll_deg": -9.2315, "ground_speed_ft_s": 11.2701, "vel_north_m_s": 1.5717, "vel_east_m_s": -7.9355, "vel_down_m_s": -0.3134, "usable_for_triangulation": true, "t_gcs_rx_ms": 1776119976725}
{"run_id": "SIM_TEST", "kraken_seq": 132, "telemetry_seq": 100, "t_rx_ms": 1775870649206, "dt_ms": -36, "doa_deg": 6.0, "confidence_0_1": 0.6306088160621554, "lat_deg": 33.99384827279728, "lon_deg": -118.00620627564948, "altitude_rel_ft": 77.8461, "yaw_deg": 273.0679, "pitch_deg": 9.2428, "roll_deg": 0.152, "ground_speed_ft_s": 53.883, "vel_north_m_s": 2.6369, "vel_east_m_s": -4.7869, "vel_down_m_s": -0.5097, "usable_for_triangulation": true, "t_gcs_rx_ms": 1776119977050}
{"run_id": "SIM_TEST", "kraken_seq": 133, "telemetry_seq": 101, "t_rx_ms": 1775870649307, "dt_ms": -37, "doa_deg": 53.0, "confidence_0_1": 0.24875956839354507, "lat_deg": 34.006844296438956, "lon_deg": -118.00416761189736, "altitude_rel_ft": 24.543, "yaw_deg": 191.0314, "pitch_deg": -2.4083, "roll_deg": -1.7472, "ground_speed_ft_s": 13.1297, "vel_north_m_s": 6.1878, "vel_east_m_s": -2.1308, "vel_down_m_s": -0.4231, "usable_for_triangulation": false, "t_gcs_rx_ms": 1776119977440}
{"run_id": "SIM_TEST", "kraken_seq": 134, "telemetry_seq": 102, "t_rx_ms": 1775870649411, "dt_ms": -38, "doa_deg": 249.0, "confidence_0_1": 0.36142148734378243, "lat_deg": 34.007023951121596, "lon_deg": -117.9961765264227, "altitude_rel_ft": 34.4783, "yaw_deg": 176.0079, "pitch_deg": 7.6456, "roll_deg": 0.9867, "ground_speed_ft_s": 49.2079, "vel_north_m_s": 6.0273, "vel_east_m_s": 3.7577, "vel_down_m_s": 0.0257, "usable_for_triangulation": true, "t_gcs_rx_ms": 1776119977840}
{"run_id": "SIM_TEST", "kraken_seq": 135, "telemetry_seq": 103, "t_rx_ms": 1775870649511, "dt_ms": -34, "doa_deg": 293.0, "confidence_0_1": 0.8939703253285022, "lat_deg": 34.00110874613478, "lon_deg": -117.99691213432322, "altitude_rel_ft": 87.4208, "yaw_deg": 80.9104, "pitch_deg": -1.6532, "roll_deg": 0.1548, "ground_speed_ft_s": 30.3697, "vel_north_m_s": -9.2113, "vel_east_m_s": 2.8878, "vel_down_m_s": -0.0937, "usable_for_triangulation": true, "t_gcs_rx_ms": 1776119978228}
{"run_id": "SIM_TEST", "kraken_seq": 136, "telemetry_seq": 104, "t_rx_ms": 1775870649612, "dt_ms": -34, "doa_deg": 249.0, "confidence_0_1": 0.7420836358514068, "lat_deg": 33.99318381024197, "lon_deg": -117.99881347333415, "altitude_rel_ft": 99.6268, "yaw_deg": 323.0697, "pitch_deg": -6.4206, "roll_deg": -4.6248, "ground_speed_ft_s": 9.0218, "vel_north_m_s": -7.3717, "vel_east_m_s": 5.7893, "vel_down_m_s": 0.759, "usable_for_triangulation": true, "t_gcs_rx_ms": 1776119978868}
{"run_id": "SIM_TEST", "kraken_seq": 137, "telemetry_seq": 105, "t_rx_ms": 1775870649712, "dt_ms": -34, "doa_deg": 187.0, "confidence_0_1": 0.7631424107128281, "lat_deg": 33.994240863677476, "lon_deg": -118.00061982449105, "altitude_rel_ft": 29.1586, "yaw_deg": 14.3637, "pitch_deg": 2.7729, "roll_deg": 7.5328, "ground_speed_ft_s": 23.6061, "vel_north_m_s": 3.5548, "vel_east_m_s": -9.03, "vel_down_m_s": 0.9479, "usable_for_triangulation": true, "t_gcs_rx_ms": 1776119979036}
{"run_id": "SIM_TEST", "kraken_seq": 138, "telemetry_seq": 106, "t_rx_ms": 1775870649812, "dt_ms": -33, "doa_deg": 26.0, "confidence_0_1": 0.5504570762106862, "lat_deg": 33.99559753540535, "lon_deg": -117.99476821293938, "altitude_rel_ft": 59.9395, "yaw_deg": 355.3873, "pitch_deg": -3.6389, "roll_deg": 0.5053, "ground_speed_ft_s": 17.6865, "vel_north_m_s": -0.0814, "vel_east_m_s": -3.9187, "vel_down_m_s": -0.4311, "usable_for_triangulation": true, "t_gcs_rx_ms": 1776119979438}
{"run_id": "SIM_TEST", "kraken_seq": 139, "telemetry_seq": 107, "t_rx_ms": 1775870649915, "dt_ms": -31, "doa_deg": 267.0, "confidence_0_1": 0.059787974246708675, "lat_deg": 34.00909047723171, "lon_deg": -118.00224749624067, "altitude_rel_ft": 75.5487, "yaw_deg": 228.482, "pitch_deg": -3.2979, "roll_deg": 3.3592, "ground_speed_ft_s": 17.5901, "vel_north_m_s": -9.4061, "vel_east_m_s": 8.2072, "vel_down_m_s": 0.8984, "usable_for_triangulation": false, "t_gcs_rx_ms": 1776119979876}
{"run_id": "SIM_TEST", "kraken_seq": 140, "telemetry_seq": 108, "t_rx_ms": 1775870650018, "dt_ms": -32, "doa_deg": 211.0, "confidence_0_1": 0.2127303910792172, "lat_deg": 34.001179014683274, "lon_deg": -117.99977422008551, "altitude_rel_ft": 84.225, "yaw_deg": 34.1739, "pitch_deg": 8.374, "roll_deg": 10.9733, "ground_speed_ft_s": 47.524, "vel_north_m_s": -8.7789, "vel_east_m_s": 2.9221, "vel_down_m_s": 0.5913, "usable_for_triangulation": false, "t_gcs_rx_ms": 1776119980280}
{"run_id": "SIM_TEST", "kraken_seq": 141, "telemetry_seq": 109, "t_rx_ms": 1775870650118, "dt_ms": -31, "doa_deg": 264.0, "confidence_0_1": 0.4480522530679538, "lat_deg": 34.00527979859901, "lon_deg": -117.99323744874677, "altitude_rel_ft": 65.1606, "yaw_deg": 116.8545, "pitch_deg": -6.3155, "roll_deg": 3.999, "ground_speed_ft_s": 33.4894, "vel_north_m_s": -2.4191, "vel_east_m_s": -0.3353, "vel_down_m_s": -0.0473, "usable_for_triangulation": true, "t_gcs_rx_ms": 1776119980741}
{"run_id": "SIM_TEST", "kraken_seq": 142, "telemetry_seq": 110, "t_rx_ms": 1775870650219, "dt_ms": -32, "doa_deg": 283.0, "confidence_0_1": 0.29387935150290034, "lat_deg": 34.0035166559838, "lon_deg": -117.99189816326492, "altitude_rel_ft": 85.6796, "yaw_deg": 146.3681, "pitch_deg": -2.0067, "roll_deg": 6.8842, "ground_speed_ft_s": 29.5481, "vel_north_m_s": 4.6243, "vel_east_m_s": 1.9258, "vel_down_m_s": -0.2981, "usable_for_triangulation": false, "t_gcs_rx_ms": 1776119981086}
{"run_id": "SIM_TEST", "kraken_seq": 143, "telemetry_seq": 111, "t_rx_ms": 1775870650321, "dt_ms": -33, "doa_deg": 341.0, "confidence_0_1": 0.280006264178018, "lat_deg": 33.99873210613749, "lon_deg": -118.0013417152782, "altitude_rel_ft": 35.7216, "yaw_deg": 248.8312, "pitch_deg": 0.3544, "roll_deg": -2.7919, "ground_speed_ft_s": 50.8076, "vel_north_m_s": -7.8306, "vel_east_m_s": 8.1567, "vel_down_m_s": -0.7069, "usable_for_triangulation": false, "t_gcs_rx_ms": 1776119981429}
{"run_id": "SIM_TEST", "kraken_seq": 144, "telemetry_seq": 112, "t_rx_ms": 1775870650422, "dt_ms": -33, "doa_deg": 230.0, "confidence_0_1": 0.6329134431393615, "lat_deg": 33.995424171953104, "lon_deg": -118.00489259745405, "altitude_rel_ft": 99.0209, "yaw_deg": 47.6012, "pitch_deg": 7.2342, "roll_deg": -7.9865, "ground_speed_ft_s": 35.0691, "vel_north_m_s": -3.4693, "vel_east_m_s": 4.2066, "vel_down_m_s": 0.3352, "usable_for_triangulation": true, "t_gcs_rx_ms": 1776119981865}
{"run_id": "SIM_TEST", "kraken_seq": 145, "telemetry_seq": 113, "t_rx_ms": 1775870650523, "dt_ms": -34, "doa_deg": 218.0, "confidence_0_1": 0.9882044338773268, "lat_deg": 34.00927765290337, "lon_deg": -118.00108461892212, "altitude_rel_ft": 66.2345, "yaw_deg": 206.7425, "pitch_deg": 2.1684, "roll_deg": -5.92, "ground_speed_ft_s": 48.6462, "vel_north_m_s": 4.2038, "vel_east_m_s": 1.1744, "vel_down_m_s": 0.3145, "usable_for_triangulation": true, "t_gcs_rx_ms": 1776119982234}
{"run_id": "SIM_TEST", "kraken_seq": 146, "telemetry_seq": 114, "t_rx_ms": 1775870650624, "dt_ms": -32, "doa_deg": 78.0, "confidence_0_1": 0.16491012248997083, "lat_deg": 33.99584574483782, "lon_deg": -117.99495264334648, "altitude_rel_ft": 20.8224, "yaw_deg": 182.7252, "pitch_deg": -6.1395, "roll_deg": -6.0143, "ground_speed_ft_s": 10.4403, "vel_north_m_s": 1.7406, "vel_east_m_s": -1.0131, "vel_down_m_s": -0.3522, "usable_for_triangulation": false, "t_gcs_rx_ms": 1776119982879}
{"run_id": "SIM_TEST", "kraken_seq": 147, "telemetry_seq": 115, "t_rx_ms": 1775870650724, "dt_ms": -30, "doa_deg": 56.0, "confidence_0_1": 0.16850093530587218, "lat_deg": 33.99540284082469, "lon_deg": -118.00821043840546, "altitude_rel_ft": 51.2599, "yaw_deg": 14.0845, "pitch_deg": 1.6564, "roll_deg": -0.795, "ground_speed_ft_s": 34.9567, "vel_north_m_s": 9.562, "vel_east_m_s": -7.3362, "vel_down_m_s": -0.187, "usable_for_triangulation": false, "t_gcs_rx_ms": 1776119983058}
{"run_id": "SIM_TEST", "kraken_seq": 148, "telemetry_seq": 116, "t_rx_ms": 1775870650826, "dt_ms": -30, "doa_deg": 168.0, "confidence_0_1": 0.6257156624178616, "lat_deg": 34.002075577083005, "lon_deg": -117.99814192615128, "altitude_rel_ft": 35.8611, "yaw_deg": 313.1472, "pitch_deg": -1.3905, "roll_deg": -14.4128, "ground_speed_ft_s": 52.7416, "vel_north_m_s": 3.6732, "vel_east_m_s": -9.1684, "vel_down_m_s": -0.1255, "usable_for_triangulation": true, "t_gcs_rx_ms": 1776119983495}
{"run_id": "SIM_TEST", "kraken_seq": 149, "telemetry_seq": 117, "t_rx_ms": 1775870650926, "dt_ms": -28, "doa_deg": 209.0, "confidence_0_1": 0.4289700147643529, "lat_deg": 34.000148650291955, "lon_deg": -117.99514292966421, "altitude_rel_ft": 67.3862, "yaw_deg": 255.8711, "pitch_deg": 8.5759, "roll_deg": 6.3012, "ground_speed_ft_s": 39.8772, "vel_north_m_s": 1.4055, "vel_east_m_s": 8.8081, "vel_down_m_s": 0.3314, "usable_for_triangulation": true, "t_gcs_rx_ms": 1776119983836}
{"run_id": "SIM_TEST", "kraken_seq": 150, "telemetry_seq": 118, "t_rx_ms": 1775870651027, "dt_ms": -28, "doa_deg": 164.0, "confidence_0_1": 0.9852118108163402, "lat_deg": 34.00047986178441, "lon_deg": -118.00740774672389, "altitude_rel_ft": 78.5597, "yaw_deg": 327.741, "pitch_deg": -3.8575, "roll_deg": 7.3453, "ground_speed_ft_s": 43.194, "vel_north_m_s": -6.3526, "vel_east_m_s": 3.4435, "vel_down_m_s": 0.6348, "usable_for_triangulation": true, "t_gcs_rx_ms": 1776119984301}
{"run_id": "SIM_TEST", "kraken_seq": 151, "telemetry_seq": 119, "t_rx_ms": 1775870651129, "dt_ms": -29, "doa_deg": 320.0, "confidence_0_1": 0.852315203390058, "lat_deg": 33.99930262228413, "lon_deg": -117.99001946822507, "altitude_rel_ft": 72.9149, "yaw_deg": 18.3259, "pitch_deg": -5.9826, "roll_deg": 2.4268, "ground_speed_ft_s": 17.4557, "vel_north_m_s": -3.6901, "vel_east_m_s": 6.0756, "vel_down_m_s": -0.2576, "usable_for_triangulation": true, "t_gcs_rx_ms": 1776119984755}
{"run_id": "SIM_TEST", "kraken_seq": 152, "telemetry_seq": 120, "t_rx_ms": 1775870651229, "dt_ms": -29, "doa_deg": 15.0, "confidence_0_1": 0.8784939177734332, "lat_deg": 34.00758807108382, "lon_deg": -117.99751919656337, "altitude_rel_ft": 82.9144, "yaw_deg": 174.191, "pitch_deg": -5.1421, "roll_deg": 7.2854, "ground_speed_ft_s": 43.4529, "vel_north_m_s": -2.8403, "vel_east_m_s": 5.9495, "vel_down_m_s": -0.5473, "usable_for_triangulation": true, "t_gcs_rx_ms": 1776119985075}
{"run_id": "SIM_TEST", "kraken_seq": 153, "telemetry_seq": 121, "t_rx_ms": 1775870651329, "dt_ms": -27, "doa_deg": 303.0, "confidence_0_1": 0.8059022086678826, "lat_deg": 33.99995369619934, "lon_deg": -117.99885017267039, "altitude_rel_ft": 59.6057, "yaw_deg": 257.2977, "pitch_deg": -0.1093, "roll_deg": 6.6436, "ground_speed_ft_s": 59.125, "vel_north_m_s": 2.5837, "vel_east_m_s": -3.9213, "vel_down_m_s": -0.1697, "usable_for_triangulation": true, "t_gcs_rx_ms": 1776119985460}
