{"run_id": "20260417_111850", "kraken_seq": 10, "telemetry_seq": 33, "t_rx_ms": 1776450062295, "dt_ms": 10, "doa_deg": 326.0, "confidence_0_1": 2.1271465718746185, "lat_deg": 34.0591399, "lon_deg": -117.8198345, "altitude_rel_ft": -0.0066, "yaw_deg": -44.7584, "pitch_deg": 0.1947, "roll_deg": 0.2782, "ground_speed_ft_s": 0.0, "vel_north_m_s": 0.0, "vel_east_m_s": 0.0, "vel_down_m_s": 0.0, "usable_for_triangulation": true, "t_gcs_rx_ms": 1776450688060}
{"run_id": "20260417_111850", "kraken_seq": 11, "telemetry_seq": 39, "t_rx_ms": 1776450063502, "dt_ms": 15, "doa_deg": 87.0, "confidence_0_1": 0.8984063565731049, "lat_deg": 34.0591399, "lon_deg": -117.8198345, "altitude_rel_ft": 0.6824, "yaw_deg": -44.8089, "pitch_deg": 0.1847, "roll_deg": 0.2724, "ground_speed_ft_s": 0.0, "vel_north_m_s": 0.0, "vel_east_m_s": 0.0, "vel_down_m_s": 0.0, "usable_for_triangulation": true, "t_gcs_rx_ms": 1776450688530}
{"run_id": "20260417_111850", "kraken_seq": 12, "telemetry_seq": 41, "t_rx_ms": 1776450063908, "dt_ms": 14, "doa_deg": 49.0, "confidence_0_1": 1.14760123193264, "lat_deg": 34.0591399, "lon_deg": -117.8198345, "altitude_rel_ft": 0.6824, "yaw_deg": -44.8089, "pitch_deg": 0.1847, "roll_deg": 0.2724, "ground_speed_ft_s": 0.0, "vel_north_m_s": 0.0, "vel_east_m_s": 0.0, "vel_down_m_s": 0.0, "usable_for_triangulation": true, "t_gcs_rx_ms": 1776450688901}
{"run_id": "20260417_111850", "kraken_seq": 13, "telemetry_seq": 43, "t_rx_ms": 1776450064420, "dt_ms": -96, "doa_deg": 40.0, "confidence_0_1": 1.3001304864883423, "lat_deg": 34.0591399, "lon_deg": -117.8198345, "altitude_rel_ft": 0.4134, "yaw_deg": -44.8404, "pitch_deg": 0.1903, "roll_deg": 0.28, "ground_speed_ft_s": 0.0, "vel_north_m_s": 0.0, "vel_east_m_s": 0.0, "vel_down_m_s": 0.0, "usable_for_triangulation": true, "t_gcs_rx_ms": 1776450689384}
{"run_id": "20260417_111850", "kraken_seq": 14, "telemetry_seq": 45, "t_rx_ms": 1776450064828, "dt_ms": -99, "doa_deg": 35.0, "confidence_0_1": 1.3915441930294037, "lat_deg": 34.0591399, "lon_deg": -117.8198345, "altitude_rel_ft": 0.4134, "yaw_deg": -44.8404, "pitch_deg": 0.1903, "roll_deg": 0.28, "ground_speed_ft_s": 0.0, "vel_north_m_s": 0.0, "vel_east_m_s": 0.0, "vel_down_m_s": 0.0, "usable_for_triangulation": true, "t_gcs_rx_ms": 1776450689709}
{"run_id": "20260417_111850", "kraken_seq": 15, "telemetry_seq": 48, "t_rx_ms": 1776450065243, "dt_ms": 94, "doa_deg": 35.0, "confidence_0_1": 1.36076420545578, "lat_deg": 34.0591399, "lon_deg": -117.8198345, "altitude_rel_ft": 0.5282, "yaw_deg": -44.9278, "pitch_deg": 0.1892, "roll_deg": 0.2853, "ground_speed_ft_s": 0.0, "vel_north_m_s": 0.0, "vel_east_m_s": 0.0, "vel_down_m_s": 0.0, "usable_for_triangulation": true, "t_gcs_rx_ms": 1776450690134}
{"run_id": "20260417_111850", "kraken_seq": 16, "telemetry_seq": 50, "t_rx_ms": 1776450065645, "dt_ms": 94, "doa_deg": 34.0, "confidence_0_1": 1.2371543794870377, "lat_deg": 34.0591399, "lon_deg": -117.8198345, "altitude_rel_ft": 0.5282, "yaw_deg": -44.9278, "pitch_deg": 0.1892, "roll_deg": 0.2853, "ground_speed_ft_s": 0.0, "vel_north_m_s": 0.0, "vel_east_m_s": 0.0, "vel_down_m_s": 0.0, "usable_for_triangulation": true, "t_gcs_rx_ms": 1776450690527}
{"run_id": "20260417_111850", "kraken_seq": 17, "telemetry_seq": 53, "t_rx_ms": 1776450066348, "dt_ms": 2, "doa_deg": 35.0, "confidence_0_1": 1.2149666249752045, "lat_deg": 34.0591399, "lon_deg": -117.8198345, "altitude_rel_ft": 0.2986, "yaw_deg": -44.7712, "pitch_deg": 0.1872, "roll_deg": 0.2901, "ground_speed_ft_s": 0.0, "vel_north_m_s": 0.0, "vel_east_m_s": 0.0, "vel_down_m_s": 0.0, "usable_for_triangulation": true, "t_gcs_rx_ms": 1776450690909}
{"run_id": "20260417_111850", "kraken_seq": 18, "telemetry_seq": 54, "t_rx_ms": 1776450066551, "dt_ms": 12, "doa_deg": 40.0, "confidence_0_1": 1.1646419763565063, "lat_deg": 34.0591399, "lon_deg": -117.8198345, "altitude_rel_ft": 0.2986, "yaw_deg": -44.7712, "pitch_deg": 0.1872, "roll_deg": 0.2901, "ground_speed_ft_s": 0.0, "vel_north_m_s": 0.0, "vel_east_m_s": 0.0, "vel_down_m_s": 0.0, "usable_for_triangulation": true, "t_gcs_rx_ms": 1776450691524}
{"run_id": "20260417_111850", "kraken_seq": 19, "telemetry_seq": 56, "t_rx_ms": 1776450067056, "dt_ms": -91, "doa_deg": 77.0, "confidence_0_1": 1.077166274189949, "lat_deg": 34.0591399, "lon_deg": -117.8198345, "altitude_rel_ft": 0.2986, "yaw_deg": -44.7712, "pitch_deg": 0.1872, "roll_deg": 0.2901, "ground_speed_ft_s": 0.0, "vel_north_m_s": 0.0, "vel_east_m_s": 0.0, "vel_down_m_s": 0.0, "usable_for_triangulation": true, "t_gcs_rx_ms": 1776450691735}
{"run_id": "20260417_111850", "kraken_seq": 20, "telemetry_seq": 58, "t_rx_ms": 1776450067458, "dt_ms": -91, "doa_deg": 59.0, "confidence_0_1": 1.113363429903984, "lat_deg": 34.0591399, "lon_deg": -117.8198345, "altitude_rel_ft": 0.1542, "yaw_deg": -44.7896, "pitch_deg": 0.1834, "roll_deg": 0.2902, "ground_speed_ft_s": 0.0, "vel_north_m_s": 0.0, "vel_east_m_s": 0.0, "vel_down_m_s": 0.0, "usable_for_triangulation": true, "t_gcs_rx_ms": 1776450692084}
{"run_id": "20260417_111850", "kraken_seq": 21, "telemetry_seq": 61, "t_rx_ms": 1776450067870, "dt_ms": 100, "doa_deg": 57.0, "confidence_0_1": 1.2053672969341278, "lat_deg": 34.0591399, "lon_deg": -117.8198345, "altitude_rel_ft": 0.1542, "yaw_deg": -44.7896, "pitch_deg": 0.1834, "roll_deg": 0.2902, "ground_speed_ft_s": 0.0, "vel_north_m_s": 0.0, "vel_east_m_s": 0.0, "vel_down_m_s": 0.0, "usable_for_triangulation": true, "t_gcs_rx_ms": 1776450692517}
{"run_id": "20260417_111850", "kraken_seq": 22, "telemetry_seq": 63, "t_rx_ms": 1776450068276, "dt_ms": 98, "doa_deg": 52.0, "confidence_0_1": 1.1772161722183228, "lat_deg": 34.0591399, "lon_deg": -117.8198345, "altitude_rel_ft": -0.6266, "yaw_deg": -44.8082, "pitch_deg": 0.1856, "roll_deg": 0.2929, "ground_speed_ft_s": 0.0, "vel_north_m_s": 0.0, "vel_east_m_s": 0.0, "vel_down_m_s": 0.0, "usable_for_triangulation": true, "t_gcs_rx_ms": 1776450692897}
{"run_id": "20260417_111850", "kraken_seq": 23, "telemetry_seq": 65, "t_rx_ms": 1776450068777, "dt_ms": -2, "doa_deg": 54.0, "confidence_0_1": 1.1567460000514984, "lat_deg": 34.0591399, "lon_deg": -117.8198345, "altitude_rel_ft": -0.6266, "yaw_deg": -44.8082, "pitch_deg": 0.1856, "roll_deg": 0.2929, "ground_speed_ft_s": 0.0, "vel_north_m_s": 0.0, "vel_east_m_s": 0.0, "vel_down_m_s": 0.0, "usable_for_triangulation": true, "t_gcs_rx_ms": 1776450693547}
{"run_id": "20260417_111850", "kraken_seq": 24, "telemetry_seq": 67, "t_rx_ms": 1776450069181, "dt_ms": 14, "doa_deg": 61.0, "confidence_0_1": 1.0310088098049164, "lat_deg": 34.0591399, "lon_deg": -117.8198345, "altitude_rel_ft": -0.3445, "yaw_deg": -44.8365, "pitch_deg": 0.1817, "roll_deg": 0.293, "ground_speed_ft_s": 0.0, "vel_north_m_s": 0.0, "vel_east_m_s": 0.0, "vel_down_m_s": 0.0, "usable_for_triangulation": true, "t_gcs_rx_ms": 1776450693735}
{"run_id": "20260417_111850", "kraken_seq": 25, "telemetry_seq": 69, "t_rx_ms": 1776450069584, "dt_ms": 16, "doa_deg": 60.0, "confidence_0_1": 1.0788437724113464, "lat_deg": 34.0591399, "lon_deg": -117.8198345, "altitude_rel_ft": -0.3445, "yaw_deg": -44.8365, "pitch_deg": 0.1817, "roll_deg": 0.293, "ground_speed_ft_s": 0.0, "vel_north_m_s": 0.0, "vel_east_m_s": 0.0, "vel_down_m_s": 0.0, "usable_for_triangulation": true, "t_gcs_rx_ms": 1776450694125}
{"run_id": "20260417_111850", "kraken_seq": 26, "telemetry_seq": 71, "t_rx_ms": 1776450070086, "dt_ms": -85, "doa_deg": 59.0, "confidence_0_1": 1.1595689505338669, "lat_deg": 34.0591399, "lon_deg": -117.8198345, "altitude_rel_ft": -0.3445, "yaw_deg": -44.8365, "pitch_deg": 0.1817, "roll_deg": 0.293, "ground_speed_ft_s": 0.0, "vel_north_m_s": 0.0, "vel_east_m_s": 0.0, "vel_down_m_s": 0.0, "usable_for_triangulation": true, "t_gcs_rx_ms": 1776450694518}
{"run_id": "20260417_111850", "kraken_seq": 27, "telemetry_seq": 73, "t_rx_ms": 1776450070487, "dt_ms": -82, "doa_deg": 52.0, "confidence_0_1": 1.194385439157486, "lat_deg": 34.0591399, "lon_deg": -117.8198345, "altitude_rel_ft": 0.1247, "yaw_deg": -44.8066, "pitch_deg": 0.1821, "roll_deg": 0.2874, "ground_speed_ft_s": 0.0, "vel_north_m_s": 0.0, "vel_east_m_s": 0.0, "vel_down_m_s": 0.0, "usable_for_triangulation": true, "t_gcs_rx_ms": 1776450694948}
{"run_id": "20260417_111850", "kraken_seq": 28, "telemetry_seq": 76, "t_rx_ms": 1776450070987, "dt_ms": 28, "doa_deg": 44.0, "confidence_0_1": 1.3370729982852936, "lat_deg": 34.0591399, "lon_deg": -117.8198345, "altitude_rel_ft": 0.1247, "yaw_deg": -44.8066, "pitch_deg": 0.1821, "roll_deg": 0.2874, "ground_speed_ft_s": 0.0, "vel_north_m_s": 0.0, "vel_east_m_s": 0.0, "vel_down_m_s": 0.0, "usable_for_triangulation": true, "t_gcs_rx_ms": 1776450695535}
{"run_id": "20260417_111850", "kraken_seq": 29, "telemetry_seq": 78, "t_rx_ms": 1776450071390, "dt_ms": 29, "doa_deg": 51.0, "confidence_0_1": 1.5895681083202362, "lat_deg": 34.0591399, "lon_deg": -117.8198345, "altitude_rel_ft": 0.4987, "yaw_deg": -44.7265, "pitch_deg": 0.182, "roll_deg": 0.2867, "ground_speed_ft_s": 0.0, "vel_north_m_s": 0.0, "vel_east_m_s": 0.0, "vel_down_m_s": 0.0, "usable_for_triangulation": true, "t_gcs_rx_ms": 1776450695770}
{"run_id": "20260417_111850", "kraken_seq": 30, "telemetry_seq": 80, "t_rx_ms": 1776450071897, "dt_ms": -74, "doa_deg": 40.0, "confidence_0_1": 1.277901828289032, "lat_deg": 34.0591399, "lon_deg": -117.8198345, "altitude_rel_ft": 0.4987, "yaw_deg": -44.7265, "pitch_deg": 0.182, "roll_deg": 0.2867, "ground_speed_ft_s": 0.0, "vel_north_m_s": 0.0, "vel_east_m_s": 0.0, "vel_down_m_s": 0.0, "usable_for_triangulation": true, "t_gcs_rx_ms": 1776450696356}
{"run_id": "20260417_111850", "kraken_seq": 31, "telemetry_seq": 82, "t_rx_ms": 1776450072299, "dt_ms": -75, "doa_deg": 39.0, "confidence_0_1": 0.7992290705442429, "lat_deg": 34.0591399, "lon_deg": -117.8198345, "altitude_rel_ft": 0.5774, "yaw_deg": -44.7093, "pitch_deg": 0.176, "roll_deg": 0.2857, "ground_speed_ft_s": 0.0, "vel_north_m_s": 0.0, "vel_east_m_s": 0.0, "vel_down_m_s": 0.0, "usable_for_triangulation": true, "t_gcs_rx_ms": 1776450696579}
{"run_id": "20260417_111850", "kraken_seq": 32, "telemetry_seq": 84, "t_rx_ms": 1776450072699, "dt_ms": -73, "doa_deg": 96.0, "confidence_0_1": 1.328529715538025, "lat_deg": 34.0591399, "lon_deg": -117.8198345, "altitude_rel_ft": 0.5774, "yaw_deg": -44.7093, "pitch_deg": 0.176, "roll_deg": 0.2857, "ground_speed_ft_s": 0.0, "vel_north_m_s": 0.0, "vel_east_m_s": 0.0, "vel_down_m_s": 0.0, "usable_for_triangulation": true, "t_gcs_rx_ms": 1776450696932}
{"run_id": "20260417_111850", "kraken_seq": 33, "telemetry_seq": 86, "t_rx_ms": 1776450073105, "dt_ms": -77, "doa_deg": 106.0, "confidence_0_1": 2.7457311749458313, "lat_deg": 34.0591399, "lon_deg": -117.8198345, "altitude_rel_ft": 0.6726, "yaw_deg": -44.6133, "pitch_deg": 0.1743, "roll_deg": 0.2862, "ground_speed_ft_s": 0.0, "vel_north_m_s": 0.0, "vel_east_m_s": 0.0, "vel_down_m_s": 0.0, "usable_for_triangulation": true, "t_gcs_rx_ms": 1776450697554}
{"run_id": "20260417_111850", "kraken_seq": 34, "telemetry_seq": 89, "t_rx_ms": 1776450073608, "dt_ms": 26, "doa_deg": 106.0, "confidence_0_1": 2.268463373184204, "lat_deg": 34.0591399, "lon_deg": -117.8198345, "altitude_rel_ft": 0.6726, "yaw_deg": -44.6133, "pitch_deg": 0.1743, "roll_deg": 0.2862, "ground_speed_ft_s": 0.0, "vel_north_m_s": 0.0, "vel_east_m_s": 0.0, "vel_down_m_s": 0.0, "usable_for_triangulation": true, "t_gcs_rx_ms": 1776450697761}
{"run_id": "20260417_111850", "kraken_seq": 35, "telemetry_seq": 91, "t_rx_ms": 1776450074012, "dt_ms": 23, "doa_deg": 106.0, "confidence_0_1": 1.3354815542697906, "lat_deg": 34.0591399, "lon_deg": -117.8198345, "altitude_rel_ft": 0.4232, "yaw_deg": -44.5482, "pitch_deg": 0.1857, "roll_deg": 0.2826, "ground_speed_ft_s": 0.0, "vel_north_m_s": 0.0, "vel_east_m_s": 0.0, "vel_down_m_s": 0.0, "usable_for_triangulation": true, "t_gcs_rx_ms": 1776450698161}
{"run_id": "20260417_111850", "kraken_seq": 36, "telemetry_seq": 93, "t_rx_ms": 1776450074417, "dt_ms": 24, "doa_deg": 106.0, "confidence_0_1": 1.012139767408371, "lat_deg": 34.0591399, "lon_deg": -117.8198345, "altitude_rel_ft": 0.4232, "yaw_deg": -44.5482, "pitch_deg": 0.1857, "roll_deg": 0.2826, "ground_speed_ft_s": 0.0, "vel_north_m_s": 0.0, "vel_east_m_s": 0.0, "vel_down_m_s": 0.0, "usable_for_triangulation": true, "t_gcs_rx_ms": 1776450698711}
{"run_id": "20260417_111850", "kraken_seq": 37, "telemetry_seq": 95, "t_rx_ms": 1776450074818, "dt_ms": 25, "doa_deg": 21.0, "confidence_0_1": 0.6402913480997086, "lat_deg": 34.0591399, "lon_deg": -117.8198345, "altitude_rel_ft": 0.4232, "yaw_deg": -44.5482, "pitch_deg": 0.1857, "roll_deg": 0.2826, "ground_speed_ft_s": 0.0, "vel_north_m_s": 0.0, "vel_east_m_s": 0.0, "vel_down_m_s": 0.0, "usable_for_triangulation": true, "t_gcs_rx_ms": 1776450699041}
{"run_id": "20260417_111850", "kraken_seq": 38, "telemetry_seq": 97, "t_rx_ms": 1776450075322, "dt_ms": -77, "doa_deg": 23.0, "confidence_0_1": 0.9741083532571793, "lat_deg": 34.0591399, "lon_deg": -117.8198345, "altitude_rel_ft": 0.9055, "yaw_deg": -44.4769, "pitch_deg": 0.1911, "roll_deg": 0.2755, "ground_speed_ft_s": 0.0, "vel_north_m_s": 0.0, "vel_east_m_s": 0.0, "vel_down_m_s": 0.0, "usable_for_triangulation": true, "t_gcs_rx_ms": 1776450699484}
{"run_id": "20260417_111850", "kraken_seq": 39, "telemetry_seq": 100, "t_rx_ms": 1776450075831, "dt_ms": 24, "doa_deg": 8.0, "confidence_0_1": 5.14369010925293, "lat_deg": 34.0591399, "lon_deg": -117.8198345, "altitude_rel_ft": 0.9055, "yaw_deg": -44.4769, "pitch_deg": 0.1911, "roll_deg": 0.2755, "ground_speed_ft_s": 0.0, "vel_north_m_s": 0.0, "vel_east_m_s": 0.0, "vel_down_m_s": 0.0, "usable_for_triangulation": true, "t_gcs_rx_ms": 1776450699858}
{"run_id": "20260417_111850", "kraken_seq": 40, "telemetry_seq": 102, "t_rx_ms": 1776450076234, "dt_ms": 26, "doa_deg": 8.0, "confidence_0_1": 5.925711393356323, "lat_deg": 34.0591399, "lon_deg": -117.8198345, "altitude_rel_ft": 0.6463, "yaw_deg": -44.5902, "pitch_deg": 0.1937, "roll_deg": 0.2823, "ground_speed_ft_s": 0.0, "vel_north_m_s": 0.0, "vel_east_m_s": 0.0, "vel_down_m_s": 0.0, "usable_for_triangulation": true, "t_gcs_rx_ms": 1776450700367}
{"run_id": "20260417_111850", "kraken_seq": 41, "telemetry_seq": 104, "t_rx_ms": 1776450076638, "dt_ms": 25, "doa_deg": 7.0, "confidence_0_1": 5.340419411659241, "lat_deg": 34.0591399, "lon_deg": -117.8198345, "altitude_rel_ft": 0.6463, "yaw_deg": -44.5902, "pitch_deg": 0.1937, "roll_deg": 0.2823, "ground_speed_ft_s": 0.0, "vel_north_m_s": 0.0, "vel_east_m_s": 0.0, "vel_down_m_s": 0.0, "usable_for_triangulation": true, "t_gcs_rx_ms": 1776450700667}
{"run_id": "20260417_111850", "kraken_seq": 42, "telemetry_seq": 106, "t_rx_ms": 1776450077043, "dt_ms": 26, "doa_deg": 7.0, "confidence_0_1": 4.163128435611725, "lat_deg": 34.0591399, "lon_deg": -117.8198345, "altitude_rel_ft": 0.2001, "yaw_deg": -44.5951, "pitch_deg": 0.1941, "roll_deg": 0.2832, "ground_speed_ft_s": 0.0, "vel_north_m_s": 0.0, "vel_east_m_s": 0.0, "vel_down_m_s": 0.0, "usable_for_triangulation": true, "t_gcs_rx_ms": 1776450701085}
{"run_id": "20260417_111850", "kraken_seq": 43, "telemetry_seq": 108, "t_rx_ms": 1776450077451, "dt_ms": 26, "doa_deg": 28.0, "confidence_0_1": 2.938365340232849, "lat_deg": 34.0591399, "lon_deg": -117.8198345, "altitude_rel_ft": 0.2001, "yaw_deg": -44.5951, "pitch_deg": 0.1941, "roll_deg": 0.2832, "ground_speed_ft_s": 0.0, "vel_north_m_s": 0.0, "vel_east_m_s": 0.0, "vel_down_m_s": 0.0, "usable_for_triangulation": true, "t_gcs_rx_ms": 1776450701564}
{"run_id": "20260417_111850", "kraken_seq": 44, "telemetry_seq": 110, "t_rx_ms": 1776450077952, "dt_ms": -71, "doa_deg": 110.0, "confidence_0_1": 3.0812302231788635, "lat_deg": 34.0591399, "lon_deg": -117.8198345, "altitude_rel_ft": 0.2001, "yaw_deg": -44.5951, "pitch_deg": 0.1941, "roll_deg": 0.2832, "ground_speed_ft_s": 0.0, "vel_north_m_s": 0.0, "vel_east_m_s": 0.0, "vel_down_m_s": 0.0, "usable_for_triangulation": true, "t_gcs_rx_ms": 1776450701910}
{"run_id": "20260417_111850", "kraken_seq": 45, "telemetry_seq": 113, "t_rx_ms": 1776450078459, "dt_ms": 28, "doa_deg": 115.0, "confidence_0_1": 3.036797046661377, "lat_deg": 34.0591399, "lon_deg": -117.8198345, "altitude_rel_ft": 0.7612, "yaw_deg": -99.2764, "pitch_deg": 1.1705, "roll_deg": 1.2377, "ground_speed_ft_s": 769.0916, "vel_north_m_s": -37.87, "vel_east_m_s": -231.34, "vel_down_m_s": 315.87, "usable_for_triangulation": true, "t_gcs_rx_ms": 1776450702385}
{"run_id": "20260417_111850", "kraken_seq": 46, "telemetry_seq": 115, "t_rx_ms": 1776450078862, "dt_ms": 27, "doa_deg": 108.0, "confidence_0_1": 3.484838604927063, "lat_deg": 34.0591399, "lon_deg": -117.8198345, "altitude_rel_ft": 0.7612, "yaw_deg": -99.2764, "pitch_deg": 1.1705, "roll_deg": 1.2377, "ground_speed_ft_s": 769.0916, "vel_north_m_s": -37.87, "vel_east_m_s": -231.34, "vel_down_m_s": 315.87, "usable_for_triangulation": true, "t_gcs_rx_ms": 1776450702701}
{"run_id": "20260417_111850", "kraken_seq": 47, "telemetry_seq": 117, "t_rx_ms": 1776450079369, "dt_ms": -76, "doa_deg": 90.0, "confidence_0_1": 2.303529977798462, "lat_deg": 34.065162799999996, "lon_deg": -117.7774536, "altitude_rel_ft": 0.2198, "yaw_deg": -92.9452, "pitch_deg": 1.1419, "roll_deg": 1.1406, "ground_speed_ft_s": 716.593, "vel_north_m_s": -36.3, "vel_east_m_s": -215.38, "vel_down_m_s": 293.47, "usable_for_triangulation": true, "t_gcs_rx_ms": 1776450703076}
{"run_id": "20260417_111850", "kraken_seq": 48, "telemetry_seq": 119, "t_rx_ms": 1776450079774, "dt_ms": -80, "doa_deg": 82.0, "confidence_0_1": 2.2722700238227844, "lat_deg": 34.065162799999996, "lon_deg": -117.7774536, "altitude_rel_ft": 0.2198, "yaw_deg": -92.9452, "pitch_deg": 1.1419, "roll_deg": 1.1406, "ground_speed_ft_s": 716.593, "vel_north_m_s": -36.3, "vel_east_m_s": -215.38, "vel_down_m_s": 293.47, "usable_for_triangulation": true, "t_gcs_rx_ms": 1776450703533}
{"run_id": "20260417_111850", "kraken_seq": 49, "telemetry_seq": 121, "t_rx_ms": 1776450080077, "dt_ms": 24, "doa_deg": 82.0, "confidence_0_1": 2.5664186477661133, "lat_deg": 34.0657086, "lon_deg": -117.7734237, "altitude_rel_ft": 0.771, "yaw_deg": -86.7517, "pitch_deg": 1.1314, "roll_deg": 0.9976, "ground_speed_ft_s": 558.6136, "vel_north_m_s": -26.44, "vel_east_m_s": -168.2, "vel_down_m_s": 230.55, "usable_for_triangulation": true, "t_gcs_rx_ms": 1776450703883}
{"run_id": "20260417_111850", "kraken_seq": 50, "telemetry_seq": 123, "t_rx_ms": 1776450080577, "dt_ms": -73, "doa_deg": 100.0, "confidence_0_1": 3.036367893218994, "lat_deg": 34.0657086, "lon_deg": -117.7734237, "altitude_rel_ft": 0.771, "yaw_deg": -86.7517, "pitch_deg": 1.1314, "roll_deg": 0.9976, "ground_speed_ft_s": 558.6136, "vel_north_m_s": -26.44, "vel_east_m_s": -168.2, "vel_down_m_s": 230.55, "usable_for_triangulation": true, "t_gcs_rx_ms": 1776450704375}
{"run_id": "20260417_111850", "kraken_seq": 51, "telemetry_seq": 125, "t_rx_ms": 1776450080982, "dt_ms": -77, "doa_deg": 101.0, "confidence_0_1": 3.88383686542511, "lat_deg": 34.0657086, "lon_deg": -117.7734237, "altitude_rel_ft": 0.771, "yaw_deg": -86.7517, "pitch_deg": 1.1314, "roll_deg": 0.9976, "ground_speed_ft_s": 558.6136, "vel_north_m_s": -26.44, "vel_east_m_s": -168.2, "vel_down_m_s": 230.55, "usable_for_triangulation": true, "t_gcs_rx_ms": 1776450704678}
{"run_id": "20260417_111850", "kraken_seq": 52, "telemetry_seq": 128, "t_rx_ms": 1776450081484, "dt_ms": 24, "doa_deg": 103.0, "confidence_0_1": 4.832533895969391, "lat_deg": 34.0662354, "lon_deg": -117.76977529999999, "altitude_rel_ft": 0.4888, "yaw_deg": -81.2608, "pitch_deg": 1.1336, "roll_deg": 0.8844, "ground_speed_ft_s": 262.2169, "vel_north_m_s": -12.31, "vel_east_m_s": -78.97, "vel_down_m_s": 107.54, "usable_for_triangulation": true, "t_gcs_rx_ms": 1776450705135}
{"run_id": "20260417_111850", "kraken_seq": 53, "telemetry_seq": 130, "t_rx_ms": 1776450081891, "dt_ms": 19, "doa_deg": 121.0, "confidence_0_1": 1.8253795802593231, "lat_deg": 34.0662354, "lon_deg": -117.76977529999999, "altitude_rel_ft": 0.4888, "yaw_deg": -81.2608, "pitch_deg": 1.1336, "roll_deg": 0.8844, "ground_speed_ft_s": 262.2169, "vel_north_m_s": -12.31, "vel_east_m_s": -78.97, "vel_down_m_s": 107.54, "usable_for_triangulation": true, "t_gcs_rx_ms": 1776450705587}
{"run_id": "20260417_111850", "kraken_seq": 54, "telemetry_seq": 132, "t_rx_ms": 1776450082316, "dt_ms": -3, "doa_deg": 116.0, "confidence_0_1": 1.5564391016960144, "lat_deg": 34.066490099999996, "lon_deg": -117.7679644, "altitude_rel_ft": 0.6168, "yaw_deg": -76.4252, "pitch_deg": 1.1494, "roll_deg": 0.7884, "ground_speed_ft_s": 213.8366, "vel_north_m_s": -10.29, "vel_east_m_s": -64.36, "vel_down_m_s": 88.27, "usable_for_triangulation": true, "t_gcs_rx_ms": 1776450705918}
{"run_id": "20260417_111850", "kraken_seq": 55, "telemetry_seq": 135, "t_rx_ms": 1776450082834, "dt_ms": 88, "doa_deg": 123.0, "confidence_0_1": 3.5600745677948, "lat_deg": 34.066490099999996, "lon_deg": -117.7679644, "altitude_rel_ft": 0.6168, "yaw_deg": -76.4252, "pitch_deg": 1.1494, "roll_deg": 0.7884, "ground_speed_ft_s": 213.8366, "vel_north_m_s": -10.29, "vel_east_m_s": -64.36, "vel_down_m_s": 88.27, "usable_for_triangulation": true, "t_gcs_rx_ms": 1776450706501}
{"run_id": "20260417_111850", "kraken_seq": 56, "telemetry_seq": 137, "t_rx_ms": 1776450083241, "dt_ms": 83, "doa_deg": 123.0, "confidence_0_1": 4.413006901741028, "lat_deg": 34.0664866, "lon_deg": -117.7680602, "altitude_rel_ft": 0.0558, "yaw_deg": -72.0647, "pitch_deg": 1.1632, "roll_deg": 0.7087, "ground_speed_ft_s": 142.7588, "vel_north_m_s": -6.33, "vel_east_m_s": -43.05, "vel_down_m_s": 58.96, "usable_for_triangulation": true, "t_gcs_rx_ms": 1776450706736}
{"run_id": "20260417_111850", "kraken_seq": 57, "telemetry_seq": 139, "t_rx_ms": 1776450083643, "dt_ms": 82, "doa_deg": 146.0, "confidence_0_1": 2.61903315782547, "lat_deg": 34.0664866, "lon_deg": -117.7680602, "altitude_rel_ft": 0.0558, "yaw_deg": -72.0647, "pitch_deg": 1.1632, "roll_deg": 0.7087, "ground_speed_ft_s": 142.7588, "vel_north_m_s": -6.33, "vel_east_m_s": -43.05, "vel_down_m_s": 58.96, "usable_for_triangulation": true, "t_gcs_rx_ms": 1776450707084}
{"run_id": "20260417_111850", "kraken_seq": 58, "telemetry_seq": 141, "t_rx_ms": 1776450084047, "dt_ms": 83, "doa_deg": 169.0, "confidence_0_1": 2.719409167766571, "lat_deg": 34.0660267, "lon_deg": -117.77141119999999, "altitude_rel_ft": 0.2789, "yaw_deg": -68.2996, "pitch_deg": 1.1714, "roll_deg": 0.6295, "ground_speed_ft_s": 162.1694, "vel_north_m_s": -6.5, "vel_east_m_s": -49.0, "vel_down_m_s": 67.85, "usable_for_triangulation": true, "t_gcs_rx_ms": 1776450707528}
{"run_id": "20260417_111850", "kraken_seq": 59, "telemetry_seq": 143, "t_rx_ms": 1776450084455, "dt_ms": 76, "doa_deg": 137.0, "confidence_0_1": 3.367937207221985, "lat_deg": 34.0660267, "lon_deg": -117.77141119999999, "altitude_rel_ft": 0.2789, "yaw_deg": -68.2996, "pitch_deg": 1.1714, "roll_deg": 0.6295, "ground_speed_ft_s": 162.1694, "vel_north_m_s": -6.5, "vel_east_m_s": -49.0, "vel_down_m_s": 67.85, "usable_for_triangulation": true, "t_gcs_rx_ms": 1776450707867}
{"run_id": "20260417_111850", "kraken_seq": 60, "telemetry_seq": 145, "t_rx_ms": 1776450084957, "dt_ms": -21, "doa_deg": 89.0, "confidence_0_1": 1.8672910332679749, "lat_deg": 34.0660267, "lon_deg": -117.77141119999999, "altitude_rel_ft": 0.2789, "yaw_deg": -68.2996, "pitch_deg": 1.1714, "roll_deg": 0.6295, "ground_speed_ft_s": 162.1694, "vel_north_m_s": -6.5, "vel_east_m_s": -49.0, "vel_down_m_s": 67.85, "usable_for_triangulation": true, "t_gcs_rx_ms": 1776450708525}
{"run_id": "20260417_111850", "kraken_seq": 61, "telemetry_seq": 147, "t_rx_ms": 1776450085357, "dt_ms": -11, "doa_deg": 34.0, "confidence_0_1": 1.8556073307991028, "lat_deg": 34.0656002, "lon_deg": -117.7745197, "altitude_rel_ft": 1.273, "yaw_deg": -65.0231, "pitch_deg": 1.1845, "roll_deg": 0.5548, "ground_speed_ft_s": 295.3227, "vel_north_m_s": -15.21, "vel_east_m_s": -88.72, "vel_down_m_s": 119.92, "usable_for_triangulation": true, "t_gcs_rx_ms": 1776450708687}
{"run_id": "20260417_111850", "kraken_seq": 62, "telemetry_seq": 150, "t_rx_ms": 1776450085868, "dt_ms": 81, "doa_deg": 34.0, "confidence_0_1": 1.9349326193332672, "lat_deg": 34.0656002, "lon_deg": -117.7745197, "altitude_rel_ft": 1.273, "yaw_deg": -65.0231, "pitch_deg": 1.1845, "roll_deg": 0.5548, "ground_speed_ft_s": 295.3227, "vel_north_m_s": -15.21, "vel_east_m_s": -88.72, "vel_down_m_s": 119.92, "usable_for_triangulation": true, "t_gcs_rx_ms": 1776450709112}
{"run_id": "20260417_111850", "kraken_seq": 63, "telemetry_seq": 152, "t_rx_ms": 1776450086276, "dt_ms": 78, "doa_deg": 14.0, "confidence_0_1": 1.3500683009624481, "lat_deg": 34.065067, "lon_deg": -117.77836149999999, "altitude_rel_ft": 1.2828, "yaw_deg": -62.0561, "pitch_deg": 1.2007, "roll_deg": 0.4996, "ground_speed_ft_s": 376.1837, "vel_north_m_s": -16.89, "vel_east_m_s": -113.41, "vel_down_m_s": 154.01, "usable_for_triangulation": true, "t_gcs_rx_ms": 1776450709544}
{"run_id": "20260417_111850", "kraken_seq": 64, "telemetry_seq": 154, "t_rx_ms": 1776450086806, "dt_ms": -40, "doa_deg": 4.0, "confidence_0_1": 6.452239751815796, "lat_deg": 34.065067, "lon_deg": -117.77836149999999, "altitude_rel_ft": 1.2828, "yaw_deg": -62.0561, "pitch_deg": 1.2007, "roll_deg": 0.4996, "ground_speed_ft_s": 376.1837, "vel_north_m_s": -16.89, "vel_east_m_s": -113.41, "vel_down_m_s": 154.01, "usable_for_triangulation": true, "t_gcs_rx_ms": 1776450709910}
{"run_id": "20260417_111850", "kraken_seq": 65, "telemetry_seq": 156, "t_rx_ms": 1776450087130, "dt_ms": 42, "doa_deg": 7.0, "confidence_0_1": 5.454885959625244, "lat_deg": 34.0648725, "lon_deg": -117.77980249999999, "altitude_rel_ft": 1.706, "yaw_deg": -59.4745, "pitch_deg": 1.2126, "roll_deg": 0.454, "ground_speed_ft_s": 318.4918, "vel_north_m_s": -15.13, "vel_east_m_s": -95.89, "vel_down_m_s": 130.23, "usable_for_triangulation": true, "t_gcs_rx_ms": 1776450710553}
{"run_id": "20260417_111850", "kraken_seq": 66, "telemetry_seq": 158, "t_rx_ms": 1776450087536, "dt_ms": 42, "doa_deg": 5.0, "confidence_0_1": 6.085745692253113, "lat_deg": 34.0648725, "lon_deg": -117.77980249999999, "altitude_rel_ft": 1.706, "yaw_deg": -59.4745, "pitch_deg": 1.2126, "roll_deg": 0.454, "ground_speed_ft_s": 318.4918, "vel_north_m_s": -15.13, "vel_east_m_s": -95.89, "vel_down_m_s": 130.23, "usable_for_triangulation": true, "t_gcs_rx_ms": 1776450710736}
{"run_id": "20260417_111850", "kraken_seq": 67, "telemetry_seq": 160, "t_rx_ms": 1776450087942, "dt_ms": 40, "doa_deg": 359.0, "confidence_0_1": 5.631507635116577, "lat_deg": 34.0648725, "lon_deg": -117.77980249999999, "altitude_rel_ft": 1.706, "yaw_deg": -59.4745, "pitch_deg": 1.2126, "roll_deg": 0.454, "ground_speed_ft_s": 318.4918, "vel_north_m_s": -15.13, "vel_east_m_s": -95.89, "vel_down_m_s": 130.23, "usable_for_triangulation": true, "t_gcs_rx_ms": 1776450711317}
{"run_id": "20260417_111850", "kraken_seq": 68, "telemetry_seq": 162, "t_rx_ms": 1776450088443, "dt_ms": -58, "doa_deg": 357.0, "confidence_0_1": 5.549674034118652, "lat_deg": 34.0647605, "lon_deg": -117.7806318, "altitude_rel_ft": 0.8465, "yaw_deg": -57.312, "pitch_deg": 1.2162, "roll_deg": 0.4064, "ground_speed_ft_s": 304.3547, "vel_north_m_s": -15.04, "vel_east_m_s": -91.54, "vel_down_m_s": 123.63, "usable_for_triangulation": true, "t_gcs_rx_ms": 1776450711529}
{"run_id": "20260417_111850", "kraken_seq": 69, "telemetry_seq": 165, "t_rx_ms": 1776450088947, "dt_ms": 40, "doa_deg": 360.0, "confidence_0_1": 6.261458396911621, "lat_deg": 34.0647605, "lon_deg": -117.7806318, "altitude_rel_ft": 0.8465, "yaw_deg": -57.312, "pitch_deg": 1.2162, "roll_deg": 0.4064, "ground_speed_ft_s": 304.3547, "vel_north_m_s": -15.04, "vel_east_m_s": -91.54, "vel_down_m_s": 123.63, "usable_for_triangulation": true, "t_gcs_rx_ms": 1776450712016}
{"run_id": "20260417_111850", "kraken_seq": 70, "telemetry_seq": 167, "t_rx_ms": 1776450089353, "dt_ms": 42, "doa_deg": 345.0, "confidence_0_1": 2.960751950740814, "lat_deg": 34.0649375, "lon_deg": -117.7794473, "altitude_rel_ft": 1.145, "yaw_deg": -55.3619, "pitch_deg": 1.2245, "roll_deg": 0.3711, "ground_speed_ft_s": 203.5423, "vel_north_m_s": -7.7, "vel_east_m_s": -61.56, "vel_down_m_s": 84.92, "usable_for_triangulation": true, "t_gcs_rx_ms": 1776450712540}
{"run_id": "20260417_111850", "kraken_seq": 71, "telemetry_seq": 169, "t_rx_ms": 1776450089758, "dt_ms": 40, "doa_deg": 103.0, "confidence_0_1": 5.0677794218063354, "lat_deg": 34.0649375, "lon_deg": -117.7794473, "altitude_rel_ft": 1.145, "yaw_deg": -55.3619, "pitch_deg": 1.2245, "roll_deg": 0.3711, "ground_speed_ft_s": 203.5423, "vel_north_m_s": -7.7, "vel_east_m_s": -61.56, "vel_down_m_s": 84.92, "usable_for_triangulation": true, "t_gcs_rx_ms": 1776450712859}
{"run_id": "20260417_111850", "kraken_seq": 72, "telemetry_seq": 171, "t_rx_ms": 1776450090167, "dt_ms": 35, "doa_deg": 110.0, "confidence_0_1": 4.186369776725769, "lat_deg": 34.06516, "lon_deg": -117.7779386, "altitude_rel_ft": 0.935, "yaw_deg": -53.6089, "pitch_deg": 1.319, "roll_deg": 0.2596, "ground_speed_ft_s": 121.8123, "vel_north_m_s": -6.3, "vel_east_m_s": -36.59, "vel_down_m_s": 50.23, "usable_for_triangulation": true, "t_gcs_rx_ms": 1776450713334}
{"run_id": "20260417_111850", "kraken_seq": 73, "telemetry_seq": 173, "t_rx_ms": 1776450090573, "dt_ms": 44, "doa_deg": 109.0, "confidence_0_1": 4.887493252754211, "lat_deg": 34.06516, "lon_deg": -117.7779386, "altitude_rel_ft": 0.935, "yaw_deg": -53.6089, "pitch_deg": 1.319, "roll_deg": 0.2596, "ground_speed_ft_s": 121.8123, "vel_north_m_s": -6.3, "vel_east_m_s": -36.59, "vel_down_m_s": 50.23, "usable_for_triangulation": true, "t_gcs_rx_ms": 1776450713545}
{"run_id": "20260417_111850", "kraken_seq": 74, "telemetry_seq": 175, "t_rx_ms": 1776450091074, "dt_ms": -52, "doa_deg": 114.0, "confidence_0_1": 5.118698477745056, "lat_deg": 34.06516, "lon_deg": -117.7779386, "altitude_rel_ft": 0.935, "yaw_deg": -53.6089, "pitch_deg": 1.319, "roll_deg": 0.2596, "ground_speed_ft_s": 121.8123, "vel_north_m_s": -6.3, "vel_east_m_s": -36.59, "vel_down_m_s": 50.23, "usable_for_triangulation": true, "t_gcs_rx_ms": 1776450713960}
{"run_id": "20260417_111850", "kraken_seq": 75, "telemetry_seq": 177, "t_rx_ms": 1776450091494, "dt_ms": -70, "doa_deg": 114.0, "confidence_0_1": 5.317752361297607, "lat_deg": 34.0652186, "lon_deg": -117.7775611, "altitude_rel_ft": -0.7021, "yaw_deg": -52.2242, "pitch_deg": 1.231, "roll_deg": 0.3084, "ground_speed_ft_s": 157.61, "vel_north_m_s": -6.7, "vel_east_m_s": -47.57, "vel_down_m_s": 65.71, "usable_for_triangulation": true, "t_gcs_rx_ms": 1776450714544}
{"run_id": "20260417_111850", "kraken_seq": 76, "telemetry_seq": 179, "t_rx_ms": 1776450091897, "dt_ms": -72, "doa_deg": 111.0, "confidence_0_1": 5.525984764099121, "lat_deg": 34.0652186, "lon_deg": -117.7775611, "altitude_rel_ft": -0.7021, "yaw_deg": -52.2242, "pitch_deg": 1.231, "roll_deg": 0.3084, "ground_speed_ft_s": 157.61, "vel_north_m_s": -6.7, "vel_east_m_s": -47.57, "vel_down_m_s": 65.71, "usable_for_triangulation": true, "t_gcs_rx_ms": 1776450714787}
{"run_id": "20260417_111850", "kraken_seq": 77, "telemetry_seq": 182, "t_rx_ms": 1776450092401, "dt_ms": 26, "doa_deg": 111.0, "confidence_0_1": 4.436807632446289, "lat_deg": 34.06518, "lon_deg": -117.77788629999999, "altitude_rel_ft": 0.643, "yaw_deg": -51.0613, "pitch_deg": 1.2068, "roll_deg": 0.2808, "ground_speed_ft_s": 77.6447, "vel_north_m_s": -2.44, "vel_east_m_s": -23.54, "vel_down_m_s": 31.63, "usable_for_triangulation": true, "t_gcs_rx_ms": 1776450715339}
{"run_id": "20260417_111850", "kraken_seq": 78, "telemetry_seq": 184, "t_rx_ms": 1776450092805, "dt_ms": 26, "doa_deg": 110.0, "confidence_0_1": 4.3346816301345825, "lat_deg": 34.06518, "lon_deg": -117.77788629999999, "altitude_rel_ft": 0.643, "yaw_deg": -51.0613, "pitch_deg": 1.2068, "roll_deg": 0.2808, "ground_speed_ft_s": 77.6447, "vel_north_m_s": -2.44, "vel_east_m_s": -23.54, "vel_down_m_s": 31.63, "usable_for_triangulation": true, "t_gcs_rx_ms": 1776450715641}
{"run_id": "20260417_111850", "kraken_seq": 79, "telemetry_seq": 187, "t_rx_ms": 1776450093411, "dt_ms": 34, "doa_deg": 110.0, "confidence_0_1": 4.454730749130249, "lat_deg": 34.0656202, "lon_deg": -117.7748508, "altitude_rel_ft": 0.4823, "yaw_deg": -49.9512, "pitch_deg": 1.2093, "roll_deg": 0.2611, "ground_speed_ft_s": 1.7388, "vel_north_m_s": -0.28, "vel_east_m_s": 0.45, "vel_down_m_s": 0.21, "usable_for_triangulation": true, "t_gcs_rx_ms": 1776450716062}
{"run_id": "20260417_111850", "kraken_seq": 80, "telemetry_seq": 188, "t_rx_ms": 1776450093712, "dt_ms": -64, "doa_deg": 114.0, "confidence_0_1": 3.8771268725395203, "lat_deg": 34.0656202, "lon_deg": -117.7748508, "altitude_rel_ft": 0.4823, "yaw_deg": -49.9512, "pitch_deg": 1.2093, "roll_deg": 0.2611, "ground_speed_ft_s": 1.7388, "vel_north_m_s": -0.28, "vel_east_m_s": 0.45, "vel_down_m_s": 0.21, "usable_for_triangulation": true, "t_gcs_rx_ms": 1776450716551}
{"run_id": "20260417_111850", "kraken_seq": 81, "telemetry_seq": 191, "t_rx_ms": 1776450094218, "dt_ms": 33, "doa_deg": 117.0, "confidence_0_1": 3.2720229029655457, "lat_deg": 34.0657102, "lon_deg": -117.7742237, "altitude_rel_ft": 0.8366, "yaw_deg": -48.9903, "pitch_deg": 1.2042, "roll_deg": 0.2475, "ground_speed_ft_s": 4.5961, "vel_north_m_s": 1.09, "vel_east_m_s": 0.88, "vel_down_m_s": -0.19, "usable_for_triangulation": true, "t_gcs_rx_ms": 1776450716869}
{"run_id": "20260417_111850", "kraken_seq": 82, "telemetry_seq": 192, "t_rx_ms": 1776450094523, "dt_ms": -71, "doa_deg": 117.0, "confidence_0_1": 3.135133981704712, "lat_deg": 34.0657102, "lon_deg": -117.7742237, "altitude_rel_ft": 0.8366, "yaw_deg": -48.9903, "pitch_deg": 1.2042, "roll_deg": 0.2475, "ground_speed_ft_s": 4.5961, "vel_north_m_s": 1.09, "vel_east_m_s": 0.88, "vel_down_m_s": -0.19, "usable_for_triangulation": true, "t_gcs_rx_ms": 1776450717360}
{"run_id": "20260417_111850", "kraken_seq": 83, "telemetry_seq": 195, "t_rx_ms": 1776450095025, "dt_ms": 30, "doa_deg": 116.0, "confidence_0_1": 3.2578402757644653, "lat_deg": 34.0658262, "lon_deg": -117.7734483, "altitude_rel_ft": 0.5282, "yaw_deg": -48.2192, "pitch_deg": 1.1975, "roll_deg": 0.2353, "ground_speed_ft_s": 4.75, "vel_north_m_s": -0.15, "vel_east_m_s": 1.44, "vel_down_m_s": -0.34, "usable_for_triangulation": true, "t_gcs_rx_ms": 1776450717692}
{"run_id": "20260417_111850", "kraken_seq": 84, "telemetry_seq": 197, "t_rx_ms": 1776450095528, "dt_ms": -70, "doa_deg": 115.0, "confidence_0_1": 3.135901689529419, "lat_deg": 34.0658262, "lon_deg": -117.7734483, "altitude_rel_ft": 0.5282, "yaw_deg": -48.2192, "pitch_deg": 1.1975, "roll_deg": 0.2353, "ground_speed_ft_s": 4.75, "vel_north_m_s": -0.15, "vel_east_m_s": 1.44, "vel_down_m_s": -0.34, "usable_for_triangulation": true, "t_gcs_rx_ms": 1776450718076}
{"run_id": "20260417_111850", "kraken_seq": 85, "telemetry_seq": 199, "t_rx_ms": 1776450095836, "dt_ms": 24, "doa_deg": 115.0, "confidence_0_1": 2.9989218711853027, "lat_deg": 34.0658262, "lon_deg": -117.7734483, "altitude_rel_ft": 0.5282, "yaw_deg": -48.2192, "pitch_deg": 1.1975, "roll_deg": 0.2353, "ground_speed_ft_s": 4.75, "vel_north_m_s": -0.15, "vel_east_m_s": 1.44, "vel_down_m_s": -0.34, "usable_for_triangulation": true, "t_gcs_rx_ms": 1776450718493}
{"run_id": "20260417_111850", "kraken_seq": 86, "telemetry_seq": 201, "t_rx_ms": 1776450096239, "dt_ms": 28, "doa_deg": 112.0, "confidence_0_1": 4.065145254135132, "lat_deg": 34.0591116, "lon_deg": -117.8208997, "altitude_rel_ft": 1.0105, "yaw_deg": -47.4853, "pitch_deg": 1.192, "roll_deg": 0.2239, "ground_speed_ft_s": 1.3225, "vel_north_m_s": 0.16, "vel_east_m_s": 0.37, "vel_down_m_s": -0.19, "usable_for_triangulation": true, "t_gcs_rx_ms": 1776450718859}
{"run_id": "20260417_111850", "kraken_seq": 87, "telemetry_seq": 203, "t_rx_ms": 1776450096744, "dt_ms": -78, "doa_deg": 111.0, "confidence_0_1": 4.178731739521027, "lat_deg": 34.0591116, "lon_deg": -117.8208997, "altitude_rel_ft": 1.0105, "yaw_deg": -47.4853, "pitch_deg": 1.192, "roll_deg": 0.2239, "ground_speed_ft_s": 1.3225, "vel_north_m_s": 0.16, "vel_east_m_s": 0.37, "vel_down_m_s": -0.19, "usable_for_triangulation": true, "t_gcs_rx_ms": 1776450719350}
{"run_id": "20260417_111850", "kraken_seq": 88, "telemetry_seq": 205, "t_rx_ms": 1776450097152, "dt_ms": -84, "doa_deg": 112.0, "confidence_0_1": 3.2525569200515747, "lat_deg": 34.059097699999995, "lon_deg": -117.82097259999999, "altitude_rel_ft": 0.0361, "yaw_deg": -47.0187, "pitch_deg": 1.1767, "roll_deg": 0.2159, "ground_speed_ft_s": 3.4474, "vel_north_m_s": -0.04, "vel_east_m_s": 1.05, "vel_down_m_s": -0.35, "usable_for_triangulation": true, "t_gcs_rx_ms": 1776450719677}
{"run_id": "20260417_111850", "kraken_seq": 89, "telemetry_seq": 207, "t_rx_ms": 1776450097556, "dt_ms": -81, "doa_deg": 106.0, "confidence_0_1": 4.758736491203308, "lat_deg": 34.059097699999995, "lon_deg": -117.82097259999999, "altitude_rel_ft": 0.0361, "yaw_deg": -47.0187, "pitch_deg": 1.1767, "roll_deg": 0.2159, "ground_speed_ft_s": 3.4474, "vel_north_m_s": -0.04, "vel_east_m_s": 1.05, "vel_down_m_s": -0.35, "usable_for_triangulation": true, "t_gcs_rx_ms": 1776450720092}
{"run_id": "20260417_111850", "kraken_seq": 90, "telemetry_seq": 210, "t_rx_ms": 1776450098057, "dt_ms": 18, "doa_deg": 103.0, "confidence_0_1": 4.954567551612854, "lat_deg": 34.0590964, "lon_deg": -117.82097519999999, "altitude_rel_ft": 0.2395, "yaw_deg": -46.4869, "pitch_deg": 1.162, "roll_deg": 0.215, "ground_speed_ft_s": 2.6265, "vel_north_m_s": 0.8, "vel_east_m_s": -0.03, "vel_down_m_s": 0.07, "usable_for_triangulation": true, "t_gcs_rx_ms": 1776450720526}
{"run_id": "20260417_111850", "kraken_seq": 91, "telemetry_seq": 212, "t_rx_ms": 1776450098461, "dt_ms": 31, "doa_deg": 103.0, "confidence_0_1": 5.022675395011902, "lat_deg": 34.0590964, "lon_deg": -117.82097519999999, "altitude_rel_ft": 0.2395, "yaw_deg": -46.4869, "pitch_deg": 1.162, "roll_deg": 0.215, "ground_speed_ft_s": 2.6265, "vel_north_m_s": 0.8, "vel_east_m_s": -0.03, "vel_down_m_s": 0.07, "usable_for_triangulation": true, "t_gcs_rx_ms": 1776450720876}
{"run_id": "20260417_111850", "kraken_seq": 92, "telemetry_seq": 214, "t_rx_ms": 1776450098863, "dt_ms": 31, "doa_deg": 102.0, "confidence_0_1": 4.974039793014526, "lat_deg": 34.0590964, "lon_deg": -117.82097519999999, "altitude_rel_ft": 0.2395, "yaw_deg": -46.4869, "pitch_deg": 1.162, "roll_deg": 0.215, "ground_speed_ft_s": 2.6265, "vel_north_m_s": 0.8, "vel_east_m_s": -0.03, "vel_down_m_s": 0.07, "usable_for_triangulation": true, "t_gcs_rx_ms": 1776450721496}
{"run_id": "20260417_111850", "kraken_seq": 93, "telemetry_seq": 257, "t_rx_ms": 1776450107587, "dt_ms": -51, "doa_deg": 113.0, "confidence_0_1": 2.2344985604286194, "lat_deg": 34.059083699999995, "lon_deg": -117.8207951, "altitude_rel_ft": 0.1247, "yaw_deg": -43.6964, "pitch_deg": 1.1163, "roll_deg": 0.2199, "ground_speed_ft_s": 4.451, "vel_north_m_s": 0.78, "vel_east_m_s": 1.11, "vel_down_m_s": -0.46, "usable_for_triangulation": true, "t_gcs_rx_ms": 1776450721800}
{"run_id": "20260417_111850", "kraken_seq": 94, "telemetry_seq": 260, "t_rx_ms": 1776450108189, "dt_ms": -49, "doa_deg": 112.0, "confidence_0_1": 2.2425706684589386, "lat_deg": 34.0590901, "lon_deg": -117.82076749999999, "altitude_rel_ft": 0.2395, "yaw_deg": -43.4637, "pitch_deg": 1.1144, "roll_deg": 0.2286, "ground_speed_ft_s": 5.1604, "vel_north_m_s": -0.32, "vel_east_m_s": 1.54, "vel_down_m_s": -0.68, "usable_for_triangulation": true, "t_gcs_rx_ms": 1776450722217}
{"run_id": "20260417_111850", "kraken_seq": 95, "telemetry_seq": 262, "t_rx_ms": 1776450108489, "dt_ms": 53, "doa_deg": 113.0, "confidence_0_1": 2.176695019006729, "lat_deg": 34.0590901, "lon_deg": -117.82076749999999, "altitude_rel_ft": 0.2395, "yaw_deg": -43.4637, "pitch_deg": 1.1144, "roll_deg": 0.2286, "ground_speed_ft_s": 5.1604, "vel_north_m_s": -0.32, "vel_east_m_s": 1.54, "vel_down_m_s": -0.68, "usable_for_triangulation": true, "t_gcs_rx_ms": 1776450722636}
{"run_id": "20260417_111850", "kraken_seq": 96, "telemetry_seq": 264, "t_rx_ms": 1776450108995, "dt_ms": -50, "doa_deg": 111.0, "confidence_0_1": 2.0643939077854156, "lat_deg": 34.0590901, "lon_deg": -117.82076749999999, "altitude_rel_ft": 0.2395, "yaw_deg": -43.4637, "pitch_deg": 1.1144, "roll_deg": 0.2286, "ground_speed_ft_s": 5.1604, "vel_north_m_s": -0.32, "vel_east_m_s": 1.54, "vel_down_m_s": -0.68, "usable_for_triangulation": true, "t_gcs_rx_ms": 1776450723035}
{"run_id": "20260417_111850", "kraken_seq": 97, "telemetry_seq": 266, "t_rx_ms": 1776450109399, "dt_ms": -52, "doa_deg": 13.0, "confidence_0_1": 1.3625690340995789, "lat_deg": 34.0590882, "lon_deg": -117.8207575, "altitude_rel_ft": 0.8957, "yaw_deg": -43.3791, "pitch_deg": 1.1106, "roll_deg": 0.2323, "ground_speed_ft_s": 0.6463, "vel_north_m_s": -0.08, "vel_east_m_s": -0.18, "vel_down_m_s": -0.41, "usable_for_triangulation": true, "t_gcs_rx_ms": 1776450723511}
{"run_id": "20260417_111850", "kraken_seq": 98, "telemetry_seq": 268, "t_rx_ms": 1776450109804, "dt_ms": -55, "doa_deg": 2.0, "confidence_0_1": 2.238934636116028, "lat_deg": 34.0590882, "lon_deg": -117.8207575, "altitude_rel_ft": 0.8957, "yaw_deg": -43.3791, "pitch_deg": 1.1106, "roll_deg": 0.2323, "ground_speed_ft_s": 0.6463, "vel_north_m_s": -0.08, "vel_east_m_s": -0.18, "vel_down_m_s": -0.41, "usable_for_triangulation": true, "t_gcs_rx_ms": 1776450723812}
{"run_id": "20260417_111850", "kraken_seq": 99, "telemetry_seq": 270, "t_rx_ms": 1776450110205, "dt_ms": -52, "doa_deg": 1.0, "confidence_0_1": 2.172359526157379, "lat_deg": 34.0590866, "lon_deg": -117.8207486, "altitude_rel_ft": 0.1706, "yaw_deg": -43.2068, "pitch_deg": 1.108, "roll_deg": 0.2357, "ground_speed_ft_s": 2.5687, "vel_north_m_s": -0.71, "vel_east_m_s": -0.33, "vel_down_m_s": -0.91, "usable_for_triangulation": true, "t_gcs_rx_ms": 1776450724199}
{"run_id": "20260417_111850", "kraken_seq": 100, "telemetry_seq": 273, "t_rx_ms": 1776450110706, "dt_ms": 50, "doa_deg": 1.0, "confidence_0_1": 1.7287437617778778, "lat_deg": 34.0590866, "lon_deg": -117.8207486, "altitude_rel_ft": 0.1706, "yaw_deg": -43.2068, "pitch_deg": 1.108, "roll_deg": 0.2357, "ground_speed_ft_s": 2.5687, "vel_north_m_s": -0.71, "vel_east_m_s": -0.33, "vel_down_m_s": -0.91, "usable_for_triangulation": true, "t_gcs_rx_ms": 1776450724627}
{"run_id": "20260417_111850", "kraken_seq": 101, "telemetry_seq": 275, "t_rx_ms": 1776450111218, "dt_ms": -59, "doa_deg": 58.0, "confidence_0_1": 1.0398834198713303, "lat_deg": 34.059083799999996, "lon_deg": -117.8207379, "altitude_rel_ft": 0.4134, "yaw_deg": -43.0756, "pitch_deg": 1.1093, "roll_deg": 0.243, "ground_speed_ft_s": 1.5683, "vel_north_m_s": 0.13, "vel_east_m_s": 0.46, "vel_down_m_s": -0.47, "usable_for_triangulation": true, "t_gcs_rx_ms": 1776450725007}
{"run_id": "20260417_111850", "kraken_seq": 102, "telemetry_seq": 277, "t_rx_ms": 1776450111522, "dt_ms": 40, "doa_deg": 78.0, "confidence_0_1": 1.2984128296375275, "lat_deg": 34.059083799999996, "lon_deg": -117.8207379, "altitude_rel_ft": 0.4134, "yaw_deg": -43.0756, "pitch_deg": 1.1093, "roll_deg": 0.243, "ground_speed_ft_s": 1.5683, "vel_north_m_s": 0.13, "vel_east_m_s": 0.46, "vel_down_m_s": -0.47, "usable_for_triangulation": true, "t_gcs_rx_ms": 1776450725513}
{"run_id": "20260417_111850", "kraken_seq": 103, "telemetry_seq": 279, "t_rx_ms": 1776450112023, "dt_ms": -56, "doa_deg": 79.0, "confidence_0_1": 1.594741940498352, "lat_deg": 34.059083799999996, "lon_deg": -117.8207379, "altitude_rel_ft": 0.4134, "yaw_deg": -43.0756, "pitch_deg": 1.1093, "roll_deg": 0.243, "ground_speed_ft_s": 1.5683, "vel_north_m_s": 0.13, "vel_east_m_s": 0.46, "vel_down_m_s": -0.47, "usable_for_triangulation": true, "t_gcs_rx_ms": 1776450725818}
{"run_id": "20260417_111850", "kraken_seq": 104, "telemetry_seq": 281, "t_rx_ms": 1776450112425, "dt_ms": -57, "doa_deg": 79.0, "confidence_0_1": 2.0424774289131165, "lat_deg": 34.059083199999996, "lon_deg": -117.8207401, "altitude_rel_ft": 0.5184, "yaw_deg": -43.0012, "pitch_deg": 1.1113, "roll_deg": 0.2429, "ground_speed_ft_s": 5.2577, "vel_north_m_s": 0.59, "vel_east_m_s": -1.49, "vel_down_m_s": -0.28, "usable_for_triangulation": true, "t_gcs_rx_ms": 1776450726312}
{"run_id": "20260417_111850", "kraken_seq": 105, "telemetry_seq": 284, "t_rx_ms": 1776450112931, "dt_ms": 41, "doa_deg": 79.0, "confidence_0_1": 2.3039379715919495, "lat_deg": 34.059083199999996, "lon_deg": -117.8207401, "altitude_rel_ft": 0.5184, "yaw_deg": -43.0012, "pitch_deg": 1.1113, "roll_deg": 0.2429, "ground_speed_ft_s": 5.2577, "vel_north_m_s": 0.59, "vel_east_m_s": -1.49, "vel_down_m_s": -0.28, "usable_for_triangulation": true, "t_gcs_rx_ms": 1776450726775}
{"run_id": "20260417_111850", "kraken_seq": 106, "telemetry_seq": 286, "t_rx_ms": 1776450113338, "dt_ms": 36, "doa_deg": 79.0, "confidence_0_1": 2.3280541598796844, "lat_deg": 34.0590846, "lon_deg": -117.820741, "altitude_rel_ft": 1.0991, "yaw_deg": -43.0001, "pitch_deg": 1.1125, "roll_deg": 0.2458, "ground_speed_ft_s": 3.6935, "vel_north_m_s": 1.07, "vel_east_m_s": 0.35, "vel_down_m_s": -0.55, "usable_for_triangulation": true, "t_gcs_rx_ms": 1776450727044}
{"run_id": "20260417_111850", "kraken_seq": 107, "telemetry_seq": 288, "t_rx_ms": 1776450113741, "dt_ms": 38, "doa_deg": 79.0, "confidence_0_1": 2.185310572385788, "lat_deg": 34.0590846, "lon_deg": -117.820741, "altitude_rel_ft": 1.0991, "yaw_deg": -43.0001, "pitch_deg": 1.1125, "roll_deg": 0.2458, "ground_speed_ft_s": 3.6935, "vel_north_m_s": 1.07, "vel_east_m_s": 0.35, "vel_down_m_s": -0.55, "usable_for_triangulation": true, "t_gcs_rx_ms": 1776450727609}
{"run_id": "20260417_111850", "kraken_seq": 108, "telemetry_seq": 290, "t_rx_ms": 1776450114144, "dt_ms": 38, "doa_deg": 79.0, "confidence_0_1": 2.030865252017975, "lat_deg": 34.059092, "lon_deg": -117.82070669999999, "altitude_rel_ft": -0.4626, "yaw_deg": -42.886, "pitch_deg": 1.1089, "roll_deg": 0.2499, "ground_speed_ft_s": 1.9756, "vel_north_m_s": 0.35, "vel_east_m_s": 0.49, "vel_down_m_s": -0.74, "usable_for_triangulation": true, "t_gcs_rx_ms": 1776450727942}
{"run_id": "20260417_111850", "kraken_seq": 109, "telemetry_seq": 292, "t_rx_ms": 1776450114650, "dt_ms": -67, "doa_deg": 65.0, "confidence_0_1": 1.7542503774166107, "lat_deg": 34.059092, "lon_deg": -117.82070669999999, "altitude_rel_ft": -0.4626, "yaw_deg": -42.886, "pitch_deg": 1.1089, "roll_deg": 0.2499, "ground_speed_ft_s": 1.9756, "vel_north_m_s": 0.35, "vel_east_m_s": 0.49, "vel_down_m_s": -0.74, "usable_for_triangulation": true, "t_gcs_rx_ms": 1776450728590}
{"run_id": "20260417_111850", "kraken_seq": 110, "telemetry_seq": 295, "t_rx_ms": 1776450115151, "dt_ms": 37, "doa_deg": 29.0, "confidence_0_1": 2.304634302854538, "lat_deg": 34.0590909, "lon_deg": -117.8206907, "altitude_rel_ft": -0.3084, "yaw_deg": -42.9129, "pitch_deg": 1.1099, "roll_deg": 0.2537, "ground_speed_ft_s": 1.4323, "vel_north_m_s": 0.41, "vel_east_m_s": 0.15, "vel_down_m_s": -0.53, "usable_for_triangulation": true, "t_gcs_rx_ms": 1776450728754}
{"run_id": "20260417_111850", "kraken_seq": 111, "telemetry_seq": 296, "t_rx_ms": 1776450115456, "dt_ms": -67, "doa_deg": 31.0, "confidence_0_1": 1.574377566576004, "lat_deg": 34.0590909, "lon_deg": -117.8206907, "altitude_rel_ft": -0.3084, "yaw_deg": -42.9129, "pitch_deg": 1.1099, "roll_deg": 0.2537, "ground_speed_ft_s": 1.4323, "vel_north_m_s": 0.41, "vel_east_m_s": 0.15, "vel_down_m_s": -0.53, "usable_for_triangulation": true, "t_gcs_rx_ms": 1776450729164}
{"run_id": "20260417_111850", "kraken_seq": 112, "telemetry_seq": 299, "t_rx_ms": 1776450115957, "dt_ms": 48, "doa_deg": 103.0, "confidence_0_1": 2.069272994995117, "lat_deg": 34.0590909, "lon_deg": -117.8206907, "altitude_rel_ft": -0.3084, "yaw_deg": -42.9129, "pitch_deg": 1.1099, "roll_deg": 0.2537, "ground_speed_ft_s": 1.4323, "vel_north_m_s": 0.41, "vel_east_m_s": 0.15, "vel_down_m_s": -0.53, "usable_for_triangulation": true, "t_gcs_rx_ms": 1776450729568}
{"run_id": "20260417_111850", "kraken_seq": 113, "telemetry_seq": 301, "t_rx_ms": 1776450116361, "dt_ms": 46, "doa_deg": 107.0, "confidence_0_1": 2.447688728570938, "lat_deg": 34.0590863, "lon_deg": -117.82069949999999, "altitude_rel_ft": -0.9711, "yaw_deg": -42.9164, "pitch_deg": 1.1059, "roll_deg": 0.258, "ground_speed_ft_s": 5.7627, "vel_north_m_s": 0.24, "vel_east_m_s": 1.74, "vel_down_m_s": -0.44, "usable_for_triangulation": true, "t_gcs_rx_ms": 1776450729977}
{"run_id": "20260417_111850", "kraken_seq": 114, "telemetry_seq": 303, "t_rx_ms": 1776450116763, "dt_ms": 48, "doa_deg": 106.0, "confidence_0_1": 2.6347002387046814, "lat_deg": 34.0590863, "lon_deg": -117.82069949999999, "altitude_rel_ft": -0.9711, "yaw_deg": -42.9164, "pitch_deg": 1.1059, "roll_deg": 0.258, "ground_speed_ft_s": 5.7627, "vel_north_m_s": 0.24, "vel_east_m_s": 1.74, "vel_down_m_s": -0.44, "usable_for_triangulation": true, "t_gcs_rx_ms": 1776450730465}
{"run_id": "20260417_111850", "kraken_seq": 115, "telemetry_seq": 305, "t_rx_ms": 1776450117264, "dt_ms": -49, "doa_deg": 108.0, "confidence_0_1": 3.151555359363556, "lat_deg": 34.0590748, "lon_deg": -117.8207039, "altitude_rel_ft": -0.876, "yaw_deg": -42.8207, "pitch_deg": 1.1053, "roll_deg": 0.2608, "ground_speed_ft_s": 1.0682, "vel_north_m_s": 0.06, "vel_east_m_s": 0.32, "vel_down_m_s": -0.28, "usable_for_triangulation": true, "t_gcs_rx_ms": 1776450730777}
{"run_id": "20260417_111850", "kraken_seq": 116, "telemetry_seq": 308, "t_rx_ms": 1776450117772, "dt_ms": 46, "doa_deg": 110.0, "confidence_0_1": 3.653976321220398, "lat_deg": 34.0590748, "lon_deg": -117.8207039, "altitude_rel_ft": -0.876, "yaw_deg": -42.8207, "pitch_deg": 1.1053, "roll_deg": 0.2608, "ground_speed_ft_s": 1.0682, "vel_north_m_s": 0.06, "vel_east_m_s": 0.32, "vel_down_m_s": -0.28, "usable_for_triangulation": true, "t_gcs_rx_ms": 1776450731168}
{"run_id": "20260417_111850", "kraken_seq": 117, "telemetry_seq": 310, "t_rx_ms": 1776450118182, "dt_ms": 42, "doa_deg": 113.0, "confidence_0_1": 3.753315508365631, "lat_deg": 34.0590774, "lon_deg": -117.8206833, "altitude_rel_ft": -0.4429, "yaw_deg": -42.8802, "pitch_deg": 1.0985, "roll_deg": 0.2634, "ground_speed_ft_s": 6.6479, "vel_north_m_s": 0.87, "vel_east_m_s": 1.83, "vel_down_m_s": -0.79, "usable_for_triangulation": true, "t_gcs_rx_ms": 1776450731585}
{"run_id": "20260417_111850", "kraken_seq": 118, "telemetry_seq": 312, "t_rx_ms": 1776450118694, "dt_ms": -67, "doa_deg": 112.0, "confidence_0_1": 3.779689073562622, "lat_deg": 34.0590774, "lon_deg": -117.8206833, "altitude_rel_ft": -0.4429, "yaw_deg": -42.8802, "pitch_deg": 1.0985, "roll_deg": 0.2634, "ground_speed_ft_s": 6.6479, "vel_north_m_s": 0.87, "vel_east_m_s": 1.83, "vel_down_m_s": -0.79, "usable_for_triangulation": true, "t_gcs_rx_ms": 1776450732133}
{"run_id": "20260417_111850", "kraken_seq": 119, "telemetry_seq": 318, "t_rx_ms": 1776450119900, "dt_ms": -68, "doa_deg": 73.0, "confidence_0_1": 2.393796741962433, "lat_deg": 34.059078899999996, "lon_deg": -117.82065469999999, "altitude_rel_ft": 0.3543, "yaw_deg": -42.8743, "pitch_deg": 1.0997, "roll_deg": 0.2619, "ground_speed_ft_s": 3.9622, "vel_north_m_s": -1.09, "vel_east_m_s": 0.52, "vel_down_m_s": -0.89, "usable_for_triangulation": true, "t_gcs_rx_ms": 1776450732567}
{"run_id": "20260417_111850", "kraken_seq": 120, "telemetry_seq": 320, "t_rx_ms": 1776450120328, "dt_ms": -94, "doa_deg": 44.0, "confidence_0_1": 2.671441435813904, "lat_deg": 34.0590766, "lon_deg": -117.82063509999999, "altitude_rel_ft": 0.0459, "yaw_deg": -42.859, "pitch_deg": 1.0996, "roll_deg": 0.2574, "ground_speed_ft_s": 5.833, "vel_north_m_s": 0.45, "vel_east_m_s": 1.72, "vel_down_m_s": -0.68, "usable_for_triangulation": true, "t_gcs_rx_ms": 1776450732793}
{"run_id": "20260417_111850", "kraken_seq": 121, "telemetry_seq": 322, "t_rx_ms": 1776450120737, "dt_ms": -100, "doa_deg": 25.0, "confidence_0_1": 2.73874431848526, "lat_deg": 34.0590766, "lon_deg": -117.82063509999999, "altitude_rel_ft": 0.0459, "yaw_deg": -42.859, "pitch_deg": 1.0996, "roll_deg": 0.2574, "ground_speed_ft_s": 5.833, "vel_north_m_s": 0.45, "vel_east_m_s": 1.72, "vel_down_m_s": -0.68, "usable_for_triangulation": true, "t_gcs_rx_ms": 1776450733192}
{"run_id": "20260417_111850", "kraken_seq": 122, "telemetry_seq": 325, "t_rx_ms": 1776450121240, "dt_ms": 1, "doa_deg": 25.0, "confidence_0_1": 1.6489584743976593, "lat_deg": 34.059076999999995, "lon_deg": -117.820622, "altitude_rel_ft": 0.8268, "yaw_deg": -42.9921, "pitch_deg": 1.1007, "roll_deg": 0.2608, "ground_speed_ft_s": 7.0893, "vel_north_m_s": -2.16, "vel_east_m_s": 0.06, "vel_down_m_s": -0.89, "usable_for_triangulation": true, "t_gcs_rx_ms": 1776450733733}
{"run_id": "20260417_111850", "kraken_seq": 123, "telemetry_seq": 327, "t_rx_ms": 1776450121642, "dt_ms": 1, "doa_deg": 50.0, "confidence_0_1": 1.3097359240055084, "lat_deg": 34.059076999999995, "lon_deg": -117.820622, "altitude_rel_ft": 0.8268, "yaw_deg": -42.9921, "pitch_deg": 1.1007, "roll_deg": 0.2608, "ground_speed_ft_s": 7.0893, "vel_north_m_s": -2.16, "vel_east_m_s": 0.06, "vel_down_m_s": -0.89, "usable_for_triangulation": true, "t_gcs_rx_ms": 1776450734027}
{"run_id": "20260417_111850", "kraken_seq": 124, "telemetry_seq": 329, "t_rx_ms": 1776450122049, "dt_ms": 0, "doa_deg": 53.0, "confidence_0_1": 1.1823680251836777, "lat_deg": 34.0590731, "lon_deg": -117.8206184, "altitude_rel_ft": 0.8465, "yaw_deg": -43.0927, "pitch_deg": 1.09, "roll_deg": 0.2613, "ground_speed_ft_s": 3.3845, "vel_north_m_s": 0.29, "vel_east_m_s": 0.99, "vel_down_m_s": -0.54, "usable_for_triangulation": true, "t_gcs_rx_ms": 1776450734486}
{"run_id": "20260417_111850", "kraken_seq": 125, "telemetry_seq": 331, "t_rx_ms": 1776450122453, "dt_ms": -3, "doa_deg": 67.0, "confidence_0_1": 1.2387730181217194, "lat_deg": 34.0590731, "lon_deg": -117.8206184, "altitude_rel_ft": 0.8465, "yaw_deg": -43.0927, "pitch_deg": 1.09, "roll_deg": 0.2613, "ground_speed_ft_s": 3.3845, "vel_north_m_s": 0.29, "vel_east_m_s": 0.99, "vel_down_m_s": -0.54, "usable_for_triangulation": true, "t_gcs_rx_ms": 1776450734818}
{"run_id": "20260417_111850", "kraken_seq": 126, "telemetry_seq": 334, "t_rx_ms": 1776450122955, "dt_ms": 97, "doa_deg": 354.0, "confidence_0_1": 2.4488499760627747, "lat_deg": 34.059070999999996, "lon_deg": -117.82060949999999, "altitude_rel_ft": 0.5085, "yaw_deg": -43.0915, "pitch_deg": 1.0863, "roll_deg": 0.2702, "ground_speed_ft_s": 2.3036, "vel_north_m_s": 0.21, "vel_east_m_s": 0.67, "vel_down_m_s": -0.56, "usable_for_triangulation": true, "t_gcs_rx_ms": 1776450735302}
{"run_id": "20260417_111850", "kraken_seq": 127, "telemetry_seq": 510, "t_rx_ms": 1776450158332, "dt_ms": 77, "doa_deg": 133.0, "confidence_0_1": 6.487408876419067, "lat_deg": 34.0590362, "lon_deg": -117.82032939999999, "altitude_rel_ft": -0.0558, "yaw_deg": -44.3611, "pitch_deg": 1.1517, "roll_deg": 0.368, "ground_speed_ft_s": 1.3595, "vel_north_m_s": 0.06, "vel_east_m_s": 0.41, "vel_down_m_s": -0.55, "usable_for_triangulation": true, "t_gcs_rx_ms": 1776450735700}
{"run_id": "20260417_111850", "kraken_seq": 128, "telemetry_seq": 513, "t_rx_ms": 1776450158961, "dt_ms": 52, "doa_deg": 113.0, "confidence_0_1": 3.265490233898163, "lat_deg": 34.0590416, "lon_deg": -117.82032339999999, "altitude_rel_ft": -0.0459, "yaw_deg": -44.3919, "pitch_deg": 1.1536, "roll_deg": 0.3657, "ground_speed_ft_s": 5.1867, "vel_north_m_s": 0.87, "vel_east_m_s": 1.32, "vel_down_m_s": -0.28, "usable_for_triangulation": true, "t_gcs_rx_ms": 1776450736148}
{"run_id": "20260417_111850", "kraken_seq": 129, "telemetry_seq": 514, "t_rx_ms": 1776450159162, "dt_ms": 52, "doa_deg": 110.0, "confidence_0_1": 3.2071366906166077, "lat_deg": 34.0590416, "lon_deg": -117.82032339999999, "altitude_rel_ft": -0.0459, "yaw_deg": -44.3919, "pitch_deg": 1.1536, "roll_deg": 0.3657, "ground_speed_ft_s": 5.1867, "vel_north_m_s": 0.87, "vel_east_m_s": 1.32, "vel_down_m_s": -0.28, "usable_for_triangulation": true, "t_gcs_rx_ms": 1776450736501}
{"run_id": "20260417_111850", "kraken_seq": 130, "telemetry_seq": 516, "t_rx_ms": 1776450159670, "dt_ms": -51, "doa_deg": 112.0, "confidence_0_1": 3.370189070701599, "lat_deg": 34.0590416, "lon_deg": -117.82032339999999, "altitude_rel_ft": -0.0459, "yaw_deg": -44.3919, "pitch_deg": 1.1536, "roll_deg": 0.3657, "ground_speed_ft_s": 5.1867, "vel_north_m_s": 0.87, "vel_east_m_s": 1.32, "vel_down_m_s": -0.28, "usable_for_triangulation": true, "t_gcs_rx_ms": 1776450736944}
{"run_id": "20260417_111850", "kraken_seq": 131, "telemetry_seq": 518, "t_rx_ms": 1776450160101, "dt_ms": -81, "doa_deg": 108.0, "confidence_0_1": 3.2855337858200073, "lat_deg": 34.0590389, "lon_deg": -117.82032099999999, "altitude_rel_ft": -0.4528, "yaw_deg": -44.4442, "pitch_deg": 1.148, "roll_deg": 0.3621, "ground_speed_ft_s": 1.4746, "vel_north_m_s": -0.24, "vel_east_m_s": -0.38, "vel_down_m_s": -0.45, "usable_for_triangulation": true, "t_gcs_rx_ms": 1776450737534}
{"run_id": "20260417_111850", "kraken_seq": 132, "telemetry_seq": 521, "t_rx_ms": 1776450160605, "dt_ms": 19, "doa_deg": 108.0, "confidence_0_1": 3.789324164390564, "lat_deg": 34.0590389, "lon_deg": -117.82032099999999, "altitude_rel_ft": -0.4528, "yaw_deg": -44.4442, "pitch_deg": 1.148, "roll_deg": 0.3621, "ground_speed_ft_s": 1.4746, "vel_north_m_s": -0.24, "vel_east_m_s": -0.38, "vel_down_m_s": -0.45, "usable_for_triangulation": true, "t_gcs_rx_ms": 1776450737743}
{"run_id": "20260417_111850", "kraken_seq": 133, "telemetry_seq": 523, "t_rx_ms": 1776450161008, "dt_ms": 19, "doa_deg": 108.0, "confidence_0_1": 3.688628673553467, "lat_deg": 34.0590409, "lon_deg": -117.82031649999999, "altitude_rel_ft": 0.4331, "yaw_deg": -44.4428, "pitch_deg": 1.1434, "roll_deg": 0.3657, "ground_speed_ft_s": 3.3703, "vel_north_m_s": -0.88, "vel_east_m_s": -0.53, "vel_down_m_s": -0.5, "usable_for_triangulation": true, "t_gcs_rx_ms": 1776450738135}
{"run_id": "20260417_111850", "kraken_seq": 134, "telemetry_seq": 525, "t_rx_ms": 1776450161410, "dt_ms": 19, "doa_deg": 111.0, "confidence_0_1": 3.7197500467300415, "lat_deg": 34.0590409, "lon_deg": -117.82031649999999, "altitude_rel_ft": 0.4331, "yaw_deg": -44.4428, "pitch_deg": 1.1434, "roll_deg": 0.3657, "ground_speed_ft_s": 3.3703, "vel_north_m_s": -0.88, "vel_east_m_s": -0.53, "vel_down_m_s": -0.5, "usable_for_triangulation": true, "t_gcs_rx_ms": 1776450738586}
{"run_id": "20260417_111850", "kraken_seq": 135, "telemetry_seq": 527, "t_rx_ms": 1776450161811, "dt_ms": 19, "doa_deg": 108.0, "confidence_0_1": 4.023816883563995, "lat_deg": 34.0590409, "lon_deg": -117.82031649999999, "altitude_rel_ft": 0.4331, "yaw_deg": -44.4428, "pitch_deg": 1.1434, "roll_deg": 0.3657, "ground_speed_ft_s": 3.3703, "vel_north_m_s": -0.88, "vel_east_m_s": -0.53, "vel_down_m_s": -0.5, "usable_for_triangulation": true, "t_gcs_rx_ms": 1776450738918}
{"run_id": "20260417_111850", "kraken_seq": 136, "telemetry_seq": 529, "t_rx_ms": 1776450162217, "dt_ms": 18, "doa_deg": 97.0, "confidence_0_1": 2.569933831691742, "lat_deg": 34.059044799999995, "lon_deg": -117.8202936, "altitude_rel_ft": -0.4987, "yaw_deg": -44.7105, "pitch_deg": 1.1381, "roll_deg": 0.3654, "ground_speed_ft_s": 10.3829, "vel_north_m_s": 1.73, "vel_east_m_s": 2.65, "vel_down_m_s": -0.39, "usable_for_triangulation": true, "t_gcs_rx_ms": 1776450739552}
{"run_id": "20260417_111850", "kraken_seq": 137, "telemetry_seq": 531, "t_rx_ms": 1776450162718, "dt_ms": -79, "doa_deg": 33.0, "confidence_0_1": 1.5643393993377686, "lat_deg": 34.059044799999995, "lon_deg": -117.8202936, "altitude_rel_ft": -0.4987, "yaw_deg": -44.7105, "pitch_deg": 1.1381, "roll_deg": 0.3654, "ground_speed_ft_s": 10.3829, "vel_north_m_s": 1.73, "vel_east_m_s": 2.65, "vel_down_m_s": -0.39, "usable_for_triangulation": true, "t_gcs_rx_ms": 1776450739728}
{"run_id": "20260417_111850", "kraken_seq": 138, "telemetry_seq": 533, "t_rx_ms": 1776450163121, "dt_ms": -80, "doa_deg": 18.0, "confidence_0_1": 1.841115653514862, "lat_deg": 34.0590456, "lon_deg": -117.8202924, "altitude_rel_ft": 0.1804, "yaw_deg": -45.4755, "pitch_deg": 1.1338, "roll_deg": 0.3695, "ground_speed_ft_s": 2.5055, "vel_north_m_s": 0.54, "vel_east_m_s": 0.54, "vel_down_m_s": -0.44, "usable_for_triangulation": true, "t_gcs_rx_ms": 1776450740151}
